{"companies":[{"name":"SalesBabu Business Solutions Pvt Ltd","addresses":[{"headline":"Branch Office","latlong":{"lng":77.22496,"lat":28.635308},"detail":"Ch-8Goverdhan TowerOpposite to Pacific MallKaushambiPin-201010","city":"Delhi"},{"headline":"Corporate Office","latlong":{"lng":77.5945627,"lat":12.9715987},"detail":"38/113rd CrossG-BlockSahakarnagarBengaluru Pin-560 092","city":"Bangalore"}]},{"name":"MediaAgility","addresses":[{"headline":"Branch","latlong":{"lng":77.0266383,"lat":28.4594965},"detail":"SCO 43, Old Judicial Complex,Sector 15Gurgaon 122001","city":"Gurgaon"},{"headline":"Head Quarters","latlong":{"lng":77.053568,"lat":28.4786064},"detail":"SCO 43, Old Judicial Complex Gurgaon, Haryana 122001, India","city":"Gurgaon"}]},{"name":"Recruiterbox","addresses":[]},{"name":"Markuplab","addresses":[]},{"name":"Infoarmy","addresses":[{"headline":"Engineering Office","latlong":{"lng":76.9558321,"lat":11.0168445},"detail":"Module #001,Ground Floor , TIDEL Park, ELCOT IT- SEZ Villankurichi Road, Coimbatore -641014","city":"Coimbatore"}]},{"name":"iTraveller","addresses":[{"headline":"Head Quarters","latlong":{"lng":76.26730409999999,"lat":9.9312328},"detail":"Level 4, MM Towers, Seaport Airport Road, Opp DLF, Kakkanad PO, Cochin 682030.","city":"Cochin"}]},{"name":"Agile","addresses":[]},{"name":"P-Device","addresses":[]},{"name":"Plan My Leave","addresses":[{"headline":"Bangalore","latlong":{"lng":77.5945627,"lat":12.9715987},"detail":"459, 3rd Main, 11th CrossSadashivanagar, Bangalore","city":"459, 3rd Main, 11th CrossSadashivanagar, Bangalore"}]},{"name":"SafeCloud","addresses":[{"headline":"Head Quarters","latlong":{"lng":72.5704799,"lat":23.0301383},"detail":"B15 Hemkoot Complex Ashram Road Ahmedabad, Gujarat 380009 ,India","city":"Ahmedabad"},{"headline":"Head Quarters","latlong":{"lng":72.519021,"lat":23.0277795},"detail":"A1 Sonali Apt, Satellite Road, Ahmedabad - 380015","city":"Ahmedabad"}]},{"name":"Paceable","addresses":[{"headline":"Sales Office","latlong":{"lng":-122.4194155,"lat":37.7749295},"detail":"","city":"San Francisco"},{"headline":"Engineering Office","latlong":{"lng":77.5945627,"lat":12.9715987},"detail":"","city":"Bangalore"}]},{"name":"Rachna Technologies","addresses":[{"headline":"Engineering Office","latlong":{"lng":77.08781239999999,"lat":28.480581},"detail":"Rachna Technologies Pvt. Ltd.Level 6, JMD Regent Square,Mehrauli Gurgaon Road, Gurgaon -122001","city":"Gurgaon"}]},{"name":"hubVirt Software Solutions","addresses":[{"headline":"Registered Office","latlong":{"lng":77.632677,"lat":12.9385328},"detail":"No. 10, 100 Feet Ring Road,BTM Layout 1st Stage,Bangalore 560 068,Karnataka, India.","city":"Bangalore"}]},{"name":"Framebench","addresses":[{"headline":"HQ","latlong":{"lng":77.1289097,"lat":28.6890174},"detail":"ED 30BPitampuraNew Delhi, 110034, IND","city":"New Delhi"}]},{"name":"BlazeClan Technologies","addresses":[{"headline":"Engineering Office","latlong":{"lng":73.8567437,"lat":18.5204303},"detail":"BlazeClan Technologies Pvt. Ltd.2nd Floor,Shiv Kamal,Vidya Vihar Colony,Shivaji Nagar,Pune - 411016, MaharashtraIndia","city":"Pune"}]},{"name":"Social Cloud Ventures","addresses":[{"headline":"Head Quarters","latlong":{"lng":77.142764,"lat":28.5072526},"detail":"Social Cloud Ventures Pvt. Ltd. Ghitorni New Delhi, India","city":"New Delhi"}]},{"name":"Saranyu Technologies","addresses":[{"headline":"Head Quarters","latlong":{"lng":77.5945627,"lat":12.9715987},"detail":"#22, 1st Floor, Shamarao Compound Mission Road Bangalore, Karantaka 560027, India","city":"Bangalore"}]},{"name":"Cloud Kinetics","addresses":[{"headline":"Head Quarters","latlong":{"lng":80.2683718,"lat":13.0336437},"detail":"Regus Citi Centre,Level 6, Chennai Citi centre, 10/11,Dr.Radhakrishnan Salai Chennai, Tamil Nadu 600004 India","city":"Chennai"}]},{"name":"Markitty","addresses":[{"headline":"Pune","latlong":{"lng":73.9447994,"lat":18.5519106},"detail":"Kharadi","city":"Kharadi"}]},{"name":"Energy Cloud Technology","addresses":[{"headline":"Head Quarters","latlong":{"lng":72.8308692,"lat":21.2027739},"detail":"206, Laxminarayan Chambers Near - Patidar Bhavan, Mahidharpura, Surat, Gujarat 395003, India","city":"Surat"}]},{"name":"Cloud Orange","addresses":[{"headline":"Head Quarters","latlong":{"lng":76.5314817,"lat":9.4987696},"detail":"Saintgits TBI, Saintgits College of Engineering Kottukulam Hills, Pathamuttom P.O., Kottayam, Kerala 686532 India","city":"Kottayam"}]},{"name":"CloudInfra","addresses":[{"headline":"Head Quarters","latlong":{"lng":77.59781869999999,"lat":12.9711758},"detail":"Microsoft Windows Azure Accelerator Vigyan, Lavelle Road Bangalore, Karnataka 560001, India","city":"Bangalore"}]},{"name":"Twelve77 Software Studios","addresses":[{"headline":"HQ","latlong":{"lng":77.69732359999999,"lat":12.9428285},"detail":"#21, bellandur circle, outer ring road, Bellandur, Bangalore 460013","city":"Bangalore"}]},{"name":"SmartCloud Infotech","addresses":[{"headline":"Head Quarters","latlong":{"lng":73.8830701,"lat":18.5263773},"detail":"Survey No. 81 Koregaon Park Annex, Pune, Maharashtra 411001,India","city":"Pune"}]},{"name":"Mobyforce","addresses":[{"headline":"Development Center","latlong":{"lng":77.69253909999999,"lat":12.9797708},"detail":"F-702, Akme Ballet, Doddenakundi, Outer Ring Road, Bangalore - 560037","city":"Bangalore"}]},{"name":"CloudFronts Technologies","addresses":[{"headline":"Mumbai","latlong":{},"detail":"T-5 Satyam Business Centre, A Wing.M.G.Road, Ghatkopar E.Mumbai 400077, INDIA","city":"T-5 Satyam Business Centre, A Wing.M.G.Road, Ghatkopar E.Mumbai 400077, INDIA"}]},{"name":"Boostrr","addresses":[{"headline":"HQ","latlong":{"lng":77.1515453,"lat":28.5273352},"detail":"3364, Vasant Kunj, New Delhi","city":"Delhi"}]},{"name":"VoiceTree Technologies Pvt. Ltd","addresses":[]},{"name":"CloudThat Technologies Pvt Ltd","addresses":[{"headline":"Head Quarters","latlong":{"lng":77.6321339,"lat":12.9365045},"detail":"#668 / B, 17th C Main, Opposite Koramangala Club, 6th Block Koramangala, Bengaluru, Karnataka 560095 India","city":"bangalore"}]},{"name":"Clozon Technologies","addresses":[{"headline":"Head Quarters","latlong":{"lng":77.5820012,"lat":12.9129199},"detail":"Clozon Technologies Private LimitedFirst Floor ,Novel Business CenterNo. 10, 100 Feet Ring Road,BTM 1st Stage,Bangalore &ndash; 560 068.Karnatak, India.","city":"Bangalore"}]},{"name":"SUDESI CLOUD","addresses":[{"headline":"Head Quarters","latlong":{"lng":72.99920130000001,"lat":19.0793547},"detail":"F11, Haware's Fantasia Business Park, Next to Inorbit Mall, Plot-47, Sector 30A, Vashi, NaviMumbai, Maharastra 400703 India","city":"Navi Mumbai"}]},{"name":"99review.com","addresses":[{"headline":"Head Quarters","latlong":{"lng":79.78414149999999,"lat":11.8500483},"detail":"Anugraha Satellite Township,Peiryakattupalayam,Pondicherry, India","city":"Pondicherry, Pondicherry, India"}]},{"name":"Cloud Vision Systems","addresses":[{"headline":"Head Quarters","latlong":{"lng":73.87866009999999,"lat":18.5735254},"detail":"Vishrantwadi ,Pune , Maharashatra India","city":"Pune"}]},{"name":"Blue Lion Cloud Solutions","addresses":[{"headline":"Head Quarters","latlong":{"lng":80.2368046,"lat":13.0318716},"detail":"23D North Boag Rd, Unit# 4J, T.Nagar Chennai, TamilNadu 600017, India","city":"Chennai"}]},{"name":"Strategic Cloud Services","addresses":[{"headline":"Head Quarters","latlong":{"lng":77.65074890000001,"lat":12.9105591},"detail":"JS Towers, Ground Floor, L32, 2nd 'A' Main Road, HSR Layout, 6th Sector, Outer Ring Road, Agara, Bangalore, Karnataka 560102, India","city":"Bangalore"}]},{"name":"Cloud Experts","addresses":[{"headline":"Head Quarters","latlong":{"lng":77.5945627,"lat":12.9715987},"detail":"#811, 23rd Main, 12th 'A' CrossJ.P. Nagar 2nd PhaseBangalore &ndash; 560 078,INDIA","city":"Bangalore"}]},{"name":"VisualMedia Technologies","addresses":[]},{"name":"Eventjini","addresses":[]},{"name":"Infologitech Systems","addresses":[]},{"name":"CLOUDJINI TECHNOLOGIES","addresses":[{"headline":"Head Quarters","latlong":{"lng":77.6613826,"lat":12.9216385},"detail":"4055-Sobha Daisy, Outer Ring Road, Bellandur Bangalore, Karnataka 560103,India","city":"Bangalore"}]},{"name":"Get2Galaxy","addresses":[]},{"name":"CloudMunch","addresses":[{"headline":"US Office","latlong":{"lng":-122.194024,"lat":47.61766},"detail":"10900, NE 8th St Ste,1000 Bellevue WA 98004","city":"Seattle"},{"headline":"India Office","latlong":{"lng":77.5788492,"lat":12.9180107},"detail":"580, 44th Cross,Jayanagar 8th Block,Bangalore - 560082","city":"Bangalore"}]},{"name":"Ape&amp;SuperApe Entertainment&amp;InfoTech Pvt Ltd","addresses":[]},{"name":"Athinio Data Systems","addresses":[]},{"name":"Genwi","addresses":[]},{"name":"Xervmon Inc","addresses":[{"headline":"Canada Development Center","latlong":{"lng":-80.4747476,"lat":43.4197604},"detail":"315-282 Kingswood DrKitchener, Ontario CANADA","city":"Kitchener"},{"headline":"India Development Center","latlong":{"lng":77.6351809,"lat":12.9117367},"detail":"#999, 9th Main, HSR Layout Sector 7Bengaluru, IndiaTel: 91 80 25729959Fax: 91 80 25729959","city":"Bengaluru"},{"headline":"Head Quarters","latlong":{"lng":-95.39216880000001,"lat":29.9398283},"detail":"505 Sam Houston Pkwy ESuite 450HoustonTexas 77060","city":"Houston"}]},{"name":"Peritocer Microsystems","addresses":[]},{"name":"iSteer","addresses":[{"headline":"Head Office","latlong":{"lng":80.1788681,"lat":13.0448093},"detail":"No:50, 1st Floor,Ramaswamy Street,SriDevi Karumariamman Nagar,Valasaravakkam,Chennai - 600 087.","city":"Chennai"}]},{"name":"IntelligenceNODE","addresses":[]},{"name":"ChargeBee","addresses":[{"headline":"Engineering Office","latlong":{"lng":80.249583,"lat":13.060422},"detail":"","city":"Chennai"}]},{"name":"Cloudenablers","addresses":[{"headline":"Head Quarters","latlong":{"lng":80.2084273,"lat":13.0100275},"detail":"B-24, Guindy Industrial Estate Ekkaduthangal Chennai, Tamilnadu 600032 India","city":"Chennai"}]},{"name":"VMC Technologies Pvt. Ltd.","addresses":[{"headline":"Head Quarters","latlong":{"lng":77.743438,"lat":12.9866666},"detail":"Regent Prime, Unit 107, 48-50 Whitefield Road, Whitefield, Bangalore-560066","city":"Bangalore"}]},{"name":"SUVICHAR TECHNOLOGIES","addresses":[{"headline":"Head Quarters","latlong":{"lng":73.8567437,"lat":18.5204303},"detail":"Office No. 113, Siddharth Towers, Sangam Press Road, Kothrud, Pune 411029, India","city":"Pune"}]},{"name":"Attribo","addresses":[{"headline":"Head Quarters","latlong":{"lng":77.6292697,"lat":12.9137705},"detail":"#234, Gr Floor, 16th Cross, 9th Main Sector-6, HSR Layout Bangalore, Karnataka 560102, India","city":"Bangalore"}]},{"name":"eMyPA Business Solutions","addresses":[{"headline":"Registered Office","latlong":{"lng":77.56979319999999,"lat":12.9221914},"detail":"1983, 26th Cross, 9th Main, BSK Stage 2, Bangalore INDIA","city":"Bangalore"}]},{"name":"Unicommerce eSolutions Pvt. Ltd.","addresses":[{"headline":"Head Quarters","latlong":{"lng":77.26781369999999,"lat":28.549291},"detail":"52-B, Ground floor, Okhla Phase III,Delhi - 110020","city":"delhi"}]},{"name":"Plivo","addresses":[{"headline":"Bangalore","latlong":{"lng":77.65074890000001,"lat":12.9727135},"detail":"#1307, 3rd Floor, Sigma chambers,Jeevan Bhima Nagar Main Road,HAL III Stage, Bangalore - 560075","city":"#1307, 3rd Floor, Sigma chambers,Jeevan Bhima Nagar Main Road,HAL III Stage, Bangalore - 560075"}]},{"name":"Mobikon","addresses":[{"headline":"Headquartered","latlong":{"lng":103.819836,"lat":1.352083},"detail":"Singapore:306 Tanglin Road, Phoenix Park Office Campus,Singapore 247973Phone: +65 8139-2379 India:Second Floor, Krishna ChambersPashan-Sus Road,PunePhone:+91 20-41464312 / 306 / 307Pincode: 411021USA:5317 shamrock commonFremont, CA 94555. USAPhone: +001 510-676-5873.Bangalore:Gold Crest,No. 49, 1st Cross,1st Phase,1st StageBTM Layout, Bangalore.Phone: +91 - 8065701245.Pincode: 560076","city":"Singapore"}]},{"name":"Get Cloud Ready","addresses":[{"headline":"Head Quarters","latlong":{"lng":78.3910691,"lat":17.4411482},"detail":"223, Level 2, Oval Building iLabs Centre, Plot no. 18, HI-TEC City, Madhapur Hyderabad, Andhra Pradesh 500081 India","city":"Hyderabad"}]},{"name":"NxtGen Datacenter &amp; Cloud Services Limited","addresses":[{"headline":"Head Quarters","latlong":{"lng":77.7499467,"lat":12.9697999},"detail":"#72-73, Akshay Techpark, EPIP Area, Whitefield Bangalore, Karnataka 560066, India","city":"Bangalore"}]},{"name":"EazeWork","addresses":[{"headline":"Development Center","latlong":{"lng":77.3910265,"lat":28.5355161},"detail":"222, IT CC, CDACB 30, Sector 62,NOIDAIndia - 201307Ph - 91 120 2401918","city":"Noida"}]},{"name":"CloudAccess.net","addresses":[{"headline":"CloudAccess.net India","latlong":{"lng":72.5618894,"lat":23.0095879},"detail":"706-707, Pratiksha Complex,Mahalaxmi Cross Roads,Paldi, Ahmedabad - 380028Gujarat, India","city":"Paldi, Anmedabad, Gujarat, India"},{"headline":"CloudAccess.net Poland","latlong":{"lng":14.5441646,"lat":53.4301088},"detail":"ul. Ksi?cia Boguslawa X 6/470-440 SzczecinPoland","city":"Szczecin, Poland"},{"headline":"CloudAccess.net Cheboygan","latlong":{"lng":-84.47922899999999,"lat":45.646014},"detail":"504 S. DivisionCheboygan, MI 49721United States","city":"Cheboygan, Michigan"},{"headline":"Headquarters","latlong":{"lng":-85.62063169999999,"lat":44.7630567},"detail":"CloudAccess.net Traverse City10850 Traverse Hwy, Suite 4480Traverse City, MI 49684United States","city":"Traverse City"}]},{"name":"Learn N Publish","addresses":[{"headline":"Head Office","latlong":{"lng":80.1788681,"lat":13.0448093},"detail":"No:50, 1st Floor,Ramaswamy Street,SriDevi Karumariamman Nagar,Valasaravakkam,Chennai - 600 087.","city":"Chennai"}]},{"name":"Unifycloud","addresses":[{"headline":"Head Quarters","latlong":{"lng":77.3611549,"lat":28.6197948},"detail":"6252 186th PL NE 106 Redmond, WA 98052 United StatesIn IndiaITBI, JSSEC,C-20/1, Sector- 62, Noida.","city":"Noida"}]},{"name":"Lantana Cloud","addresses":[{"headline":"Sales Office","latlong":{"lng":-80.05198589999999,"lat":26.5867358},"detail":"Lantana Cloud Inc.58 Antelope CourtDanville CA 94506USAPhone : +1 888 875 7131 * 201","city":"Danville CA"}]},{"name":"Katpro Technologies","addresses":[]},{"name":"InfoToros","addresses":[]},{"name":"GingerBrain","addresses":[]},{"name":"Commtex Solutions Pvt. Ltd.","addresses":[{"headline":"Registered Office","latlong":{"lng":72.8776559,"lat":19.0759837},"detail":"8/160, Sitaram Bhuvan, Sir Bhalchandra Road, Hindu Colony, Dadar, Mumbai - 400 014","city":"Mumbai"},{"headline":"Development Center","latlong":{"lng":72.90176029999999,"lat":19.067251},"detail":"Flat 14, Plot 63, Indraini, Cheda Nagar, Chembur, Mumbai - 400089, India","city":"Mumbai"}]},{"name":"Screen Magic","addresses":[]},{"name":"Grene Robotics","addresses":[]},{"name":"STUDIO 21","addresses":[{"headline":"HQ &amp; Tech Lab","latlong":{"lng":79.95,"lat":23.1667},"detail":"STUDIO 21Prabhat Chambers651/5, MR 4, VijayanagarJabalpur - Madhya PradeshINDIA 482002","city":"Jabalpur"}]},{"name":"SMB TechEdge","addresses":[]},{"name":"JKL Technologies","addresses":[{"headline":"Head Quarters","latlong":{"lng":80.2279488,"lat":13.0705601},"detail":"11, 1B Liberty Plaza,Vada Agaram Road,Mehta Nagar,Chennai - 600029.","city":"Chennai, Tamil Nadu"}]},{"name":"StoreMonk","addresses":[{"headline":"Head Quarters","latlong":{"lng":77.2139292,"lat":28.5477546},"detail":"40-A, Shahpur Jat New Delhi, Delhi 110049 India","city":"New Delhi"}]},{"name":"sumHR","addresses":[{"headline":"Head Quarters","latlong":{"lng":72.8776559,"lat":19.0759837},"detail":"601 B, Annapurna, Above Mumbai Darbar Hotel,Adarsh Nagar, Off New Link Road, Oshiwara, Andheri (West),Mumbai 400 102.","city":"Mumbai"}]},{"name":"Valuehire","addresses":[{"headline":"Working Office","latlong":{"lng":26.13389,"lat":44.45120379999999},"detail":"Sector 2","city":"Noida"}]},{"name":"ProfitBooks","addresses":[{"headline":"Head Office","latlong":{"lng":73.8622133,"lat":18.4982902},"detail":"21, Kumar Place,East Street, Camp,Pune - 411001","city":"Pune"}]},{"name":"FusionCharts","addresses":[]},{"name":"FORMCEPT","addresses":[{"headline":"Main Office","latlong":{"lng":77.59803149999999,"lat":12.8905776},"detail":"1st Floor, 19 KN Govinda Reddy Layout, Arekere Mico Layout, Bannerghatta Road, Bangalore, Karnataka 560076 India","city":"Bangalore"}]},{"name":"myVoteOn.com","addresses":[]},{"name":"eDesk Online Pvt. Ltd.","addresses":[{"headline":"Registered Office","latlong":{"lng":77.6605028,"lat":13.0055874},"detail":"","city":"Bengaluru (Bangalore)"}]},{"name":"ClientFisher","addresses":[{"headline":"Head Quarters","latlong":{"lng":77.6056949,"lat":12.9189494},"detail":"#B-18, First Floor, 2nd Main,KEB Layout, BTM 1st Stage,Bangalore - 560 029","city":"Bangalore"}]},{"name":"Silver Push","addresses":[]},{"name":"UMS Consultants","addresses":[]},{"name":"Mettl","addresses":[]},{"name":"Native5","addresses":[]},{"name":"Unbxd","addresses":[{"headline":"HQ","latlong":{"lng":77.6518219,"lat":12.912492},"detail":"#2733, 16th Cross, 27th Main, HSR Layout Sector 1, Bangalore 560102","city":"Bangalore"}]},{"name":"Innomark Solutions","addresses":[]},{"name":"Emprenure Labs","addresses":[{"headline":"International Office","latlong":{"lng":115.91758,"lat":-31.965935},"detail":"29 Mort StreetRivervale - 6103Western AustraliaAustralia","city":"Rivervale"},{"headline":"Head Quarters","latlong":{"lng":77.5945627,"lat":12.9715987},"detail":"Emprenure Labs818/1 Plot No.13, Fidelity National Finance Building Lane, Next to Axis Bank Data CenterElectronics City, Phase IIBangalore 560 100","city":"Bangalore"}]},{"name":"CloudStory","addresses":[{"headline":"HeadQuarters","latlong":{"lng":77.6397964,"lat":12.9782821},"detail":"7th Cross, CMH Road, Indranagar","city":"Bangalore"}]},{"name":"omydocs","addresses":[]},{"name":"YogaGuruji","addresses":[{"headline":"Development Office","latlong":{"lng":72.8776559,"lat":19.0759837},"detail":"A-301, Juhi Apartment, Juhi Apartment,Vasant Nagari, Vasai(East),Mumbai- 401208,MaharashtraIndia","city":"Mumbai"}]},{"name":"SilicaMinds","addresses":[]},{"name":"CloudByte","addresses":[{"headline":"Bangalore","detail":"","city":""}]},{"name":"Cavintek","addresses":[{"headline":"India Office","latlong":{"lng":80.1491929,"lat":13.035011},"detail":"#14, Sakthivijayalakshmi Nagar 2nd Street,Velachery, Chennai 600042, India.","city":"Chennai"},{"headline":"US Office","latlong":{"lng":-80.34915989999999,"lat":26.0193082},"detail":"Cavintek, LLC15469 NW 14th Ct.Pembroke Pines, FL 33028","city":""}]},{"name":"Backblaze","addresses":[]},{"name":"WSO2","addresses":[]},{"name":"Centrify","addresses":[]},{"name":"Transera Communications","addresses":[]},{"name":"CTERA Networks","addresses":[]},{"name":"OutlookCloud","addresses":[]},{"name":"Axcient","addresses":[]},{"name":"Abaq.us","addresses":[]},{"name":"Engenia Technologies","addresses":[]},{"name":"Electric Cloud","addresses":[]},{"name":"Owler India Pvt.Ltd","addresses":[]},{"name":"Infinote","addresses":[]},{"name":"ZALP","addresses":[{"headline":"Head Quarters","latlong":{"lng":72.8726952,"lat":19.1154908},"detail":"Andheri East","city":"Mumbai"}]},{"name":"ProcessMate","addresses":[]},{"name":"Zoostr","addresses":[]},{"name":"Box","addresses":[]},{"name":"Turn","addresses":[]},{"name":"VMware","addresses":[]}],"number":114,"addresses":81}
