{"companies":[{"name":"MP09 Digital","addresses":[{"headline":"Registered Office","latlong":{"lng":75.8577258,"lat":22.7195687},"detail":"MP09 Digital (a unit of MP09 Media And Entertainment Private Limited)5th floor, Malhar mega mall, A B Road, Indore [M.P.]","city":"Indore"}]},{"name":"dial2Verify","addresses":[{"headline":"Development Labs","latlong":{"lng":77.7105279,"lat":12.975642},"detail":"A,602/Sterling Brookeside,ITPL Main Road,Bangalore","city":"Bangalore"}]},{"name":"Knowlarity","addresses":[{"headline":"Corportae Office","latlong":{"lng":77.0266383,"lat":28.4594965},"detail":"Amsoft Business ParkUnitech Trade CenterOpposite to Hotel Park PlazaSector- 43Gurgaon-122001","city":"Gurgaon"}]},{"name":"Window Square Guerrilla Marketing Agency","addresses":[{"headline":"Head Office","latlong":{"lng":78.34807219999999,"lat":17.4456892},"detail":"2nd Floor, Vindhya C4, IIIT-Hyderabad, Gachibowli, Hyderabad-500032, India.","city":"Hyderabad"},{"headline":"Head Office","latlong":{"lng":78.486671,"lat":17.385044},"detail":"Plot No. 6,Besides Reliance Fresh road,Indiranagar, Gachibowli,Hyderabad, Andhra PradeshIndia &ndash; 500 032","city":"Hyderabad"}]},{"name":"Brandniti - A Regenti Media Venture !","addresses":[{"headline":"Corporate Office","latlong":{"lng":72.8776559,"lat":19.0759837},"detail":"Regenti Media Pvt Ltd.419-A, Reena Complex,Opposite Neelkanth Business Park,Near Vidyavihar Station,Vidyavihar (West),Mumbai - 400 086,Maharashtra, India.","city":"Mumbai"}]},{"name":"Enthusionz","addresses":[{"headline":"Corporate Office","latlong":{"lng":77.6204832,"lat":12.9371273},"detail":"#414, 1st Cross, koramangala 7th block  Bangalore, Karnataka 560095, India","city":"Bangalore"},{"headline":"Head Quartes","latlong":{"lng":77.6226959,"lat":12.9316556},"detail":"Koramangala","city":"Bangalore"}]},{"name":"Eggfirst","addresses":[]},{"name":"FastTrackCreations","addresses":[{"headline":"HQ","latlong":{"lng":77.22496,"lat":28.635308},"detail":"","city":"New Delhi"}]},{"name":"DreamyVision","addresses":[{"headline":"Head Quarter","latlong":{"lng":46.7241667,"lat":24.7116667},"detail":"Hayyul Wazaara, Kausame Haara, Lahori Khabay, Naeem Market, Riyadh, Saudi Arabia.","city":"Riyadh, Saudi Arabia"},{"headline":"Head Quarter","latlong":{"lng":73.91834639999999,"lat":18.5524936},"detail":"Sr.No.48/4, Ganesh Nagar,BHD Masjid, Wadgaon Sheri,Pune, Maharashtra,India. 411014","city":"Pune"}]},{"name":"Moe's Art","addresses":[{"headline":"Head Quarters","latlong":{"lng":72.8545019,"lat":19.1202321},"detail":"004 Eden Gardens,Bldg. No. 22, Oshiwara,New Link Road, Andheri (W),Mumbai 400053","city":"Mumbai"}]},{"name":"ABCoeZ","addresses":[]},{"name":"Geek Upd8","addresses":[]},{"name":"MediaZo","addresses":[{"headline":"Head Quarters","latlong":{"lng":77.3910265,"lat":28.5355161},"detail":"LGF, D-23, Sector 50, Noida - 201301UP (India)","city":"Noida"}]},{"name":"fFiber Optika Technologies","addresses":[{"headline":"Bangalore","latlong":{"lng":77.5494879,"lat":12.9776661},"detail":"6/7, Industrial TownRajajinagar, Bengaluru, Karnataka 560044","city":"6/7, Industrial TownRajajinagar, Bengaluru, Karnataka 560044"}]},{"name":"Enfin Technologies","addresses":[{"headline":"Development Office","latlong":{"lng":76.948623,"lat":8.4874949},"detail":"Enfin Technologies India Pvt. Ltd.TBIC 11, Thejaswini,Technopark Campus Trivandrum-  695581India.","city":"Trivandrum"},{"headline":"Registered Office","latlong":{"lng":77.6321339,"lat":12.9365045},"detail":"Enfin Technologies India Pvt. Ltd.#13/13, 3rd Floor, 3rd CrossVenkata Reddy Layout,Koramangala 6th Block,Bangalore - 560095,India.","city":"Bangalore"}]},{"name":"V Spark Brandcomm","addresses":[{"headline":"Corporate Office","latlong":{"lng":77.2188695,"lat":28.7012063},"detail":"","city":"Delhi, Lucknow &amp; Guwahati"}]},{"name":"Blu Dacnis Business Solutions","addresses":[{"headline":"Brand Consulting","latlong":{"lng":80.249583,"lat":13.060422},"detail":"L6B, Sarvamangala Colony42nd Street, 6th AvenueAshok NagarChennai","city":"Chennai"}]},{"name":"Content Concepts","addresses":[{"headline":"Chennai","latlong":{"lng":80.2530412,"lat":13.048727},"detail":"Arunuchala Buldings# 5 Sadasivam Street (Opp. to National Public School)Gopalpuram, Chennai 600086","city":"Arunuchala Buldings# 5 Sadasivam Street (Opp. to National Public School)Gopalpuram, Chennai 600086"}]},{"name":"WisdomTap","addresses":[{"headline":"Bangalore","latlong":{},"detail":"Door #3, B.K. Plaza 78 Kaggadasapura Main Road Bangalore 560 07","city":"Door #3, B.K. Plaza 78 Kaggadasapura Main Road Bangalore 560 07"}]},{"name":"Geodesic","addresses":[{"headline":"Mumbai","latlong":{"lng":72.86779419999999,"lat":19.1286862},"detail":"K.C. House, 2nd Floor, CTS No. 15, Central Road, MIDCAndheri East, Mumbai 400093","city":"K.C. House, 2nd Floor, CTS No. 15, Central Road, MIDCAndheri East, Mumbai 400093"}]},{"name":"imake designs","addresses":[{"headline":"Design Consultancy","latlong":{"lng":77.5945627,"lat":12.9715987},"detail":"","city":"Bangalore"}]},{"name":"Info Radiance","addresses":[{"headline":"Research Office","latlong":{"lng":77.180149,"lat":28.634143},"detail":"134, shankar road marketNew rajinder NagarNew Delhi - 110060","city":"new delhi"}]},{"name":"Virtual Marcom","addresses":[]},{"name":"Sales-Push.com","addresses":[]},{"name":"YourStory Media","addresses":[{"headline":"HeadQuarters","latlong":{"lng":77.6397964,"lat":12.9782821},"detail":"7th Cross, CMH Road, Indranagar","city":"Bangalore"}]},{"name":"Aricent Group","addresses":[{"headline":"East Brunswick","latlong":{"lng":-74.40897869999999,"lat":40.4786485},"detail":"One Tower Center Boulevard18th FloorEast Brunswick, NJ 08816","city":"One Tower Center Boulevard18th FloorEast Brunswick, NJ 08816"}]},{"name":"TechBuzzes","addresses":[]},{"name":"Universal Infocom","addresses":[{"headline":"Corporate Office","latlong":{"lng":77.5945627,"lat":12.9715987},"detail":"Golden Square, 102, Eden Park20, Vittal Mallya Road, Bangalore - 560 001","city":"Bangalore"}]},{"name":"Indigotag Digital","addresses":[]},{"name":"Autumn Worldwide","addresses":[{"headline":"Office","latlong":{"lng":77.5945627,"lat":12.9715987},"detail":"Autumn Advertising PVT LTDS B Mansion, # 3/2, 2nd Floor,Berlie Street Cross, Langford Town, Bangalore - 560 025","city":"Bangalore"}]},{"name":"Indi Design","addresses":[]},{"name":"ScriptShaala","addresses":[{"headline":"Bangalore","detail":"","city":""}]},{"name":"Crackerjack","addresses":[]},{"name":"Penumbra Mag","addresses":[]},{"name":"Adroit Communications","addresses":[{"headline":"Navi Mumbai","detail":"","city":""}]},{"name":"Gozoop","addresses":[{"headline":"Branch Office","latlong":{"lng":55.307485,"lat":25.271139},"detail":"Creative City, Fujairah Towers,Emirates of Fujairah,UAE. dushyant@gozoop.com","city":"Dubai"},{"headline":"Head Office","latlong":{"lng":72.8477508,"lat":19.0808907},"detail":"18/143, Anand Nagar,Near Vakola Police Station,Santacruz (E). Mumbai-55. India.","city":"Mumbai"}]},{"name":"ZipDial","addresses":[{"headline":"Corporate office","latlong":{"lng":77.5945627,"lat":12.9715987},"detail":"ZipDial Mobile Solutions Pvt. Ltd.83A 16C Main, 4th Block Koramangala,Behind Saraswat Bank,Bangalore &ndash; 560034India","city":"Bangalore"}]},{"name":"Jigserv Digital","addresses":[]},{"name":"Solutions Infini","addresses":[{"headline":"Branch Sales Office","latlong":{"lng":78.45864639999999,"lat":17.4237279},"detail":"Apeejay house , Tresoire, 1st floor ,The Park , 22 Raj Bhavan Road,Hyderabad - 500082","city":"Hyderabad"},{"headline":"Branch Sales Office","latlong":{"lng":77.3762261,"lat":28.611892},"detail":"A-38K, Sector-64Noida - 201307","city":"Delhi"},{"headline":"Branch Sales Office","latlong":{"lng":72.8776559,"lat":19.0759837},"detail":"602, Dalamal Chambers,New Marine Lines, Mumbai - 400 020","city":"Mumbai"},{"headline":"Head Office","latlong":{"lng":77.61798449999999,"lat":12.9391689},"detail":"No. 369, 2nd Floor, 1st A Cross,7th Block, Koramangala,Bangalore - 560095","city":"Bangalore"}]},{"name":"ClickDesk","addresses":[{"headline":"Head Quarters","latlong":{"lng":-122.0363496,"lat":37.36883},"detail":"","city":"Sunnyvale, California"}]},{"name":"Boring Brands","addresses":[{"headline":"Headquarters","latlong":{"lng":77.0522303,"lat":28.4698377},"detail":"Boring Brands, 2nd floor, Building of Archelons Pvt. Ltd.,  87, IDC, Sector 14, Gurgaon 122001 &ndash; Haryana","city":"Gurgaon"}]},{"name":"Lighthouse Insights","addresses":[{"headline":"News Room","latlong":{"lng":73.8567437,"lat":18.5204303},"detail":"Our home is our work place :)","city":"Pune"}]},{"name":"Godot Media","addresses":[]},{"name":"How Architect Works","addresses":[]},{"name":"Dropmysite","addresses":[{"headline":"Engineering Office","latlong":{"lng":-63.61667199999999,"lat":-38.416097},"detail":"Argentina","city":"Buenos Aires"},{"headline":"Sales Office","latlong":{"lng":72.8234835,"lat":19.1445682},"detail":"Lokhandwala Complex, Andheri West, Mumbai 400053","city":"India"},{"headline":"Head Quarters","latlong":{"lng":100.304337,"lat":5.429298},"detail":"190 Middle Rd #19-05 Fortune Centre Singapore 188979","city":"Singapore"}]},{"name":"Dizuna Communications","addresses":[]},{"name":"AUROMAYAA","addresses":[]},{"name":"Youthopia","addresses":[]},{"name":"Bizfix Data Driven Marketing","addresses":[{"headline":"Head Quarters","latlong":{"lng":-71.10973349999999,"lat":42.3736158},"detail":"The Old RectoryLongstantonCambridgeshireCB24 3BPUK","city":"Cambridge"}]},{"name":"Youth Ki Awaaz: Mouthpiece for the Youth","addresses":[]},{"name":"Ozonetel","addresses":[{"headline":"Corporate Office and Opertions","latlong":{"lng":78.3557775,"lat":17.4727725},"detail":"Ozonetel Systems Pvt.Ltd.# 6-3-1090/B/2, 1st Floor, Mayank Towers,Rajbhavan Road , Somajiguda, Hyderabad - 500084, India.","city":"Hyderabad"}]},{"name":"KLOUDPaD","addresses":[{"headline":"R&amp;D Labs","latlong":{"lng":76.26730409999999,"lat":9.9312328},"detail":"Startup VillageKINFRA High Tech ParkKalamasseryCochinKeralaINDIA","city":"Cochin"}]},{"name":"TradeBriefs","addresses":[{"headline":"Head quarters","latlong":{"lng":72.8776559,"lat":19.0759837},"detail":"A-2804 Oberoi Woods,Ciba India Road,Goregaon E,Mumbai 400063, IndiaPhone: +91-9930577889","city":"Mumbai"}]},{"name":"Waybeo Technology Solutions","addresses":[{"headline":"Marketing","latlong":{"lng":72.8366381,"lat":19.1788435},"detail":"Off Malad Link Road, Malad (West), Mumbai","city":"Mumbai"},{"headline":"Marketing","latlong":{"lng":77.077623,"lat":28.4809873},"detail":"MG Road,Gurgaon","city":"Gurgaon"},{"headline":"Head Quarters","latlong":{"lng":76.948623,"lat":8.4874949},"detail":"4th Floor, NilaTechnoparkTrivandrum  Kerala","city":"Trivandrum"}]},{"name":"Span Idea","addresses":[{"headline":"USA Office","latlong":{"lng":-122.0071383,"lat":37.3539988},"detail":"#1235 Valerian court, Sunnyvale, CA 94086","city":"Sunnyvale"},{"headline":"India Office","latlong":{"lng":77.5945627,"lat":12.9715987},"detail":"#407, 4th Floor, 14, H. M. Geneva House,Cunningham Road, Bangalore-560052.","city":"Bangalore"}]},{"name":"Exotel","addresses":[{"headline":"Warzone+HQ+Hive","latlong":{"lng":77.6435207,"lat":12.9674912},"detail":"2nd Floor, #3484, 14th Main, Indiranagar, 2nd Stage HAL, Bangalore - 560008","city":"Bangalore"}]},{"name":"It's Not Yellow","addresses":[]},{"name":"ZNI Wireless","addresses":[{"headline":"Registered Office","latlong":{"lng":80.95360199999999,"lat":26.912056},"detail":"HI-194, Sector I,Jankipuram,Lucknow - 226021,U.P","city":"Lucknow"}]},{"name":"Kcik","addresses":[{"headline":"Hyderabad","latlong":{"lng":78.34807219999999,"lat":17.4456892},"detail":"IIIT Hyderabad, Gachibowli, Hyderabad","city":"IIIT Hyderabad, Gachibowli, Hyderabad"},{"headline":"HeadQuarters","latlong":{"lng":77.3396212,"lat":28.5388659},"detail":"B-257, Sector 126,Noida, Uttar Pradesh 201301INDIA","city":"Noida"}]},{"name":"APWIG Media","addresses":[{"headline":"Primary Office","latlong":{"lng":72.8485939,"lat":19.1024248},"detail":"APWIG Media, Ground Floor, Palm House, Plot 3B, Hanuman Road, Ville Parle (E), Mumbai 57, Mumbai, Maharashtra, India 400057","city":"Mumbai"}]},{"name":"uniRow","addresses":[{"headline":"Head Quarter","latlong":{"lng":72.8776559,"lat":19.0759837},"detail":"MBC Center, 143/A, Kapurbawdi, Ghodbunder Road, Opp. Cinemax Wonder mall,Thane(W)Mumbai-400607","city":"Mumbai"}]},{"name":"Campus Table","addresses":[{"headline":"Bangalore","detail":"","city":""}]},{"name":"Watchy","addresses":[{"headline":"Sales","latlong":{"lng":80.249583,"lat":13.060422},"detail":"#30, Sadhasivam Nagar, Bazaar road, Madipakam, Chennai-600 092, Tamil Nadu, INDIAPhone:(+91) 9566072090","city":"Chennai"}]},{"name":"Student Story","addresses":[{"headline":"HeadQuarters","latlong":{"lng":77.6397964,"lat":12.9782821},"detail":"7th Cross, CMH Road, Indranagar","city":"Bangalore"}]},{"name":"Missing Link","addresses":[{"headline":"Head Office","latlong":{"lng":72.8348182,"lat":19.2040346},"detail":"Konkan ResidencyKandivali West, Mumbai, MH 400067","city":"Mumbai"}]},{"name":"Concoct Services","addresses":[]},{"name":"Midas Touch Consultants","addresses":[]},{"name":"Brandlogist Communications","addresses":[]},{"name":"One Mobikwik Systems","addresses":[]},{"name":"Gaglers","addresses":[]},{"name":"Firstbase","addresses":[]},{"name":"Advya Communications","addresses":[]},{"name":"Ubona","addresses":[]},{"name":"Appiness","addresses":[]},{"name":"Focus One","addresses":[]},{"name":"CoSurfin","addresses":[]},{"name":"Aggregator","addresses":[]},{"name":"A Little Anarky Films","addresses":[{"headline":"Studios","latlong":{"lng":77.19739969999999,"lat":28.5497644},"detail":"104, Building 42 A, Hauz Khas Village, New Delhi-110016","city":"Delhi"}]},{"name":"Cataphora","addresses":[]},{"name":"NoiseFree","addresses":[]},{"name":"YellowMustard","addresses":[]}],"number":81,"addresses":62}
