{"companies":[{"name":"NowFloats","addresses":[{"headline":"Head Quarters","latlong":{"lng":78.486671,"lat":17.385044},"detail":"1st Floor, 8-2-467/4/A/A, Road No. 1, Banjara Hills, Hyderabad 500034 (Near LaMakaan Caf&eacute;)","city":"Hyderabad"}]},{"name":"Instamojo","addresses":[{"headline":"HQ","latlong":{"lng":72.86779419999999,"lat":19.1286862},"detail":"139, Damji Shamji Industrial Estate, Andheri (E), Mumbai 400093, India.","city":"Mumbai"}]},{"name":"UWIN: Universal Web Identification Number","addresses":[]},{"name":"Plash Digital Labs Private Limited","addresses":[{"headline":"Head Quarter","latlong":{"lng":77.5945627,"lat":12.9715987},"detail":"Plash Digital Labs Pvt Ltd.No. 19, Ground Floor,K.N. Govind Reddy Layout,Near Vandana Apartment Compound,Arekere Mico Layout,Bannerghatta Road,Bangalore 560076.","city":"Bangalore"}]},{"name":"Tune Patrol","addresses":[{"headline":"HQ","latlong":{"lng":77.5945627,"lat":12.9715987},"detail":"JaagaNo 68, KH Double RoadOpp. Corporation BankNext to the K H Road Bus StandBangalore - 560027. INDIA","city":"Bangalore"},{"headline":"Engineering Office","latlong":{"lng":75.602158,"lat":28.36381},"detail":"2243, Technology Business Incubator, BITS Pilani, Pilani- 333031","city":"Pilani"}]},{"name":"Sindbad D Sailor","addresses":[{"headline":"Head Office","latlong":{"lng":72.5167519,"lat":23.0331792},"detail":"Satellite, Ahmedabad","city":"Ahmedabad"}]},{"name":"Gadgetronica.com","addresses":[]},{"name":"Oyemigo.com","addresses":[]},{"name":"Tallenge","addresses":[{"headline":"Regional Hub","latlong":{"lng":77.5945627,"lat":12.9715987},"detail":"","city":"Bangalore"}]},{"name":"Teritree Technologies","addresses":[{"headline":"Working space","latlong":{"lng":77.5945627,"lat":12.9715987},"detail":"9, 2nd Floor, Arjun Point, Tank RoadUlsoor LakeBangalore 42","city":"Bangalore"}]},{"name":"Tradetu","addresses":[{"headline":"Head Quarter","latlong":{"lng":75.7872879,"lat":26.9124165},"detail":"6, Prithviraj Singh Road, C-Scheme, Jaipur","city":"Jaipur"}]},{"name":"Zuby.in","addresses":[{"headline":"HQ","latlong":{"lng":73.8567437,"lat":18.5204303},"detail":"","city":"Pune"}]},{"name":"Niswey Digital Marketing","addresses":[{"headline":"Head Office","latlong":{"lng":77.0266383,"lat":28.4594965},"detail":"303, Solitaire Plaza,M. G. RoadGurgaon","city":"Gurgaon"}]},{"name":"RBW Networks","addresses":[]},{"name":"bitrockr","addresses":[]},{"name":"BillBaba","addresses":[]},{"name":"Social Beat","addresses":[]},{"name":"TradersCockpit","addresses":[{"headline":"Head Quarters","latlong":{"lng":77.5945627,"lat":12.9715987},"detail":"Gumption Labs Software Solutions Pvt Ltd#497, Ground Floor, 8th Cross, JB Nagar Main Road, HAL IIIrd Stage, Bangalore - 75, INDIA","city":"Bangalore"}]},{"name":"ycinema","addresses":[{"headline":"O1","latlong":{"lng":80.249583,"lat":13.060422},"detail":"","city":"Chennai"}]},{"name":"Ekcoffee.com","addresses":[{"headline":"Engineering Office","latlong":{"lng":-122.4194155,"lat":37.7749295},"detail":"","city":"San Francisco"},{"headline":"Head Quarters","latlong":{"lng":73.8567437,"lat":18.5204303},"detail":"","city":"Pune"}]},{"name":"Scrapehere","addresses":[{"headline":"Bangalore","detail":"","city":""}]},{"name":"MyPriceIndia","addresses":[]},{"name":"Indbc Info Solutions","addresses":[]},{"name":"Samtana","addresses":[{"headline":"HQ","latlong":{"lng":77.57627029999999,"lat":13.0426145},"detail":"Samtana Clothing 283, 4th Cross, RMV 2nd stage, 2nd Block, Bangalore 560094","city":"Bangalore"}]},{"name":"RationMart","addresses":[{"headline":"Registered Office","latlong":{"lng":77.0636419,"lat":28.5068253},"detail":"Plot 134, Sector 22A, Gurgaon, Haryana","city":"Gurgaon"}]},{"name":"QStacks.com","addresses":[{"headline":"Day to Day Activities","latlong":{"lng":74.8559568,"lat":12.9141417},"detail":"QStacks.comC/o Skynet 2.0Dargah Road, UllalMangalore - 575020Karnataka, India","city":"Mangalore"}]},{"name":"ChooseMyBicycle","addresses":[]},{"name":"Manashosting","addresses":[{"headline":"India Office","latlong":{"lng":77.55612049999999,"lat":13.0124019},"detail":"WORLD TRADE CENTER,Brigade Gateway,Rajajinagar,Bangalore- 560055","city":"Bangalore"}]},{"name":"joognu dot com pvt ltd","addresses":[]},{"name":"FirstQuarto","addresses":[{"headline":"HeadQuarters","latlong":{"lng":77.22496,"lat":28.635308},"detail":"","city":"New Delhi"}]},{"name":"DecideQuick","addresses":[{"headline":"Head Quarters","latlong":{"lng":76.9650262,"lat":8.510615399999999},"detail":"TC 9/2632, A71, Elankom Gardens, Vellayambalam, Trivandrum 695010","city":"Trivandrum"}]},{"name":"Mellon Labs","addresses":[{"headline":"Startup Garage","latlong":{"lng":80.249583,"lat":13.060422},"detail":"28 Old no.49 IInd floor,MGR Road, Kalakshetra Colony,Besant nagar,Chennai Pin code: 600090","city":"Chennai"}]},{"name":"Nupinch","addresses":[{"headline":"Registered Office","latlong":{"lng":77.22496,"lat":28.635308},"detail":"","city":"New Delhi"}]},{"name":"S&amp;L Dezigners","addresses":[{"headline":"Incubated","latlong":{"lng":-64.7162415,"lat":-25.2529539},"detail":"S&amp;L Dezigners, Startup Village, Kinfra High Tech Park, Kalamassery, Kochi, Kerala, India - 683503","city":"Kerala"}]},{"name":"The Deals Point","addresses":[{"headline":"Head Quarters","latlong":{"lng":77.1515453,"lat":28.5273352},"detail":"Vasant Kunj","city":"NEW DELHI"}]},{"name":"G2One Network","addresses":[{"headline":"HQ","latlong":{"lng":77.22496,"lat":28.635308},"detail":"","city":"New Delhi, INDIA"}]},{"name":"MingleBox","addresses":[{"headline":"Bangalore","latlong":{},"detail":"#901-905, 8th Floor,Oxford Towers,139 Airport Road,Kodihalli,Bangalore - 560 008","city":"#901-905, 8th Floor,Oxford Towers,139 Airport Road,Kodihalli,Bangalore - 560 008"}]},{"name":"Scrappy Ventures Private Limited","addresses":[{"headline":"Headquarters","latlong":{"lng":73.8918897,"lat":18.535787},"detail":"Unit 5, Gulmohar Court, Lane B, Off North Main Road, Koregaon Park, Pune 411001","city":"Pune"}]},{"name":"ISPG Technologies","addresses":[{"headline":"Administrative Office","latlong":{"lng":76.26730409999999,"lat":9.9312328},"detail":"ISPG Technologies India Pvt. Ltd,28/167 D, G &ndash; 89, Plot No. 88,Panampilly Nagar, Cochin, Kerala, IndiaPostal Code: 68203691-484-4033974, 91-484-4033976","city":"Cochin"}]},{"name":"Magoosh","addresses":[]},{"name":"BuyingIQ","addresses":[{"headline":"Gurgaon","latlong":{"lng":77.0823482,"lat":28.4526876},"detail":"Sushant Lok 1, Gurgaon - 122009","city":"Sushant Lok 1, Gurgaon - 122009"}]},{"name":"Think Glory","addresses":[{"headline":"Corporate office","latlong":{"lng":77.21666669999999,"lat":28.6666667},"detail":"Atrium HotelSuite V-405Shooting Range RoadSurajkundDelhi NCR","city":"Delhi NCR"}]},{"name":"chatvana","addresses":[]},{"name":"The Broken Scooter","addresses":[]},{"name":"Pikboo.com","addresses":[]},{"name":"Live Documents","addresses":[{"headline":"Bangalore","latlong":{"lng":77.6292397,"lat":12.932862},"detail":"26, 4th B cross, Koramangala 5th Block, Bangalore - 560095","city":"26, 4th B cross, Koramangala 5th Block, Bangalore - 560095"}]},{"name":"Signizers","addresses":[{"headline":"Gwalior","latlong":{"lng":78.223106,"lat":26.22801},"detail":"Signizers, Birla house, Mahaveer colony. morar, Gwalior","city":"Signizers, Birla house, Mahaveer colony. morar, Gwalior"}]},{"name":"Chauka Cricket Solutions","addresses":[]},{"name":"Allotrop","addresses":[]},{"name":"Dsignz Media","addresses":[{"headline":"Chennai","latlong":{"lng":80.2229235,"lat":13.0530835},"detail":"293, 2nd floorArcot Road, Kodambakkam, Chennai , 600024","city":"293, 2nd floorArcot Road, Kodambakkam, Chennai , 600024"}]},{"name":"Kinooze","addresses":[]},{"name":"Tubri","addresses":[]},{"name":"Shiven Software","addresses":[{"headline":"Head Office","latlong":{"lng":78.486671,"lat":17.385044},"detail":"# 72, Phase III, Sagar Society ,Banjara Hills, Hyderabad-500 0034Andhra Pradesh, India.","city":"Hyderabad"}]},{"name":"ReviewGist","addresses":[{"headline":"New Delhi","detail":"","city":""}]},{"name":"MAILJUJU","addresses":[{"headline":"","latlong":{},"detail":"dParv Technosoft Pvt Ltd., 1st Floor, #3 Wind Tunnel Road, Bangalore - 560 017, INDIA","city":"dParv Technosoft Pvt Ltd., 1st Floor, #3 Wind Tunnel Road, Bangalore - 560 017, INDIA"}]},{"name":"Smashing Feeds","addresses":[{"headline":"Hyderabad","latlong":{"lng":78.486671,"lat":17.385044},"detail":"Hyderabad","city":"Hyderabad"}]},{"name":"Burrp","addresses":[]},{"name":"ANG Designers","addresses":[{"headline":"New Delhi","latlong":{"lng":77.25201009999999,"lat":28.5004488},"detail":"B-14, Basement, Vishwakarma ColonyOn M.B RoadNew Delhi, 110044","city":"B-14, Basement, Vishwakarma ColonyOn M.B RoadNew Delhi, 110044"}]},{"name":"Web Mind Tree","addresses":[{"headline":"Chennai","latlong":{"lng":80.17000990000001,"lat":13.0443398},"detail":"#29/16, 2nd Street Shakthi Nagar, Kodambakkam,Chennai (Tamilnadu), 24, IND","city":"#29/16, 2nd Street Shakthi Nagar, Kodambakkam,Chennai (Tamilnadu), 24, IND"}]},{"name":"Photowalkrs","addresses":[{"headline":"HQ","latlong":{"lng":75.602158,"lat":28.36381},"detail":"TBI, BITS PilaniPilani, Rajasthan333031","city":"Pilani"}]},{"name":"BearShop","addresses":[]},{"name":"Switch Idea","addresses":[{"headline":"Head Office","latlong":{"lng":73.0699046,"lat":19.0473216},"detail":"Galaxy Towers, Sector 35F, Kharghar, MH, India","city":"Navi Mumbai"}]},{"name":"MeraMD","addresses":[{"headline":"New Delhi","detail":"","city":""}]},{"name":"Adgallery","addresses":[]},{"name":"Kosher","addresses":[]},{"name":"LurnQ","addresses":[{"headline":"Engineering Office","latlong":{"lng":72.8776559,"lat":19.0759837},"detail":"","city":"Mumbai (India)"}]},{"name":"DesiSamachar","addresses":[{"headline":"Engineering office","latlong":{"lng":-121.9885719,"lat":37.5482697},"detail":"","city":"Fremont, CA"}]},{"name":"Power Circle","addresses":[]},{"name":"Digital Chocolate","addresses":[{"headline":"Bangalore","latlong":{},"detail":"&lsquo;Galaxy&rsquo;, No.30, 1st Main RoadJ.P. Nagar III Phase,Bangalore &ndash; 560078Karnataka,","city":"&lsquo;Galaxy&rsquo;, No.30, 1st Main RoadJ.P. Nagar III Phase,Bangalore &ndash; 560078Karnataka,"}]},{"name":"Webority","addresses":[{"headline":"Development Centre","latlong":{"lng":77.22496,"lat":28.635308},"detail":"Webority Labs332 A, Vardhman Grand PlazaSector-3, RohiniNew Delhi - 110085India","city":"New Delhi"}]},{"name":"Glueo, s.r.o.","addresses":[]},{"name":"Evolve Technologies","addresses":[{"headline":"Pune","latlong":{"lng":73.8294963,"lat":18.6240287},"detail":"J-531, MIDC, Bhosari,Pune - 411026, Maharahshtra, India.","city":"J-531, MIDC, Bhosari,Pune - 411026, Maharahshtra, India."}]},{"name":"Glue Lagoon Interactive","addresses":[]},{"name":"swamp.in","addresses":[]},{"name":"grandappstudio","addresses":[]},{"name":"Mobile Solar Chargers Ltd","addresses":[]},{"name":"BytePad","addresses":[]},{"name":"Techpreneurs India","addresses":[{"headline":"Development and Administrative Centre","latlong":{"lng":77.31772459999999,"lat":28.654767},"detail":"A-1185-86, 3rd FloorG D ColonyMayur Vihar Phase IIINew Delhi - 110096","city":"New Delhi"}]},{"name":"Postaqua","addresses":[{"headline":"contact office","latlong":{"lng":88.36389500000001,"lat":22.572646},"detail":"","city":"Calcutta,india"}]},{"name":"OnSkies","addresses":[{"headline":"Head Office","latlong":{"lng":77.5945627,"lat":12.9715987},"detail":"#975, 16th cross church street,16th main, Kumaraswamy Layout, 1st stageBengaluru &ndash; 560078","city":"Bangalore"}]},{"name":"Gomolo","addresses":[{"headline":"Main Office","latlong":{"lng":72.9313767,"lat":19.1653955},"detail":"402, Peninsula Plaza, Fun Republic Lane (Opp Yashraj Studio)Off New Link Road, Mumbai - 400064","city":"Mumbai"}]},{"name":"PlannTo","addresses":[]},{"name":"Creator IT TechSol Pvt Ltd","addresses":[{"headline":"Branch Office","latlong":{"lng":73.8213213,"lat":18.4893148},"detail":"Flat No-09Jijai Apartment, New DP Road,Behind Aparna House,Near Mahalaxmi Lawns,Karve Nagar,Pune 411052","city":"Pune"}]},{"name":"Simplibuy","addresses":[{"headline":"Development Office","latlong":{"lng":73.7654367,"lat":18.5967274},"detail":"Eden Towers, Wakad, Pune - 411057","city":"Pune"}]},{"name":"Askabt","addresses":[{"headline":"Registered Office","latlong":{"lng":77.5945627,"lat":12.9715987},"detail":"#405, Laksh Complex, Church Street, Muragesh Palya, Old Airport Road, Bangalore560017","city":"Bangalore"}]},{"name":"Gyaane.Com","addresses":[{"headline":"Head Office","latlong":{"lng":78.486671,"lat":17.385044},"detail":"Gyaane.com,3rd Floor, Sri Laxmi Nilayam,Plot No. 13, Madhinaguda,Hyderabad - 500 049","city":"Hyderabad"}]},{"name":"Magical Homes","addresses":[{"headline":"HO","latlong":{"lng":72.8776559,"lat":19.0759837},"detail":"","city":"Mumbai"}]},{"name":"Rinema","addresses":[{"headline":"Mumbai","detail":"","city":""}]},{"name":"Kuebito Technologies","addresses":[{"headline":"Registered Office","latlong":{"lng":73.8567437,"lat":18.5204303},"detail":"","city":"Pune"}]},{"name":"Squeakee","addresses":[]},{"name":"Wowway Labs Pvt. Ltd","addresses":[{"headline":"Head Quarters","latlong":{"lng":77.5945627,"lat":12.9715987},"detail":"Room No.3, House No. 5, MCHS, 14A Main, 15th Cross, HSR layout - Sector 4, Bangalore - 560102.Opp. HSR BDA Complex.","city":"Bangalore"}]},{"name":"Galligrounds","addresses":[]},{"name":"KTPL","addresses":[{"headline":"SMLabs","latlong":{"lng":77.2663771,"lat":28.5678016},"detail":"207, Neelkanth PalaceSant NagarEast of KailashNew Delhi - 110065","city":"New Delhi"}]},{"name":"Parentune","addresses":[{"headline":"Head quarter","latlong":{"lng":77.053568,"lat":28.4786064},"detail":"INDO ASIA plot-56, ground floor, sec 44, gurgaon 122001","city":"Gurgaon"}]},{"name":"Planetghar","addresses":[{"headline":"Head Quarters","latlong":{"lng":-120.7401386,"lat":47.7510741},"detail":"Melbourne, AustraliaSeattle, Wa","city":"Melbourne\\Seattle"}]},{"name":"Qbeeko","addresses":[{"headline":"Head Quarters","latlong":{"lng":72.8554149,"lat":19.180237},"detail":"1105B Lemont Apts, Malad(East) Mumbai - 400097","city":"Mumbai"}]},{"name":"Mera Library","addresses":[]},{"name":"Turnaround Innovision","addresses":[{"headline":"Engineering &amp; Turnaround Studio","latlong":{"lng":77.608717,"lat":12.916883},"detail":"near BDA, HSR LayoutBangalore","city":"Bangalore"}]},{"name":"Fast Offices","addresses":[{"headline":"Business Development Office","latlong":{"lng":72.8361943,"lat":19.1489218},"detail":"B 607, Crystal PlazaAndheri Link Road, Andheri (West)Mumbai &ndash; 400058","city":"Mumbai"}]},{"name":"ITW Solutions LLP","addresses":[{"headline":"Head Quarters","latlong":{"lng":77.6179465,"lat":12.8983601},"detail":"ITW Solutions LLPNo12, 2nd floor,Manjunatha Layout,Bommanahalli, Bangalore- 560068","city":"Bangalore"}]},{"name":"Uniworldedusoft Pvt. Ltd","addresses":[]},{"name":"Video Pulp","addresses":[{"headline":"","detail":"","city":""}]},{"name":"Bank Bazaar","addresses":[]},{"name":"The Nextwave Technologies","addresses":[{"headline":"Head Office","latlong":{"lng":73.87988899999999,"lat":18.5143807},"detail":"East Steet, Camp","city":"Pune"}]},{"name":"Octahorpe Web-Consultants","addresses":[{"headline":"Hyderabad","detail":"","city":""}]},{"name":"saavn","addresses":[]},{"name":"Zaask","addresses":[]},{"name":"Rhombus Technopark","addresses":[]},{"name":"Affiliate Venture Group","addresses":[]},{"name":"jantareview","addresses":[]},{"name":"MineWhat","addresses":[]},{"name":"Diffion Consulting","addresses":[]},{"name":"Secret Wardrobe","addresses":[]},{"name":"Forest Creative Communications Pvt Ltd","addresses":[]},{"name":"Evhub","addresses":[{"headline":"Registered Office","latlong":{"lng":83.89999999999999,"lat":18.3},"detail":"M/S EVHUB.IN, 2-5-139Illisipuram, Srikakulam, Andhraradesh, India","city":"Srikakulam"}]},{"name":"Mavrix Technologies Ltd","addresses":[]},{"name":"Babajob.com","addresses":[{"headline":"Head Quarters","latlong":{"lng":77.5945627,"lat":12.9715987},"detail":"16 Rhenius StreetRain Tree Hall, Flat 4BOpp. to Hockey StadiumRichmond TownBangalore, 560025India","city":"Bangalore"}]},{"name":"JustFreeCoupons","addresses":[]},{"name":"Traverik","addresses":[{"headline":"Head Quarters","latlong":{"lng":77.5945627,"lat":12.9715987},"detail":"32, Oxford Towers,Kodihalli,Bangalore, Karnataka 560008INDIA","city":"Bangalore"}]},{"name":"Karot Technologies","addresses":[{"headline":"Engineering Office","latlong":{"lng":76.26730409999999,"lat":9.9312328},"detail":"Bikes4Sale.inFirst Floor, KMH Building,Opposite Ponnurunni Juma Masjid,Puthiya Road, Palarivattom,Kochi - 682025Kerala, India","city":"Kochi"}]},{"name":"Live Merchant","addresses":[{"headline":"Main Office","latlong":{"lng":77.66677419999999,"lat":12.9214642},"detail":"Sarjapur, Outer Ring Road.","city":"Bangalore"}]},{"name":"Nirogam India Private Limited","addresses":[{"headline":"Head office","latlong":{"lng":76.62538649999999,"lat":28.6815037},"detail":"Nirogam India Private LimitedOffice No - F-32, 33, 34, 1st Floor,DLF Centre Point, Main Mathura Road,Bata Mor, Faridabad, Haryana - 121006Helpline # 9958171405# 0129-4076777, 0129-4006805","city":"Faridabad"}]},{"name":"World Bazaar","addresses":[{"headline":"Head Office","latlong":{"lng":72.93715689999999,"lat":19.1457307},"detail":"F-290, Dreams mall, L.B.S road. Bhandup West","city":"Mumbai"}]},{"name":"Shoonya","addresses":[{"headline":"Head Quarters","latlong":{"lng":73.8567437,"lat":18.5204303},"detail":"","city":"Pune"}]},{"name":"Musicmob","addresses":[]},{"name":"Niyati","addresses":[{"headline":"Head Quarters","latlong":{"lng":80.249583,"lat":13.060422},"detail":"Niyati Technologies Pvt. Ltd.3rd Floor, Prince Plaza,Pantheon Road, EgmoreChennai 600 008, IndiaPhone: (91-44) 4269 6975, 2841 2639","city":"Chennai"}]},{"name":"Dronna","addresses":[{"headline":"","latlong":{"lng":75.7138884,"lat":15.3172775},"detail":"Dronna Inc.c/o Kyron Startup Accelerator# 164, 9th Cross, Indiranagar 1st StageBangalore 560 038, Karnataka, India","city":"Dronna Inc.c/o Kyron Startup Accelerator# 164, 9th Cross, Indiranagar 1st StageBangalore 560 038, Karnataka, India"},{"headline":"Head Quaters","latlong":{"lng":77.5945627,"lat":12.9715987},"detail":"","city":"Bangalore"}]},{"name":"Alumnize","addresses":[{"headline":"Head Quarters","latlong":{"lng":77.5945627,"lat":12.9715987},"detail":"","city":"Bangalore"}]},{"name":"Round One","addresses":[{"headline":"Headquarters","latlong":{"lng":77.1571443,"lat":28.5631258},"detail":"Vasant Vihar, New Delhi","city":"New Delhi"}]},{"name":"CareerOpener","addresses":[]},{"name":"Vahmine infotech","addresses":[{"headline":"Branch Office","latlong":{"lng":79.13249859999999,"lat":12.9165167},"detail":"86,Annasalai,Kilvisharam3/986 Pin:632509","city":"Vellore"},{"headline":"Head Office","latlong":{"lng":80.249583,"lat":13.060422},"detail":"#12,3rd fkoor (KrS hospital block)rathunam complexavenue roadnungambakkam-6000034","city":"Chennai"}]},{"name":"i7 Networks","addresses":[{"headline":"Head Quarters","latlong":{"lng":77.5945627,"lat":12.9715987},"detail":"i7 Networks Pvt. Ltd.#668/A, 3rd Floor, 17th &quot;C&quot; Main, 6th Block, Koramangala, Bangalore-560095INDIA","city":"Bangalore"}]},{"name":"DreamingKnights.com","addresses":[]},{"name":"dezyna.com","addresses":[]},{"name":"Moviesplus.com","addresses":[{"headline":"Gurgaon","latlong":{"lng":77.0752768,"lat":28.5128074},"detail":"21-C, Sector 18, Udyog Vihar, Gurgaon - 122016","city":"21-C, Sector 18, Udyog Vihar, Gurgaon - 122016"}]},{"name":"TechMajestic Professional Services","addresses":[{"headline":"Head Quarter","latlong":{"lng":75.832272,"lat":30.9038116},"detail":"SCO 4, Surya Complex,National Road,Ludhiana","city":"Ludhiana"}]},{"name":"kinectweb","addresses":[{"headline":"H/Q","latlong":{"lng":73.325631,"lat":19.463852},"detail":"SWAMI VILLA,Nr.Goverment Godawn,Savroli road,shahapur","city":"shahapur"}]},{"name":"Valuemunch","addresses":[]},{"name":"MindGrep","addresses":[]},{"name":"Visifoo","addresses":[]},{"name":"Treadalong","addresses":[]},{"name":"MySmartPrice","addresses":[]},{"name":"Floost","addresses":[{"headline":"Representative Office","latlong":{"lng":-0.1198244,"lat":51.51121389999999},"detail":"","city":"London"},{"headline":"Head Office","latlong":{"lng":77.3910265,"lat":28.5355161},"detail":"","city":"Noida"}]},{"name":"NamasteHollywood.Com","addresses":[]},{"name":"Webpany","addresses":[]},{"name":"KAOS","addresses":[{"headline":"Head Quarters","latlong":{"lng":77.5945627,"lat":12.9715987},"detail":"30/4, 4th Cross,100' Intermediate Ring Road,Srinivagillu, Koramangala,Bangalore - 560 047","city":"Bangalore"}]},{"name":"Zoom Deck","addresses":[]},{"name":"Womanistan","addresses":[]},{"name":"Taaza News","addresses":[]},{"name":"BandeLal","addresses":[]},{"name":"GrahakKendra","addresses":[]},{"name":"MystiqueDubai","addresses":[]},{"name":"Trusted Technology Solutions","addresses":[{"headline":"HO","latlong":{"lng":77.5945627,"lat":12.9715987},"detail":"PO Box 1740","city":"Bangalore"}]},{"name":"Ciafo","addresses":[]},{"name":"Wishberg - The Social Wishlist","addresses":[{"headline":"HQ","latlong":{"lng":72.8571789,"lat":19.0957898},"detail":"Santacruz (East), Near Domestic Airport.","city":"Mumbai"}]},{"name":"PricePaaji","addresses":[]},{"name":"Virinchi Software","addresses":[]},{"name":"Genius Idiots","addresses":[{"headline":"HQ","latlong":{"lng":77.5418791,"lat":12.9279348},"detail":"560085","city":"Bangalore"}]},{"name":"Taggito","addresses":[{"headline":"Engineerings","latlong":{"lng":73.8797127,"lat":18.5347267},"detail":"C-3 Hermes Park,30 Bund Garden Road Pune - 411001","city":"Pune"},{"headline":"Head Quarters","latlong":{"lng":55.4696929,"lat":-21.2355627},"detail":"Calle Bail&eacute;n 41Madrid 28005","city":"Madrid"}]},{"name":"Test2Win","addresses":[]},{"name":"Markupwand","addresses":[]},{"name":"Khojguru Infotech Pvt. Ltd.","addresses":[]},{"name":"MessageDance","addresses":[]},{"name":"Retailopia","addresses":[]},{"name":"Inc42","addresses":[]},{"name":"StepOut","addresses":[]},{"name":"Dunamis Web Technologies","addresses":[]},{"name":"Benevolence Technologies","addresses":[]},{"name":"Apptility Software","addresses":[]},{"name":"Floor64","addresses":[{"headline":"Sunnyvale","latlong":{"lng":-122.0130457,"lat":37.3834395},"detail":"440 N. Wolfe Rd.Sunnyvale, CA 94085","city":"440 N. Wolfe Rd.Sunnyvale, CA 94085"}]},{"name":"Townscript","addresses":[]},{"name":"GlobalMotion","addresses":[{"headline":"Palo Alto","latlong":{"lng":-122.1612837,"lat":37.4456782},"detail":"516 Bryant StPalo Alto, CA, 94301","city":"516 Bryant StPalo Alto, CA, 94301"}]},{"name":"Presdo","addresses":[{"headline":"","latlong":{"lng":-122.08,"lat":37.39},"detail":"P.O. Box 391737Mountain View, CA, 94039USA","city":"P.O. Box 391737Mountain View, CA, 94039USA"}]},{"name":"Cerego","addresses":[]},{"name":"Tripbase","addresses":[{"headline":"San Francisco","latlong":{"lng":-122.3998782,"lat":37.7896292},"detail":"71 Stevenson St. Suite 400,San Francisco, CA, 94105 USA","city":"71 Stevenson St. Suite 400,San Francisco, CA, 94105 USA"}]},{"name":"TrueInsider","addresses":[]},{"name":"Hostbats","addresses":[]},{"name":"SueEasy","addresses":[{"headline":"","latlong":{"lng":-122.0972342,"lat":37.3979126},"detail":"California StreetMountain View, CA, 94040","city":"California StreetMountain View, CA, 94040"}]},{"name":"Cooliris","addresses":[{"headline":"","latlong":{"lng":-122.1235054,"lat":37.4177563},"detail":"3000 El Camino RealBuilding 4, Suite 200Palo Alto, CA 94306","city":"3000 El Camino RealBuilding 4, Suite 200Palo Alto, CA 94306"}]},{"name":"Swipp","addresses":[]},{"name":"Trekaroo","addresses":[{"headline":"","latlong":{"lng":-122.4869194,"lat":37.6138253},"detail":"P.O. Box 531Pacifica, CA 94044","city":"P.O. Box 531Pacifica, CA 94044"}]},{"name":"Wealthfront","addresses":[{"headline":"Palo Alto","latlong":{"lng":-122.160273,"lat":37.443382},"detail":"203 Forest AvePalo Alto, CA, 94301USA","city":"203 Forest AvePalo Alto, CA, 94301USA"}]},{"name":"Polyvore","addresses":[{"headline":"Headquarters","latlong":{"lng":-122.076769,"lat":37.393524},"detail":"100 View Street, Suite 101Mountain View, CA 94041","city":""}]},{"name":"Uloop","addresses":[{"headline":"San Mateo","latlong":{"lng":-122.3230749,"lat":37.5661443},"detail":"217 S B StSan Mateo, CA, 94401USA","city":"217 S B StSan Mateo, CA, 94401USA"}]},{"name":"Baycentric","addresses":[]},{"name":"Serus","addresses":[{"headline":"Corporate Headquarter","latlong":{"lng":-122.035716,"lat":37.3991789},"detail":"785 North Mary AveSuite 100Sunnyvale, CA, 94085","city":""}]},{"name":"BettyConfidential","addresses":[]},{"name":"TrialPay","addresses":[{"headline":"","latlong":{"lng":-122.0751549,"lat":37.386812},"detail":"303 Bryant St.2nd FloorMountain View, CA, 94041","city":"303 Bryant St.2nd FloorMountain View, CA, 94041"}]},{"name":"Fiserv.","addresses":[{"headline":"","latlong":{"lng":-122.0143476,"lat":37.4059351},"detail":"1213 Innsbruck DriveSunnyvale, CA, 94089-1317USA","city":"1213 Innsbruck DriveSunnyvale, CA, 94089-1317USA"}]},{"name":"MyLife","addresses":[{"headline":"","latlong":{"lng":-118.4605172,"lat":34.0499967},"detail":"12400 Wilshire Blvd.Suite 1500Los Angeles, CA, 90025USA","city":"12400 Wilshire Blvd.Suite 1500Los Angeles, CA, 90025USA"}]},{"name":"YOUnite","addresses":[{"headline":"","latlong":{"lng":-122.0828819,"lat":37.3879314},"detail":"650 Castro Street, Suite 120-377Mountain View, CA 94041","city":"650 Castro Street, Suite 120-377Mountain View, CA 94041"}]},{"name":"High Gear Media","addresses":[{"headline":"Corporate Headquarter","latlong":{"lng":-122.184635,"lat":37.449788},"detail":"830 Menlo Ave, Suite 201Menlo Park, CA 94025","city":""}]},{"name":"Cinemacraft","addresses":[{"headline":"US HQ","latlong":{"lng":-122.0813146,"lat":37.3905676},"detail":"444 Castro StreetMountain View, CA, 94041USA","city":"Mountain View, CA"}]},{"name":"MyBuys","addresses":[{"headline":"Headquarters","latlong":{"lng":-122.32064,"lat":37.54872},"detail":"411 Borel Avenue, Ste. 100San Mateo, CA, 94404","city":"San Mateo"}]},{"name":"WikiHow","addresses":[{"headline":"Palo Alto","latlong":{"lng":-122.165821,"lat":37.446333},"detail":"250 Emerson StPalo Alto, CA 94301","city":"250 Emerson StPalo Alto, CA 94301"}]},{"name":"Rockmelt","addresses":[]},{"name":"ShareThis","addresses":[{"headline":"Palo Alto","latlong":{"lng":-122.1802812,"lat":37.3813444},"detail":"4009 Miranda AvenueSuite 200Palo Alto, CA 94304-1227","city":"4009 Miranda AvenueSuite 200Palo Alto, CA 94304-1227"}]},{"name":"iPrint","addresses":[{"headline":"","latlong":{"lng":-122.2172686,"lat":37.4890698},"detail":"1475 Veterans Blvd.Redwood City, CA, 94063USA","city":"1475 Veterans Blvd.Redwood City, CA, 94063USA"}]},{"name":"Perzo","addresses":[{"headline":"Headquarters","latlong":{"lng":-122.1190573,"lat":37.4483568},"detail":"2465 E Bayshore Rd Suite 405Palo Alto, CA, 94303USA","city":"Palo Alto, CA"}]},{"name":"Spokeo","addresses":[{"headline":"","latlong":{"lng":-118.1502624,"lat":34.1363309},"detail":"556 S. Fair Oaks Ave. Suite 101-179Pasadena, CA, 91105","city":"556 S. Fair Oaks Ave. Suite 101-179Pasadena, CA, 91105"}]},{"name":"Caspio","addresses":[{"headline":"Corporate Office","latlong":{"lng":-121.9802667,"lat":37.4063787},"detail":"2953 Bunker Hill Lane, Suite 201Santa Clara, CA 95054 USA","city":""}]},{"name":"Care2.com","addresses":[{"headline":"Headquarters","latlong":{"lng":-122.257285,"lat":37.524876},"detail":"275 Shoreline DriveSuite #300Redwood City, CA, 94065","city":"Redwood City"}]},{"name":"FriendFinder","addresses":[{"headline":"Sunnyvale","latlong":{"lng":-122.0173347,"lat":37.4073232},"detail":"220 Humboldt CtSunnyvale, CA, 94089USA","city":"220 Humboldt CtSunnyvale, CA, 94089USA"}]},{"name":"Shmoop University","addresses":[{"headline":"","latlong":{"lng":-122.11,"lat":37.39},"detail":"P.O. Box 0935 Los Altos CA 94023-0935","city":"P.O. Box 0935 Los Altos CA 94023-0935"}]},{"name":"SimpleFeed","addresses":[{"headline":"","latlong":{"lng":-122.113743,"lat":37.377612},"detail":"289 S. San Antonio Rd.Suite 204Los Altos, CA 94022","city":"289 S. San Antonio Rd.Suite 204Los Altos, CA 94022"}]},{"name":"RankBoom","addresses":[{"headline":"","latlong":{"lng":-122.1575745,"lat":37.4457966},"detail":"Palo Alto, CA, 94301USA","city":"Palo Alto, CA, 94301USA"}]},{"name":"Jumio","addresses":[]},{"name":"Teamer.net","addresses":[]},{"name":"Luminate","addresses":[{"headline":"","latlong":{"lng":-122.076769,"lat":37.393524},"detail":"100 View StreetSuite 200Mountain View, CA, 94043USA","city":"100 View StreetSuite 200Mountain View, CA, 94043USA"}]},{"name":"Terabitz","addresses":[{"headline":"Palo Alto","latlong":{"lng":-122.1412969,"lat":37.4208048},"detail":"5 Palo Alto Sq Ste 220Palo Alto, CA, 94306-2123USA","city":"5 Palo Alto Sq Ste 220Palo Alto, CA, 94306-2123USA"}]},{"name":"Kaazing","addresses":[]},{"name":"SkyGrid","addresses":[{"headline":"","latlong":{},"detail":"1200 Crossman Ave.2nd FloorSunnyvale, CA, 94089USA","city":"1200 Crossman Ave.2nd FloorSunnyvale, CA, 94089USA"}]},{"name":"Zoodles","addresses":[]},{"name":"BestInClass.com","addresses":[{"headline":"","latlong":{"lng":-122.113605,"lat":37.379873},"detail":"167 S. San Antonio Road STE 15Los Altos, CA, 94022USA","city":"167 S. San Antonio Road STE 15Los Altos, CA, 94022USA"}]},{"name":"SurveyMonkey","addresses":[{"headline":"Palo Alto","latlong":{"lng":-122.160628,"lat":37.444995},"detail":"285 Hamilton Avenue, Suite 500Palo Alto, CA 94301","city":"285 Hamilton Avenue, Suite 500Palo Alto, CA 94301"}]},{"name":"Ephox","addresses":[]},{"name":"Reputation.com","addresses":[{"headline":"Headquarters","latlong":{"lng":-122.2243319,"lat":37.4879353},"detail":"1001 Marshall Street2nd FloorRedwood City, CA, 94063USA","city":"Redwood City"}]},{"name":"Superfly","addresses":[]},{"name":"Yummly","addresses":[]},{"name":"Movoto LLC","addresses":[{"headline":"San Mateo","latlong":{"lng":-122.314103,"lat":37.551526},"detail":"1730 S. El Camino Real Ste. 500San Mateo, CA, 94402USA","city":"1730 S. El Camino Real Ste. 500San Mateo, CA, 94402USA"}]},{"name":"Phonezoo Communications","addresses":[{"headline":"Sunnyvale","latlong":{"lng":-121.9906606,"lat":37.3864306},"detail":"1270 Oakmead Pkwy, Suite 214Sunnyvale, CA 94085","city":"1270 Oakmead Pkwy, Suite 214Sunnyvale, CA 94085"}]},{"name":"Raptr","addresses":[{"headline":"","latlong":{"lng":-122.077986,"lat":37.404273},"detail":"701 N Shoreline BlvdMountain View, CA 94043","city":"701 N Shoreline BlvdMountain View, CA 94043"}]},{"name":"Zamzee","addresses":[]},{"name":"Genomera","addresses":[]},{"name":"Blog Traffic Exchange","addresses":[{"headline":"","latlong":{"lng":-122.1802812,"lat":37.4484914},"detail":"Menlo Park, CA, 94025USA","city":"Menlo Park, CA, 94025USA"}]},{"name":"Ziippi","addresses":[{"headline":"Palo Alto","latlong":{"lng":-122.1611698,"lat":37.4441736},"detail":"228 Hamilton Avenue4th FloorPalo Alto, CA, 94301USA","city":"228 Hamilton Avenue4th FloorPalo Alto, CA, 94301USA"}]},{"name":"Buxfer","addresses":[{"headline":"","latlong":{"lng":-122.0838511,"lat":37.3860517},"detail":"Mountain View, CAUSA","city":"Mountain View, CAUSA"}]},{"name":"Imo","addresses":[{"headline":"","latlong":{"lng":-122.1430195,"lat":37.4418834},"detail":"Palo Alto, CAUSA","city":"Palo Alto, CAUSA"}]},{"name":"LiquidSpace","addresses":[]},{"name":"Textbook Revolt","addresses":[{"headline":"","latlong":{"lng":-122.0363496,"lat":37.36883},"detail":"Sunnyvale, CAUSA","city":"Sunnyvale, CAUSA"}]},{"name":"Moofaces","addresses":[]},{"name":"MetroMela Internet Services","addresses":[]},{"name":"2vin.com","addresses":[]},{"name":"Affinity Circles","addresses":[{"headline":"San Diego","latlong":{"lng":-117.1582981,"lat":32.7178334},"detail":"701 B Street Suite 520San Diego, CA 92113","city":"701 B Street Suite 520San Diego, CA 92113"}]},{"name":"Mashed Life","addresses":[{"headline":"","latlong":{"lng":-122.0183914,"lat":37.3895297},"detail":"Sunnyvale, CA, 94085USA","city":"Sunnyvale, CA, 94085USA"}]},{"name":"MyPlanIQ","addresses":[]},{"name":"BlogHer","addresses":[{"headline":"","latlong":{"lng":-122.2661277,"lat":37.5242335},"detail":"1301 Shoreway Rd.Suite 340Belmont, CA, 94065USA","city":"1301 Shoreway Rd.Suite 340Belmont, CA, 94065USA"}]},{"name":"Dehradun Live","addresses":[]},{"name":"Nestopia","addresses":[]},{"name":"IMVU","addresses":[{"headline":"","latlong":{"lng":-122.08,"lat":37.39},"detail":"PO Box 390012Mountain View, CA94039","city":"PO Box 390012Mountain View, CA94039"}]},{"name":"Zicasso","addresses":[{"headline":"","latlong":{"lng":-122.0751549,"lat":37.386812},"detail":"Mountain View, CA, 94041USA","city":"Mountain View, CA, 94041USA"}]},{"name":"MindSumo","addresses":[]},{"name":"Sensory Networks","addresses":[{"headline":"Corporate Headquarter","latlong":{"lng":-122.1002269,"lat":37.4297224},"detail":"2680 Bayshore Parkway, Suite 212Mountain View CA, 94043","city":""}]},{"name":"PROJECT DIRT","addresses":[{"headline":"Palo Alto","latlong":{"lng":-122.159544,"lat":37.442708},"detail":"735 Emerson StreetPalo Alto, CA, 94301USAk","city":"735 Emerson StreetPalo Alto, CA, 94301USAk"}]},{"name":"Spacecom Technologies","addresses":[{"headline":"Engineering Office","latlong":{"lng":72.8776559,"lat":19.0759837},"detail":"Spacecom Technologies Ltd.Unit No. 1&amp;2, 2nd floor, Swastik Ind. Estate, 178 CST Road, Kalina, Santacruz (E), Mumbai - 400 098, India.","city":"Mumbai"}]},{"name":"Eventbee","addresses":[{"headline":"Palo Alto","latlong":{"lng":-122.1307209,"lat":37.4170512},"detail":"3872 El Camino Real,Palo Alto,CA 94306","city":"3872 El Camino Real,Palo Alto,CA 94306"}]},{"name":"DevHD","addresses":[{"headline":"","latlong":{"lng":-122.1954664,"lat":37.4652279},"detail":"41 McCormick LaneAtherton, CA, 94027","city":"41 McCormick LaneAtherton, CA, 94027"}]},{"name":"Livingly Media","addresses":[{"headline":"Corporate Headquarter","latlong":{"lng":-122.2487428,"lat":37.5038636},"detail":"990 Industrial Road, Suite 204San Carlos, CA 94070","city":""}]},{"name":"Vidoofy","addresses":[{"headline":"New Delhi","detail":"","city":""}]},{"name":"SocialMoms","addresses":[{"headline":"","latlong":{"lng":-122.5563645,"lat":37.9599347},"detail":"PO Box 884Ross, CA, 94957USA","city":"PO Box 884Ross, CA, 94957USA"}]},{"name":"Lending Club","addresses":[{"headline":"Headquarters","latlong":{"lng":-122.3998782,"lat":37.7896292},"detail":"71 Stevenson StreetSuite 300San Francisco, CA, 94105USA","city":"San Francisco"}]},{"name":"Noovo","addresses":[{"headline":"","latlong":{"lng":-122.1544266,"lat":37.4531768},"detail":"901 University Avenue94301 Palo Alto CA","city":"901 University Avenue94301 Palo Alto CA"}]},{"name":"People Power","addresses":[]},{"name":"Droover","addresses":[]},{"name":"Pingsta","addresses":[]},{"name":"Vgulp","addresses":[]},{"name":"Ourstory","addresses":[{"headline":"","latlong":{"lng":-122.0838511,"lat":37.3860517},"detail":"Mountain View, CA - USA","city":"Mountain View, CA - USA"}]},{"name":"Jiffle","addresses":[{"headline":"","latlong":{"lng":-122.0130457,"lat":37.3834395},"detail":"440 N. Wolfe Rd. Sunnyvale, CA, 94085 USA","city":"440 N. Wolfe Rd. Sunnyvale, CA, 94085 USA"}]},{"name":"GlobeIn","addresses":[]},{"name":"Futech","addresses":[]},{"name":"Teens in Tech Labs","addresses":[]}],"number":261,"addresses":158}
