{"companies":[{"name":"Art and Decors.com","addresses":[{"headline":"Corporate Office","latlong":{"lng":77.21301,"lat":28.51918},"detail":"Level 4, Rectangle 1,D-4 Commercial Complex, Saket, New Delhi- 110017 India","city":"New Delhi"}]},{"name":"Smart Store","addresses":[{"headline":"Head Quarters","latlong":{"lng":77.22496,"lat":28.635308},"detail":"BigFoot Retail Solutions Pvt. Ltd.Building#11ALane 3, Westend MargSaidulajab, Near Saket Metro StationNew Delhi, 110030India","city":"New Delhi"}]},{"name":"ModelsDelhi.com","addresses":[{"headline":"Associate Offices","latlong":{"lng":88.18888609999999,"lat":23.522194},"detail":"MumbaiBangaloreChennaiHyderabadPuneAhmedabadKolkata","city":"Multi City"},{"headline":"Head Office","latlong":{"lng":77.3573837,"lat":28.6345148},"detail":"","city":"Ghaziabad (Delhi / NCR)"}]},{"name":"itmagia","addresses":[{"headline":"Corporate Office","latlong":{"lng":77.3188016,"lat":28.593565},"detail":"F-17, Sec-6, Noida","city":"Noida"},{"headline":"Head Quarters","latlong":{"lng":77.0578855,"lat":28.4489007},"detail":"G-21, Sec-40,Gurgaon, Haryana,India","city":"Gurgaon"}]},{"name":"ShopImagine","addresses":[{"headline":"Pune","latlong":{"lng":73.8918897,"lat":18.535787},"detail":"19, Suyojana Housing Society, Lane 5, Koregaon Park, Pune-411001","city":"19, Suyojana Housing Society, Lane 5, Koregaon Park, Pune-411001"}]},{"name":"Yapaa","addresses":[{"headline":"Head Office","latlong":{"lng":72.81944399999999,"lat":21.195},"detail":"Chocolate Retail Pvt Ltd.,Ghod Doad Road,Surat-3950010261-4002100","city":"Surat"}]},{"name":"Dotmic","addresses":[{"headline":"Engineering Office","latlong":{"lng":76.2144349,"lat":10.5276416},"detail":"Building No:2/475,E.K.LanePerumbillisseryThrissurKeralaIndia","city":"Thrissur"}]},{"name":"Udyan Tea","addresses":[{"headline":"Head Quarters","latlong":{"lng":88.42687409999999,"lat":26.7083818},"detail":"UGP Ventures31 Sevoke Road,Binda Jayanti Building,Siliguri - 734001West Bengal","city":"Siliguri"}]},{"name":"PANJARAT - Jewelry &amp; Accessories","addresses":[{"headline":"Registered office","latlong":{"lng":72.8375161,"lat":19.1566891},"detail":"11/92,motilal nagar no1,goregaon west,mumbai -400104","city":"mumbai"}]},{"name":"MebelKart","addresses":[{"headline":"Bangalore Office","latlong":{"lng":77.5945627,"lat":12.9715987},"detail":"NO. 95 FB,2ND FLOOR,KONENA AGRAHARAMES COLONY,BEHIND MSIL ,VIMANAPURA POST.Bangalore-560017KARNATAKA (INDIA)","city":"Bangalore"}]},{"name":"Crush Entertainment","addresses":[{"headline":"Registered Office","latlong":{"lng":-70.8967155,"lat":42.51954},"detail":"4/155 Amravati RoadFive RoadsSalemTamil NaduIndia","city":"Salem"}]},{"name":"Sweetcouch","addresses":[{"headline":"Head quarters","latlong":{"lng":72.89420659999999,"lat":19.1267405},"detail":"512, Srishti Plaza,Saki Vihar Road, Powai, Mumbai 400072","city":"Mumbai"},{"headline":"HQ","latlong":{"lng":72.89420659999999,"lat":19.1267405},"detail":"512, Srishti Plaza,Saki Vihar Road, Powai, Mumbai 400072","city":"Mumbai"}]},{"name":"FourFriendShoppe","addresses":[{"headline":"Head Quarter","latlong":{"lng":73.0235553,"lat":26.2280043},"detail":"2-A-21, M.H.B. Basni 1st Phase Jodhpur Rajasthan","city":"Jodhpur"}]},{"name":"GreenHonchos","addresses":[{"headline":"Delhi","detail":"","city":""}]},{"name":"Funatic Sports","addresses":[{"headline":"Head Quarters","latlong":{"lng":72.8776559,"lat":19.0759837},"detail":"","city":"Mumbai"}]},{"name":"Punexpress","addresses":[{"headline":"Registered Office","latlong":{"lng":73.8672672,"lat":18.6233089},"detail":"B.U.Bhandari Skyline,Shop No 1,Adarsh Nagar,Dighi,Pune-411015","city":"Pune"}]},{"name":"Dheera Online Trading","addresses":[{"headline":"Head Quarter","latlong":{"lng":77.22496,"lat":28.635308},"detail":"WZ-10 B, Second Floor, Janak Puri,New Delhi-110058India","city":"New Delhi"},{"headline":"New Delhi","detail":"","city":""}]},{"name":"NBA Holdings LLP","addresses":[{"headline":"Design Development and Sales","latlong":{"lng":72.9076669,"lat":19.1253004},"detail":"Powai Mumbai 400076","city":"Mumbai"}]},{"name":"Rack The Brain","addresses":[{"headline":"Head Quarter","latlong":{"lng":77.0266383,"lat":28.4594965},"detail":"","city":"Gurgaon"}]},{"name":"1shop.co.in","addresses":[{"headline":"Registered Office","latlong":{"lng":77.1139984,"lat":8.563336999999999},"detail":"Deepthi,Pullottukonam,Kuttichal P.O,Thiruvananthapuram,Kerala 695574","city":"Thiruvananthapuram"}]},{"name":"My Nest Home","addresses":[{"headline":"Noida","latlong":{"lng":77.3970354,"lat":28.5241753},"detail":"A80, Sector 83NOIDA - 201305U.P.","city":"A80, Sector 83NOIDA - 201305U.P."}]},{"name":"allMemoirs","addresses":[{"headline":"Engineering Office","latlong":{"lng":77.5945627,"lat":12.9715987},"detail":"","city":"Bangalore"}]},{"name":"Ask for Fashion","addresses":[{"headline":"Head Office","latlong":{"lng":77.31592959999999,"lat":28.5846875},"detail":"D-74, Sector 2NOIDA 201301Uttar PradeshINDIA","city":"Noida"}]},{"name":"Kada.in","addresses":[{"headline":"Head Quarter","latlong":{"lng":76.96142549999999,"lat":8.501767599999999},"detail":"Vazhuthacaud","city":"Trivandrum"}]},{"name":"MARCO Promotional Products","addresses":[{"headline":"Corporate Office","latlong":{"lng":-88.5426136,"lat":44.0247062},"detail":"MARCO Promotional Products522 West 17th AvenueOshkosh, WI 54902USA","city":"Oshkosh"}]},{"name":"YINSOL","addresses":[{"headline":"Head office","latlong":{"lng":78.486671,"lat":17.385044},"detail":"YINSOL,D.NO:8-3-903/9, G1,RAJESWARA APTS,NAGARJUNA NAGAR,HYDERABAD-500016PH-040-66814777/888","city":"Hyderabad"}]},{"name":"Identisafe","addresses":[{"headline":"Head Quarters","latlong":{"lng":73.88601,"lat":18.5122306},"detail":"269 M.G.Road, Kale House, Rolex Showroom Bldg, Camp, Pune, India.","city":"Pune, India"},{"headline":"Research &amp; Development Office","latlong":{"lng":0.1192921,"lat":52.20077879999999},"detail":"Trumpington Street, Cambridge University Campus, Cambridge, United Kingdom","city":"Cambridge, United Kingdom"}]},{"name":"Mera Venue","addresses":[{"headline":"Head Office","latlong":{"lng":72.58,"lat":23.03},"detail":"92, Venus Atlantis,Prahlaad Nagar Road,Ahmedabad","city":"Ahmedabad"},{"headline":"Branch Office","latlong":{"lng":72.81944399999999,"lat":21.195},"detail":"","city":"Surat"}]},{"name":"TheIndiaBazaar.com","addresses":[]},{"name":"Psr mart","addresses":[{"headline":"Delivery office","latlong":{"lng":78.486671,"lat":17.385044},"detail":"","city":"Hyderabad"}]},{"name":"ZurePro Warranty","addresses":[]},{"name":"My Closet 'N' More","addresses":[]},{"name":"Erizmo","addresses":[{"headline":"Main Office","latlong":{"lng":77.20889869999999,"lat":30.5116829},"detail":"6 A , INDUSTRIAL AREA , KALA AMB , HIMACHAL PRADESH","city":"Himachal Pradesh"}]},{"name":"ReGlobe","addresses":[{"headline":"Head Quarters","latlong":{"lng":77.042014,"lat":28.4117971},"detail":"Manak Waste Management Pvt LtdOffice 4254th Floor, Tower B-3,Spaze I-Tech Park, Sohna Road, Gurgaon, Haryana 122018","city":"Gurgaon"}]},{"name":"CAP","addresses":[{"headline":"Registered Office","latlong":{"lng":77.22496,"lat":28.635308},"detail":"","city":"New Delhi"}]},{"name":"Dress365days","addresses":[]},{"name":"Vikreyta","addresses":[{"headline":"Head Quarters","latlong":{"lng":73.88601,"lat":18.5122306},"detail":"Pricesticker Online Media Pvt Ltd,F-3, Parmar Trade Centre, Sadhu Vaswani Chowk, Camp, Pune - 411001","city":"Pune"}]},{"name":"SellMojo","addresses":[]},{"name":"Technomeet Solutions Pvt. Ltd.","addresses":[]},{"name":"Sabjiwala","addresses":[{"headline":"Back office colletion &amp; Packing centre &amp; Sales office in Thane","latlong":{"lng":74.5012831,"lat":15.8259548},"detail":"85 Chidamber Nagar Belgaum 590006 &amp; 41 Poud Road Pune","city":"Belgaum , Pune &amp; Thane"},{"headline":"Office","latlong":{"lng":72.8776559,"lat":19.0759837},"detail":"","city":"Mumbai"},{"headline":"Belgavi","latlong":{"lng":74.5038469,"lat":15.8236448},"detail":"85 Chidamber Nagar, Angol, Belgaum 590006","city":"85 Chidamber Nagar, Angol, Belgaum 590006"}]},{"name":"SahiBanda.com","addresses":[]},{"name":"Country's Fashion World","addresses":[{"headline":"Head Quater","latlong":{"lng":88.36389500000001,"lat":22.572646},"detail":"Country's Corporation17/2 Smith Lane Kolkatta 700013","city":"Kolkatta"}]},{"name":"getArtz","addresses":[{"headline":"Registered Office","latlong":{"lng":-121.7403963,"lat":47.86788},"detail":"Startup Village","city":"Kochin"}]},{"name":"Advance Tech Services","addresses":[{"headline":"Head Office","latlong":{"lng":77.1506734,"lat":28.6922224},"detail":"709-710, GD-ITL Towers,B-8, Netaji Subhash Place,Pitampura, New Delhi - 110034","city":"New Delhi"}]},{"name":"GuitarStreet","addresses":[{"headline":"Head Quarters","latlong":{"lng":77.5945627,"lat":12.9715987},"detail":"","city":"Bangalore"}]},{"name":"Gizmofashion","addresses":[{"headline":"Registered Office","latlong":{"lng":77.22496,"lat":28.635308},"detail":"Keshiha Services Pvt. Ltd.,Level 4, Rectangle 1,D-4 Commercial Complex,Saket, New Delhi- 110017India","city":"New Delhi"}]},{"name":"GKB Lens Pvt. Ltd.","addresses":[{"headline":"Head Quater","latlong":{"lng":88.36389500000001,"lat":22.572646},"detail":"P46 Kasba Industrial AreaPhase - IIKolkata - 700107","city":"Kolkata"}]},{"name":"Aspire foods","addresses":[{"headline":"Head Office","latlong":{"lng":72.8776559,"lat":19.0759837},"detail":"102, Dattaram Lad Marg, Kalachowky, Mumbai 33","city":"Mumbai"}]},{"name":"SunTecIndia","addresses":[]},{"name":"P J Softwares","addresses":[{"headline":"Head Office","latlong":{"lng":80.322007,"lat":26.4830312},"detail":"8/226, 2nd Floor, SGM Plaza, Arya Nagar Kanpur 208002","city":"Kanpur"}]},{"name":"Lootbargain","addresses":[{"headline":"Registered Office","latlong":{"lng":77.2936695,"lat":28.6377911},"detail":"G - 80 Preet Vihar, Delhi, 110092, India.","city":"Delhi"}]},{"name":"CouponMajaa","addresses":[]},{"name":"LocalBanya","addresses":[{"headline":"Main Office","latlong":{"lng":72.8776559,"lat":19.0759837},"detail":"LocalBanya.com114/914 Motilal Nagar no.1Goregaon WestMumbai 400104","city":"Mumbai"}]},{"name":"Umpaweb","addresses":[]},{"name":"Oink-Only Indian Kalakari","addresses":[]},{"name":"FBOnline Trading","addresses":[{"headline":"Registered Office","latlong":{"lng":77.1211905,"lat":28.6413852},"detail":"A-18, Rajouri Garden, New Delhi, India 110027","city":"New Delhi"}]},{"name":"Shoplik.com","addresses":[{"headline":"Head Office","latlong":{"lng":-82.4932467,"lat":27.9449692},"detail":"B-113, 2nd &amp; 3rd floor, Dwarka Mor (LandMark: Dwarka Mor Metro Station) New Delhi-110059","city":"New Delhi"}]},{"name":"Yuvastyle","addresses":[]},{"name":"Ramdhenu Emporium","addresses":[{"headline":"Head Quarter","latlong":{"lng":77.0650809,"lat":28.428074},"detail":"M-128, 2nd Floor, Today Blossoms-II, Sector-51, Gurgaon, Haryana 122001","city":"Gurgaon"}]},{"name":"myGREENkart","addresses":[{"headline":"Headquarters","latlong":{"lng":77.2599122,"lat":28.547824},"detail":"9/5, Nehru Enclave EastNew Delhi 110019.","city":"New Delhi"}]},{"name":"BRICS Forum","addresses":[]},{"name":"Indian Concepts","addresses":[{"headline":"New Delhi","detail":"","city":""}]},{"name":"LeMonto","addresses":[{"headline":"Canada","latlong":{"lng":77.5945627,"lat":12.9715987},"detail":"Head Quarters: CanadaIndia Office: Bangalore","city":"Head Quarters: CanadaIndia Office: Bangalore"}]},{"name":"MagicKart.com","addresses":[{"headline":"Head Quarters","latlong":{"lng":77.0266383,"lat":28.4594965},"detail":"","city":"Gurgaon"}]},{"name":"streetseven","addresses":[{"headline":"ecommerce office","latlong":{"lng":77.57632699999999,"lat":13.0345135},"detail":"no 37, 3rd main,amar jyoti layout, sanjay nagar bangalore-560094","city":"bangalore"}]},{"name":"BeeAny","addresses":[]},{"name":"eSupplementsStore","addresses":[{"headline":"Gurgaon","latlong":{"lng":77.0362967,"lat":28.5113577},"detail":"303A, Enkay Town PlazaI Block, Palam Vihar, Gurgaon, Haryana, India","city":"303A, Enkay Town PlazaI Block, Palam Vihar, Gurgaon, Haryana, India"}]},{"name":"Just Help Online Pvt Ltd","addresses":[{"headline":"Pune","latlong":{"lng":77.6306623,"lat":13.0129566},"detail":"Office No 18 City Garden Evershine Road","city":"Office No 18 City Garden Evershine Road"}]},{"name":"Hardwire.in","addresses":[{"headline":"H.O","latlong":{"lng":72.8776559,"lat":19.0759837},"detail":"B1/7 Veena Vadini M.G.Road Goregaon West Mumbai 400062","city":"Mumbai"}]},{"name":"Gadgets","addresses":[{"headline":"New Delhi","latlong":{"lng":77.21680359999999,"lat":28.5595022},"detail":"C-29 Neeti Bagh, New Delhi 110049","city":"C-29 Neeti Bagh, New Delhi 110049"}]},{"name":"MyNutraMart","addresses":[{"headline":"Corporate Office","latlong":{"lng":77.54350509999999,"lat":12.9539586},"detail":"No. 40, 2nd Floor, Sundar Industrial Estate, New Timber Yard Layout, Mysore Road, Bangalore: 560026","city":"Bangalore"}]},{"name":"PriceCheckIndia","addresses":[]},{"name":"Odisha Saree Store","addresses":[{"headline":"Head Office","latlong":{"lng":85.604263,"lat":20.65616},"detail":"Odisha Saree StoreGohirakhalaBhaliabolkateniDhenkanalOdishaPIN- 759015","city":"Dhenkanal"}]},{"name":"Kashmir Products.com","addresses":[{"headline":"Head Quarters","latlong":{"lng":74.7973681,"lat":34.0836581},"detail":"Kashmir Products.comKursu Raj Bagh,Srinagar, Kashmir,J&amp;K, IndiaPin:-190008","city":"Srinagar"}]},{"name":"RetailEMall","addresses":[]},{"name":"Just Buy Mart","addresses":[{"headline":"Online Mart","latlong":{"lng":78.486671,"lat":17.385044},"detail":"Plot No: 82Road No: 7Jubilee HillsHyderabadAndhrapradesh500033India","city":"Hyderabad"}]},{"name":"TOBOC Deals","addresses":[{"headline":"Head Quarters","latlong":{"lng":77.5945627,"lat":12.9715987},"detail":"1st floor, R.K. ChambersNo. 37-1/1, Aga Abbas Ali RoadBangalore 560 042 - India","city":"Bangalore"}]},{"name":"Arastan","addresses":[{"headline":"Headquaters","latlong":{"lng":77.5945627,"lat":12.9715987},"detail":"Arastan23 Nandidurga Road(opposite Airtel)Jayamahal ExtensionBangalore 560046","city":"Bangalore"}]},{"name":"Marwadishaadi.com","addresses":[{"headline":"Back Office","latlong":{"lng":72.9689398,"lat":19.2008566},"detail":"D-145, Amargian Industrial Estate, Khopat, Thane (W) 400601","city":"Thane"}]},{"name":"Gowheels","addresses":[]},{"name":"PenandPaper","addresses":[{"headline":"Head Office","latlong":{"lng":77.0266383,"lat":28.4594965},"detail":"ww-32, GF, MalibuSohna Road, Gurgaon, Haryana","city":"Gurgaon"}]},{"name":"Coupon Police","addresses":[]},{"name":"Craftmantra.com","addresses":[{"headline":"Head Quarters","latlong":{"lng":88.36389500000001,"lat":22.572646},"detail":"PebbleMedia49/9, Ballygunge PlaceKolkata 700029West BengalIndiaPhone number: +91 98200 90568","city":"Kolkata"}]},{"name":"BookMyForex","addresses":[{"headline":"Gurgaon","latlong":{"lng":77.0392106,"lat":28.4212614},"detail":"517, ILD Trade Center, Sector - 47, Sohna Road, Gurgaon, 122001,","city":"517, ILD Trade Center, Sector - 47, Sohna Road, Gurgaon, 122001,"}]},{"name":"Aaram Shop","addresses":[{"headline":"New Delhi","latlong":{},"detail":"NH1, C block Community Center,Naraina Vihar,New Delhi - 110 028,","city":"NH1, C block Community Center,Naraina Vihar,New Delhi - 110 028,"}]},{"name":"Scrunchh.com","addresses":[{"headline":"Office","latlong":{"lng":73.0188433,"lat":19.0351804},"detail":"Shipdo Ventures,805, Real Tech Park, Sector 30A, Vashi Station Road, Vashi,Navi Mumbai 400703 India","city":"Mumbai"}]},{"name":"Kaamastra.com","addresses":[{"headline":"Main Office:","latlong":{"lng":73.8668996,"lat":18.517768},"detail":"1/2, Jedhe Park, Next to Shantai Hotel, Rasta Peth, Pune - 411011","city":"Pune, India"}]},{"name":"RightShopping","addresses":[{"headline":"IT &amp; Merchandise","latlong":{"lng":88.3577244,"lat":22.5265017},"detail":"1/63, Dover PlaceKolkata - 700019West Bengal, India","city":"Kolkata"},{"headline":"Order Processing &amp; Customer Care","latlong":{"lng":88.360367,"lat":22.5124716},"detail":"P545 Lake RoadKolkata - 700029West Bengal, India","city":"Kolkata"},{"headline":"Head Office","latlong":{"lng":88.360367,"lat":22.5124716},"detail":"P76 Lake RoadKolkata - 700029West Bengal, India","city":"Kolkata"}]},{"name":"Agarwal Brainworks Pvt ltd","addresses":[]},{"name":"Oshoonline","addresses":[{"headline":"Ahmedabad","latlong":{"lng":72.52235379999999,"lat":23.0341403},"detail":"64, Nalanda Complex, Judges Bungalow Road, Satellite, Ahmedabad, Gujarat &ndash; 380015, INDIA","city":"64, Nalanda Complex, Judges Bungalow Road, Satellite, Ahmedabad, Gujarat &ndash; 380015, INDIA"}]},{"name":"Flipkart","addresses":[{"headline":"Engineering Office","latlong":{"lng":77.5945627,"lat":12.9715987},"detail":"","city":"Bangalore"}]},{"name":"MR BUTTON","addresses":[{"headline":"GUIDESHOP","latlong":{"lng":77.6407258,"lat":12.9143176},"detail":"MR BUTTON#5, 14t Main, 15th Cross, Sector - 4, HSR Layout, Bangalore - 560102","city":"Bangalore"}]},{"name":"DiscountBox","addresses":[{"headline":"Head Quarters","latlong":{"lng":73.8316141,"lat":18.5060513},"detail":"Office no. 3, Garden view, Behind Raja Mantri Park, Erandwane, Pune","city":"Pune"}]},{"name":"Ocatalog","addresses":[{"headline":"Office","latlong":{"lng":-81.35716599999999,"lat":28.776498},"detail":"801 International Parkway5th FloorLake Mary, FL - 32746","city":"Orlando, FL"},{"headline":"Pune","latlong":{},"detail":"2nd FloorShinde ComplexNDA Pashan RoadBavdhan Pune - 411018","city":"2nd FloorShinde ComplexNDA Pashan RoadBavdhan Pune - 411018"}]},{"name":"Essentiele","addresses":[{"headline":"Factory","latlong":{"lng":74.90918529999999,"lat":31.6435428},"detail":"AmritsarEss Jay Vee Processors Pvt. Ltd. Kot Mangal Singh B/h Old Octroi Post Tarn Taran Road Amritsar Punjab-143001","city":"Amritsar"}]},{"name":"Ramph Global Pvt Ltd","addresses":[{"headline":"Office","latlong":{"lng":77.22496,"lat":28.635308},"detail":"","city":"New Delhi"}]},{"name":"Bagwatee","addresses":[{"headline":"registered office","latlong":{"lng":13.072691,"lat":52.3941887},"detail":"P &ndash; 19, South Extension Part -2New Delhi &ndash; 110049","city":"New Delhi"}]},{"name":"UniqueKart","addresses":[{"headline":"Head Quarters","latlong":{"lng":77.01182460000001,"lat":29.696038},"detail":"SCO 5 Sector 8 Karnal","city":"Karnal"},{"headline":"New Delhi","latlong":{"lng":77.26063049999999,"lat":28.5385681},"detail":"KalkajiNew Delhi, DL 110019","city":"KalkajiNew Delhi, DL 110019"}]},{"name":"ScriptsDump Software","addresses":[{"headline":"Service Location","latlong":{"lng":-95.36938959999999,"lat":29.7601927},"detail":"5457 Northwest Fwy#600  HoustonTX 77092United StatesTelephone : +1 281-836-475","city":"Houston"},{"headline":"Registered Office","latlong":{"lng":77.9843075,"lat":9.8250592},"detail":"69,Rajaji StreetThirumangalam-625706MaduraiTamilnaduIndia","city":"Madurai"}]},{"name":"PaintLyfe","addresses":[{"headline":"Head Quarters","latlong":{"lng":75.8577258,"lat":22.7195687},"detail":"PaintLyfe.comE-94-ASaket Nagar,Indore452001","city":"Indore"}]},{"name":"Styletag","addresses":[{"headline":"Bangalore","latlong":{},"detail":"Intrepid Online Retail Pvt Ltd#20, 6th cross,8th main, Opp. Murthy Medicals,Vasanthnagar,Bangalore 560052","city":"Intrepid Online Retail Pvt Ltd#20, 6th cross,8th main, Opp. Murthy Medicals,Vasanthnagar,Bangalore 560052"}]},{"name":"EasyRenting","addresses":[{"headline":"Operations Office","latlong":{"lng":77.3910265,"lat":28.5355161},"detail":"","city":"Noida"}]},{"name":"9gardens.com","addresses":[{"headline":"Bangalore","latlong":{"lng":76.7452794,"lat":15.770753},"detail":"No.7, 3rd Cross,&lsquo;B&rsquo;street, Link road,Malleshwaram East Link, Bangalore-560003","city":"No.7, 3rd Cross,&lsquo;B&rsquo;street, Link road,Malleshwaram East Link, Bangalore-560003"},{"headline":"Office","latlong":{"lng":76.7452794,"lat":15.770753},"detail":"No.7, 3rd Cross,&lsquo;B&rsquo;street, Link road,Malleshwaram East Link, Bangalore-560003","city":"Bangalore"}]},{"name":"Intencity","addresses":[{"headline":"Pune","latlong":{"lng":73.8830701,"lat":18.5263773},"detail":"No 1, Kumar Castle Hsg Soc Basement, 1979 Convent StreetOpp St. Anne`s School, Next to Brand Factory MallCamp, Pune - 411001","city":"No 1, Kumar Castle Hsg Soc Basement, 1979 Convent StreetOpp St. Anne`s School, Next to Brand Factory MallCamp, Pune - 411001"}]},{"name":"Gift a Health","addresses":[{"headline":"Mumbai","latlong":{"lng":72.86535769999999,"lat":19.2014506},"detail":"45, Whispering Palms Shopping Center,Lokhandwala Township, Akurli Marg,Kandivali E, Mumbai 400101.","city":"45, Whispering Palms Shopping Center,Lokhandwala Township, Akurli Marg,Kandivali E, Mumbai 400101."}]},{"name":"Easypolicy","addresses":[{"headline":"Head Office","latlong":{"lng":77.368083,"lat":28.6143636},"detail":"C-56A/13, 6th Floor, Sector 62 Noida &ndash; 201301","city":"Noida"}]},{"name":"palmcrafts.com","addresses":[{"headline":"head office","latlong":{"lng":77.21666669999999,"lat":28.6666667},"detail":"","city":"DELHI NCR"}]},{"name":"pricesbolo","addresses":[{"headline":"Bangalore","latlong":{},"detail":"# 133/1, 1st Floor Janardhan TowersResidency RoadBangalore - 560 025","city":"# 133/1, 1st Floor Janardhan TowersResidency RoadBangalore - 560 025"}]},{"name":"HealthAdda.com","addresses":[{"headline":"Head Quarters","latlong":{"lng":80.249583,"lat":13.060422},"detail":"Healthadda Retail Private Limited,Shop 101 &amp; 102, 130 Mint Street,Chennai,Tamil Nadu,India.","city":"Chennai"}]},{"name":"ShopKirana","addresses":[{"headline":"Processing Office","latlong":{"lng":75.8577258,"lat":22.7195687},"detail":"5/2 Twin Tower, Khan Compound, Old Palasia.Indore","city":"Indore"}]},{"name":"KISS Mart Retail","addresses":[{"headline":"Head Quarters","latlong":{"lng":78.486671,"lat":17.385044},"detail":"KISS Mart Retail Pvt. Ltd.Plot No. 847, 4th Floor, Pacific towers,Ayyappa Society,Madhapur,Hyderabad- 500081AP INDIA","city":"Hyderabad"}]},{"name":"Jingloo","addresses":[{"headline":"India Office","latlong":{"lng":78.486671,"lat":17.385044},"detail":"","city":"Hyderabad"}]},{"name":"CorsetDeal","addresses":[]},{"name":"DiscountsVu","addresses":[{"headline":"Chennai","latlong":{"lng":80.1622466,"lat":13.0341424},"detail":"# 63/56 1st Main Road Lakshmi Nagar, Vinayagapuram, Kolathur, Chennai - 600099,Tamil Nadu,","city":"# 63/56 1st Main Road Lakshmi Nagar, Vinayagapuram, Kolathur, Chennai - 600099,Tamil Nadu,"}]},{"name":"Granthdwar","addresses":[{"headline":"Registered Office","latlong":{"lng":73.8407975,"lat":18.4534639},"detail":"Granthdwar,B - 1/7, Runwal PANORAMA,Mumbai - Bangalore Highway,Warje, Pune,MH &ndash; INDIA - 411058","city":"Pune"}]},{"name":"high go info solutions","addresses":[{"headline":"Head Office","latlong":{"lng":78.3910691,"lat":17.4411482},"detail":"Madhapur,India - 500081.","city":"Hyderabad"}]},{"name":"MagicKart","addresses":[{"headline":"Chennai","latlong":{"lng":80.26792309999999,"lat":13.0808527},"detail":"#26, Poonamallee High Road,Perimet,Chennai - 600 003Tamil Nadu, India","city":"#26, Poonamallee High Road,Perimet,Chennai - 600 003Tamil Nadu, India"}]},{"name":"Heads Up For Tails","addresses":[{"headline":"Store","latlong":{"lng":77.21869099999999,"lat":28.5296723},"detail":"Select Citywalk, Saket, New Delhi-17","city":"New Delhi"}]},{"name":"Pennyful.in","addresses":[{"headline":"HQ","latlong":{"lng":77.5945627,"lat":12.9715987},"detail":"","city":"Bangalore"}]},{"name":"Nineteen Apparels Pvt. Ltd","addresses":[{"headline":"HO","latlong":{"lng":77.2764329,"lat":28.5357628},"detail":"S-76, Okhla phase 2, New Delhi","city":"New Delhi"}]},{"name":"Basics Life","addresses":[{"headline":"Chennai","latlong":{"lng":80.16995659999999,"lat":13.0574733},"detail":"23b, Alapakkam main Road, maduravoil, Chennai-600 095, India.","city":"23b, Alapakkam main Road, maduravoil, Chennai-600 095, India."}]},{"name":"W for Woman","addresses":[{"headline":"Bangalore","latlong":{"lng":77.6083469,"lat":12.9821504},"detail":"146 Commercial St, Tasker Town, ShivajinagarBangalore, Karnataka 560001","city":"146 Commercial St, Tasker Town, ShivajinagarBangalore, Karnataka 560001"}]},{"name":"Shoppingwish","addresses":[]},{"name":"The Posterwala","addresses":[{"headline":"Chennai","latlong":{},"detail":"Mirror Street, 150/2Chennai, TamilnaduIndia","city":"Mirror Street, 150/2Chennai, TamilnaduIndia"}]},{"name":"The eMerchant","addresses":[{"headline":"Head Quarters","latlong":{"lng":78.486671,"lat":17.385044},"detail":"e-Merchant Digital Solutions Pvt. Ltd. Plot # 6-2-47, Flat # 5B, 5th FloorYeturu Towers, A.C. GuardsHyderabad - 500 004, (A.P) India.","city":"Hyderabad"}]},{"name":"ParallelWay","addresses":[{"headline":"Registered Office","latlong":{"lng":77.6693608,"lat":12.9269824},"detail":"1007, Green Glen layout, Bellandur, Bangalore 103","city":"Bangalore"}]},{"name":"Etail marketing","addresses":[{"headline":"Corporate office","latlong":{"lng":77.31592959999999,"lat":28.5846875},"detail":"C-108, Sector-2 NOIDA (U.P) - 201301","city":"Noida"}]},{"name":"Straightline","addresses":[{"headline":"Kolkata","latlong":{},"detail":"Godrej Waterside Tower-I,3rd floor,Plot-5, Block-DP Sector-VKolkata West BengalIndia 700091","city":"Godrej Waterside Tower-I,3rd floor,Plot-5, Block-DP Sector-VKolkata West BengalIndia 700091"}]},{"name":"AllThingsCustomized","addresses":[{"headline":"Office","latlong":{"lng":77.5945627,"lat":12.9715987},"detail":"# 20, 11th A Main, 1st Floor, Millers Road, Vasanthnagar, Bangalore - 560 052, Karnataka","city":"Bangalore"}]},{"name":"WGM Media Services","addresses":[{"headline":"Head Quarter","latlong":{"lng":77.22496,"lat":28.635308},"detail":"","city":"New Delhi"}]},{"name":"Violetbag","addresses":[{"headline":"Bangalore","latlong":{},"detail":"No. 54, 5th Main,Kodihalli, HAL II StageBehind  Hotel? Leela Palace,Bangalore- 560008??.","city":"No. 54, 5th Main,Kodihalli, HAL II StageBehind  Hotel? Leela Palace,Bangalore- 560008??."}]},{"name":"Flora India","addresses":[]},{"name":"Booksnyou","addresses":[{"headline":"Office","latlong":{"lng":77.22496,"lat":28.635308},"detail":"","city":"Delhi"}]},{"name":"Babeezworld","addresses":[{"headline":"New Delhi","latlong":{"lng":77.22496,"lat":28.635308},"detail":"59/15 Guru Ravidas Marg, BasementSatyam House, KalkajiNew Delhi &ndash; 110019.","city":"59/15 Guru Ravidas Marg, BasementSatyam House, KalkajiNew Delhi &ndash; 110019."}]},{"name":"Pouring Pounds Ltd","addresses":[]},{"name":"929 Retail","addresses":[{"headline":"New Delhi","latlong":{},"detail":"Rana Retail Services Pvt. Ltd.Office add: C-45, Ground FloorPrashant Vihar, Sec-14Rohini, New Delhi, 110085INDIA","city":"Rana Retail Services Pvt. Ltd.Office add: C-45, Ground FloorPrashant Vihar, Sec-14Rohini, New Delhi, 110085INDIA"}]},{"name":"Monkey Minds Technologies Private Limited","addresses":[{"headline":"Head Office","latlong":{"lng":80.25198639999999,"lat":13.0019407},"detail":"69/1, 1st Street, Kamaraj Avenue, Adyar, Chennai - 600020.","city":"Chennai"}]},{"name":"Peripleko Infosoft","addresses":[{"headline":"Admin Office","latlong":{"lng":72.58,"lat":23.03},"detail":"YourDesignerWear.comPeripleko Infosoft312, Sahajanand Arcade132 Feet Ring RoadManav Mandir Char Rasta, Memnagar,Ahmedabad,GujaratIndia - 380052","city":"Ahmedabad"}]},{"name":"HariSabzi.com","addresses":[{"headline":"Head Quarter","latlong":{"lng":72.8776559,"lat":19.0759837},"detail":"13/5 near busa industrial estate behind century bazzar prabhadevi","city":"Mumbai"}]},{"name":"Karismatic Krafts","addresses":[{"headline":"Head Quarters","latlong":{"lng":80.9466832,"lat":26.8465108},"detail":"Karismatic Krafts?610/53,Bari Enclave, Keshav Nagar,Dodoli Road,Lucknow                                            Uttar Pradesh, India.","city":"Lucknow"}]},{"name":"99 Shoppe","addresses":[{"headline":"Registered Office","latlong":{"lng":80.249583,"lat":13.060422},"detail":"No49, Ist main road, Karpagam GardensAdyar, ChennaiTamil NaduIndia600020","city":"Chennai"},{"headline":"","detail":"","city":""}]},{"name":"Perniaspopupshop","addresses":[{"headline":"New Delhi","latlong":{"lng":77.2333304,"lat":28.571832},"detail":"3rd Floor, A-268, Defence Colony, NewDelhi","city":"3rd Floor, A-268, Defence Colony, NewDelhi"}]},{"name":"Vakaro","addresses":[]},{"name":"International Drug Mart","addresses":[]},{"name":"Glitwood","addresses":[{"headline":"Chennai","latlong":{"lng":80.22655449999999,"lat":13.1545539},"detail":"Glitwood.comA303, Sakthi Towers,349, MRH road, Madhavaram,Chennai - 600060","city":"Glitwood.comA303, Sakthi Towers,349, MRH road, Madhavaram,Chennai - 600060"}]},{"name":"Johareez","addresses":[{"headline":"Corporate office","latlong":{"lng":75.7872879,"lat":26.9124165},"detail":"C-1, IGM Tower, Gopinath MargNew Colony, Jaipur 302001Rajasthan, India","city":"Jaipur"}]},{"name":"Shop To Surprise","addresses":[]},{"name":"Sportskeeda Store","addresses":[{"headline":"Head Quarters","latlong":{"lng":77.6333135,"lat":12.9615212},"detail":"First Floor, 1321, Double Road, Indiranagar 2nd Stage, Bangalore &ndash; 560038","city":"Bangalore"}]},{"name":"Styleever E-Trends Pvt. Ltd","addresses":[{"headline":"Office","latlong":{"lng":77.2805212,"lat":28.5428093},"detail":"Styleever E Trends Pvt. Ltd.D 18/1, Okhla Industrial Area,Ph 1, New Delhi 110020","city":"New Delhi"}]},{"name":"Sareefair","addresses":[{"headline":"Chennai","latlong":{"lng":80.2887312,"lat":13.0982537},"detail":"91 Ramasamy StChennai-600001India.","city":"91 Ramasamy StChennai-600001India."}]},{"name":"Ibazaarindia","addresses":[]},{"name":"Funktees","addresses":[{"headline":"Panchkula","latlong":{"lng":76.8331743,"lat":30.6815176},"detail":"296, Industrial Area, Phase 2Panchkula (Haryana) &ndash; 134109","city":"296, Industrial Area, Phase 2Panchkula (Haryana) &ndash; 134109"}]},{"name":"Shopezone Ecom","addresses":[{"headline":"Head Quarter","latlong":{"lng":77.36761419999999,"lat":28.6024748},"detail":"B-86, Sector-60, Noida, Uttarpradesh.","city":"Noida"}]},{"name":"Vastradi","addresses":[{"headline":"Head Quarters","latlong":{"lng":77.0266383,"lat":28.4594965},"detail":"603, Avalon Heights, GH-6, Sector -47,Gurgaon,Haryana","city":"Gurgaon"}]},{"name":"Good Value","addresses":[{"headline":"Bangalore","latlong":{"lng":77.553344,"lat":12.9849815},"detail":"No 639, Ground Floor, 63rd Cross5th Block, Rajajinagar, Bangalore - 560010","city":"No 639, Ground Floor, 63rd Cross5th Block, Rajajinagar, Bangalore - 560010"}]},{"name":"commercemuse","addresses":[{"headline":"Office","latlong":{"lng":77.6364299,"lat":12.8844599},"detail":"Novel Business Center,No.10, 100 feet Ring road,BTM 1st stage, Bangalore,Karnataka-560068","city":"Bangalore"}]},{"name":"Int2Ext","addresses":[{"headline":"Head Office","latlong":{"lng":77.03917539999999,"lat":28.6349043},"detail":"130 Somdutt Chambers 1, 5 Bhikaji Cama Place, New Delhi - 110066 (India)","city":"New Delhi"}]},{"name":"Smile N Buy","addresses":[{"headline":"Bharuch","latlong":{"lng":72.9948424,"lat":21.7018455},"detail":"1st Floor, Rungta School Bldg,Station Road, Bharuch,Gujarat 392001","city":"1st Floor, Rungta School Bldg,Station Road, Bharuch,Gujarat 392001"}]},{"name":"Kanpur Deals","addresses":[{"headline":"Head Office","latlong":{"lng":80.3171325,"lat":26.4834295},"detail":"Swaroop Nagar","city":"Kanpur"}]},{"name":"Clipr","addresses":[{"headline":"Office","latlong":{"lng":72.8776559,"lat":19.0759837},"detail":"","city":"Mumbai"}]},{"name":"Rentongo","addresses":[{"headline":"Head Office","latlong":{"lng":77.5945627,"lat":12.9715987},"detail":"","city":"Bangalore"}]},{"name":"Shopr","addresses":[{"headline":"Head Quarters","latlong":{"lng":77.0266383,"lat":28.4594965},"detail":"HYPER BAZAAR RETAIL PVT LTD785P, IInd Floor ,Adjoining Unitech Cyber ParkSector-39Gurgaon-122001","city":"Gurgaon"}]},{"name":"Hyderabadgiftsdelivery","addresses":[{"headline":"Hyderabad","latlong":{"lng":78.4426308,"lat":17.439511},"detail":"D-44, 1st Floor, Madhura NagarSR Nagar PostHyderabad - 500038","city":"D-44, 1st Floor, Madhura NagarSR Nagar PostHyderabad - 500038"}]},{"name":"Olive Planet","addresses":[{"headline":"Registered Office","latlong":{"lng":77.52452889999999,"lat":12.958784},"detail":"No 4, 4th Floor, 80 feet Road, R T Nagar, Bangalore, India 560032","city":"Bangalore"}]},{"name":"Comma Books","addresses":[{"headline":"Head Quarters","latlong":{"lng":77.5945627,"lat":12.9715987},"detail":"","city":"Bangalore"}]},{"name":"Splendina","addresses":[{"headline":"Bangalore","latlong":{"lng":77.5945627,"lat":12.9715987},"detail":"No, 120, Bull Temple Road Cross,Opp Maratha Hostel,Bangalore","city":"No, 120, Bull Temple Road Cross,Opp Maratha Hostel,Bangalore"}]},{"name":"Cricket Weekly","addresses":[{"headline":"Delhi","latlong":{"lng":77.0710168,"lat":28.6456846},"detail":"236, Arunodaya ApartmentsVikaspuriDelhi 110018","city":"236, Arunodaya ApartmentsVikaspuriDelhi 110018"}]},{"name":"www.yaarikart.com","addresses":[{"headline":"Office","latlong":{"lng":77.6997663,"lat":12.9511982},"detail":"no 150\\2,y.munnireddy building,1st main,5th cross,doddanakundi,marathahalli,bangalore-560037,Karnataka,India.","city":"Bangalore"}]},{"name":"Captchalive","addresses":[{"headline":"New Delhi","latlong":{"lng":77.23663169999999,"lat":28.5711746},"detail":"B-25, 3rd Floor,Lala Lajpat Rai Marg,Lajpat Nagar II, New Delhi","city":"B-25, 3rd Floor,Lala Lajpat Rai Marg,Lajpat Nagar II, New Delhi"}]},{"name":"Giftanyone","addresses":[{"headline":"Mumbai","latlong":{"lng":72.8393019,"lat":19.1629924},"detail":"First Floor, 3A Udyog Nagar, Garodia Industrial Estate, Near Kamat Club, Off S.V. Road, Goregaon (W)Mumbai,","city":"First Floor, 3A Udyog Nagar, Garodia Industrial Estate, Near Kamat Club, Off S.V. Road, Goregaon (W)Mumbai,"}]},{"name":"Whole Seller Store","addresses":[{"headline":"Madurai","latlong":{"lng":77.6992087,"lat":9.9793641},"detail":"5 and 6 Kumtham St, Ganapathy Nagar, Vilangudi, Madurai, Tamil Nadu - 625018, India","city":"5 and 6 Kumtham St, Ganapathy Nagar, Vilangudi, Madurai, Tamil Nadu - 625018, India"}]},{"name":"Shop At Disney","addresses":[{"headline":"","detail":"","city":""}]},{"name":"Gujarat Gifts","addresses":[{"headline":"Ahmedabad","latlong":{},"detail":"126, 28 Advait ComplexVastrapur, AhmedabadINDIA","city":"126, 28 Advait ComplexVastrapur, AhmedabadINDIA"}]},{"name":"Sans Events Pvt Ltd","addresses":[{"headline":"Registered Office","latlong":{"lng":80.1881633,"lat":13.0488248},"detail":"144/23, Avm Avenue 8th Street, VirugambakkamChennai - 600092","city":"Chennai"}]},{"name":"Book Chums","addresses":[{"headline":"Pune","latlong":{},"detail":"Engage Infomedia India Pvt. Ltd.City Mall, 6th Floor,University Road,Pune - 411 007","city":"Engage Infomedia India Pvt. Ltd.City Mall, 6th Floor,University Road,Pune - 411 007"}]},{"name":"Mobeepay Infotech Pvt. Ltd.","addresses":[{"headline":"Head Office","latlong":{"lng":72.9780897,"lat":19.2183307},"detail":"42A, Lake City Center,Kapurbawdi Circle,Next to big bazarThane","city":"Thane"}]},{"name":"Uread","addresses":[{"headline":"New Delhi","latlong":{"lng":77.22496,"lat":28.635308},"detail":"Prakash eSolutions Pvt. Ltd. 113A, Darya Ganj, Prakasha Scouts Guides Building, New Delhi &ndash; 110 002","city":"Prakash eSolutions Pvt. Ltd. 113A, Darya Ganj, Prakasha Scouts Guides Building, New Delhi &ndash; 110 002"}]},{"name":"EGiftsIndia.com","addresses":[{"headline":"Office","latlong":{"lng":72.9780897,"lat":19.2183307},"detail":"Thane","city":"Mumbai"}]},{"name":"Strendy","addresses":[{"headline":"Durgapur","latlong":{},"detail":"3/31 Srinagar Pally,Benachity,Durgapur 713213W.B.(India)","city":"3/31 Srinagar Pally,Benachity,Durgapur 713213W.B.(India)"}]},{"name":"Click Home Shop","addresses":[{"headline":"Bangalore","latlong":{"lng":77.68446709999999,"lat":12.9107945},"detail":"219, Ground Floor, Kaikondrahalli, Sarjapur road,, Bangalore,","city":"219, Ground Floor, Kaikondrahalli, Sarjapur road,, Bangalore,"}]},{"name":"Versant Online Solutions Pvt Ltd","addresses":[{"headline":"Branch Office","latlong":{"lng":77.5945627,"lat":12.9715987},"detail":"","city":"Bangalore"},{"headline":"Branch Office","latlong":{"lng":77.21666669999999,"lat":28.6666667},"detail":"","city":"Delhi-NCR"},{"headline":"Branch Office","latlong":{"lng":73.8567437,"lat":18.5204303},"detail":"","city":"Pune"},{"headline":"Branch Office","latlong":{"lng":72.8776559,"lat":19.0759837},"detail":"","city":"Mumbai"},{"headline":"Head Quarters","latlong":{"lng":78.3700329,"lat":17.4546896},"detail":"2nd Floor, 3 Cube Towers,Whitefield Rd, KondapurHyderabad, AP 500084","city":"Hyderabad"}]},{"name":"dinein.in","addresses":[{"headline":"Head Office","latlong":{"lng":80.249583,"lat":13.060422},"detail":"&quot;Prakash Presidium&quot;4th Floor110 Mahatma Gandhi Road, Chennai - 600034","city":"Chennai"}]},{"name":"vlyke.com","addresses":[]},{"name":"Ozel Clothing","addresses":[{"headline":"New Delhi","latlong":{"lng":77.1300562,"lat":28.6522366},"detail":"26/1, SHIVAJI MARG NAJAFGARH ROAD, MOTI NAGAR,NEW DELHI -110015","city":"26/1, SHIVAJI MARG NAJAFGARH ROAD, MOTI NAGAR,NEW DELHI -110015"}]},{"name":"Kinder Spaces","addresses":[{"headline":"Hyderabad","latlong":{"lng":78.43041389999999,"lat":17.4123772},"detail":"215/A/A, Road # 12,MLA Colony, Banjara Hills,Hyderabad - 500 034,Andhra Pradesh, India.","city":"215/A/A, Road # 12,MLA Colony, Banjara Hills,Hyderabad - 500 034,Andhra Pradesh, India."}]},{"name":"Zarilane tradex pvt limited","addresses":[{"headline":"Head Office","latlong":{"lng":77.14011839999999,"lat":28.6569408},"detail":"3 najafgarh road,Moti Nagar, Delhi, India.","city":"Delhi"}]},{"name":"Ejeweller","addresses":[{"headline":"","detail":"","city":""}]},{"name":"The Electro","addresses":[{"headline":"Mumbai","latlong":{},"detail":"207, Pragati Industrial Estate, N.M.Joshi Marg, Lower Parel, Mumbai - 400 011.Maharashtra","city":"207, Pragati Industrial Estate, N.M.Joshi Marg, Lower Parel, Mumbai - 400 011.Maharashtra"}]},{"name":"Ambitions Jewellers","addresses":[{"headline":"Jaipur","latlong":{"lng":74.21793260000001,"lat":27.0238036},"detail":"Tilak Bhawan,5/A, Tilak Marg, C-Scheme,Jaipur-302 005,Rajasthan, (India)","city":"Tilak Bhawan,5/A, Tilak Marg, C-Scheme,Jaipur-302 005,Rajasthan, (India)"}]},{"name":"Salt n Soap","addresses":[{"headline":"Operating Office","latlong":{"lng":88.37650939999999,"lat":22.5030901},"detail":"4A KP Roy Lane, Dhakuria, Kolkata - 700 091","city":"Kolkata"}]},{"name":"Pixopa","addresses":[]},{"name":"Sukrt Retail","addresses":[{"headline":"Office","latlong":{"lng":77.3910265,"lat":28.5355161},"detail":"","city":"Noida"}]},{"name":"SimplySizzl.in","addresses":[{"headline":"Head Quarters","latlong":{"lng":77.2139292,"lat":28.5477546},"detail":"212, 2nd Floor, Shahpur Jat, New Delhi - 110049","city":"New Delhi"}]},{"name":"Baby Gifts India","addresses":[{"headline":"Bangalore","latlong":{},"detail":"No:54, S.B. Arcade, Kaggadasapura Main Road, Beside Canara BankBangalore - 560075Karnataka","city":"No:54, S.B. Arcade, Kaggadasapura Main Road, Beside Canara BankBangalore - 560075Karnataka"}]},{"name":"Jnanamudramontessorimaterials","addresses":[{"headline":"Bangalore","latlong":{},"detail":"#24, 6th Cross, Purandara Dasa Road,Kaderanahalli, Banashankari II Stage,Bangalore - 560 070","city":"#24, 6th Cross, Purandara Dasa Road,Kaderanahalli, Banashankari II Stage,Bangalore - 560 070"}]},{"name":"Sheep Stop","addresses":[{"headline":"Pune","latlong":{},"detail":"StyleBuds987 A/10, Laxmi Society,Senapati Bapat RoadShivajiNagarPune - 411016","city":"StyleBuds987 A/10, Laxmi Society,Senapati Bapat RoadShivajiNagarPune - 411016"}]},{"name":"Myvirtualplaza","addresses":[{"headline":"Hyderabad","latlong":{"lng":-4.5506307,"lat":41.58712999999999},"detail":"A-11 &amp; A-12, 3rd Floor, Banjara Gardens,Road no-12,Banjara Hills,Hyderabad - 34.","city":"A-11 &amp; A-12, 3rd Floor, Banjara Gardens,Road no-12,Banjara Hills,Hyderabad - 34."}]},{"name":"Tilia","addresses":[{"headline":"Bangalore","latlong":{"lng":77.6228229,"lat":12.9280294},"detail":"#29, 3rd cross, 16-C Main, Koramangala 4th BlockBangalore - 560 034","city":"#29, 3rd cross, 16-C Main, Koramangala 4th BlockBangalore - 560 034"}]},{"name":"At My Doorsteps","addresses":[{"headline":"","detail":"","city":""}]},{"name":"IndiaBazaarOnline","addresses":[{"headline":"Registered Office","latlong":{"lng":77.22496,"lat":28.635308},"detail":"I-64, 3rd Floor, Street #3, Garwali Mohalla, Laxmi NagarNew Delhi - 11009","city":"New Delhi"}]},{"name":"Book Curry","addresses":[]},{"name":"Print Bindaas","addresses":[{"headline":"Head Office","latlong":{"lng":72.8776559,"lat":19.0759837},"detail":"B-42, Pravasi Industrial EstateOff Aarey Road, Goregaon (East)Mumbai 400 063","city":"Mumbai"}]},{"name":"ZapLiving","addresses":[{"headline":"Office &amp; warehouse","latlong":{"lng":77.08179,"lat":28.52319},"detail":"LG-12A, Westend Plaza, Kapashera, New Delhi","city":"New Delhi"}]},{"name":"InfoCom Marketing","addresses":[]},{"name":"TechShop","addresses":[{"headline":"Mumbai","latlong":{"lng":72.8737017,"lat":19.117753},"detail":"Electron Online Studio Pvt. Ltd.230 New Apollo Estate, Mogra Lane, Andheri (e), Mumbai - 400069.","city":"Electron Online Studio Pvt. Ltd.230 New Apollo Estate, Mogra Lane, Andheri (e), Mumbai - 400069."}]},{"name":"Anchanto","addresses":[{"headline":"Software Development","latlong":{"lng":73.8567437,"lat":18.5204303},"detail":"3rd Floor, Vasudha House Baner Road PUNE, INDIA+91 20 6529 4284","city":"Pune"}]},{"name":"Kamahoo","addresses":[{"headline":"Gurgaon","latlong":{},"detail":"SCO 70, Sector - 40 ,HUDA Market,Gurgoan","city":"SCO 70, Sector - 40 ,HUDA Market,Gurgoan"}]},{"name":"Shop by Choice","addresses":[]},{"name":"Valuemart Retail Solutions","addresses":[{"headline":"Registered office","latlong":{"lng":77.5945627,"lat":12.9715987},"detail":"Contact InformationREGISTERED OFFICE :#2, 2nd Floor, RR Chambers11th Main, VasanthnagarOff Millers RoadBangalore - 560052Tel : +91-80-22202131/32/33Fax: +91-80-22202134CORPORATE OFFICE:# 1371, 1ST Floor, Srinikethan31st B Cross, Jayanagar 4th T BlockBangalore &ndash; 560041Tel : +91-80-26631623/24/25Fax: +91-80-26633445","city":"Bangalore"}]},{"name":"ItsHandMade","addresses":[{"headline":"Headquaters","latlong":{"lng":77.5945627,"lat":12.9715987},"detail":"HandMade MailBajaj Commerce Pvt. Ltd.Jayanagar, BangaloreKarnataka (India)","city":"Bangalore"}]},{"name":"Statusmall","addresses":[]},{"name":"The Elements Factory","addresses":[{"headline":"New Delhi","latlong":{"lng":77.18589949999999,"lat":28.6404268},"detail":"27/29 Old Rajinder Nagar,New Delhi- 110060","city":"27/29 Old Rajinder Nagar,New Delhi- 110060"}]},{"name":"The Divineshoppe","addresses":[{"headline":"Faridabad","latlong":{"lng":77.3123396,"lat":28.4343934},"detail":"House No. 121, Sector 28,FaridabadHaryana","city":"House No. 121, Sector 28,FaridabadHaryana"}]},{"name":"Get My Ration","addresses":[{"headline":"Zirkpur","latlong":{},"detail":"Shop No 3, Jarnail Enclave Zirkpur (Punjab)","city":"Shop No 3, Jarnail Enclave Zirkpur (Punjab)"}]},{"name":"Mithaimate","addresses":[{"headline":"New Delhi","latlong":{"lng":77.192416,"lat":28.6587926},"detail":"65/68 New Rohtak RoadKarol BaghNew Delhi - 110 005.","city":"65/68 New Rohtak RoadKarol BaghNew Delhi - 110 005."}]},{"name":"Letbabyplay","addresses":[{"headline":"Delhi","latlong":{"lng":77.087975,"lat":28.611334},"detail":"105/Balaji Plaza,Sector-8, Rohini,Delhi - 110085","city":"105/Balaji Plaza,Sector-8, Rohini,Delhi - 110085"}]},{"name":"ShortCircuit","addresses":[]},{"name":"Books At Bahri","addresses":[{"headline":"New Delhi","latlong":{"lng":77.22680559999999,"lat":28.6002778},"detail":"Bahrisons Booksellers Opp. Main Gate, Khan Market, New Delhi - 110003, India.","city":"Bahrisons Booksellers Opp. Main Gate, Khan Market, New Delhi - 110003, India."}]},{"name":"Bangles Art","addresses":[]},{"name":"Perfico","addresses":[{"headline":"New Delhi","latlong":{"lng":77.2793059,"lat":28.5245577},"detail":"F-90/27 Okhla Industrial Area,Phase 1New Delhi - 110020","city":"F-90/27 Okhla Industrial Area,Phase 1New Delhi - 110020"}]},{"name":"Manash Lifestyle Pvt. Limited","addresses":[{"headline":"Head Quarters","latlong":{"lng":72.9161575,"lat":19.0998773},"detail":"C - 209A, Ghatkopar Industrial Estate, Behind R - City Mall, Ghatkopar West, Mumbai","city":"Mumbai"}]},{"name":"D K Agencies","addresses":[{"headline":"New Delhi","latlong":{},"detail":"D.K. Agencies (P) Ltd. A/15-17, D. K. AvenueMohan GardenNajafgarh RoadNew Delhi - 110 05","city":"D.K. Agencies (P) Ltd. A/15-17, D. K. AvenueMohan GardenNajafgarh RoadNew Delhi - 110 05"}]},{"name":"D Muscle Healthcare Pvt. Ltd.","addresses":[{"headline":"Headquaters","latlong":{"lng":76.62538649999999,"lat":28.6815037},"detail":"#702, 8th Floor, Daffodil TowerGreen Valley, Sector 41-42Faridabad - 121003","city":"Faridabad"}]},{"name":"Tiffly","addresses":[{"headline":"Delhi","latlong":{"lng":77.28285199999999,"lat":28.6299094},"detail":"G-26A, 2nd Floor, Near Aruna Park, Shakarpur, Delhi-110092","city":"G-26A, 2nd Floor, Near Aruna Park, Shakarpur, Delhi-110092"}]},{"name":"CubicWebSolutions","addresses":[]},{"name":"cheapesto","addresses":[]},{"name":"egiftexpert","addresses":[]},{"name":"Indiamags","addresses":[]},{"name":"Buyhatke","addresses":[]},{"name":"Dezains Creative Solutions","addresses":[]},{"name":"Doctree Health Infoservices","addresses":[{"headline":"Head Quarters","latlong":{"lng":77.57399529999999,"lat":12.9910734},"detail":"2, South end road, Seshadripuram, Bangalore - 560020","city":"Bangalore"}]},{"name":"E-Gifts India Online","addresses":[{"headline":"Bangalore","latlong":{},"detail":"No 132/2, Deepika LayoutChelikere,MeganapalyaKalyan Nagar PostBangalore 560043","city":"No 132/2, Deepika LayoutChelikere,MeganapalyaKalyan Nagar PostBangalore 560043"}]},{"name":"Rockasap","addresses":[{"headline":"New Delhi","latlong":{},"detail":"405, Ansal Bhawan 16 K.G. Marg, Connaught PlaceNew Delhi 11000","city":"405, Ansal Bhawan 16 K.G. Marg, Connaught PlaceNew Delhi 11000"}]},{"name":"chennaistore","addresses":[]},{"name":"MY DEMAND KART","addresses":[]},{"name":"Fundoobuy","addresses":[{"headline":"New Delhi","latlong":{"lng":77.13737900000001,"lat":28.688047},"detail":"D-19, Jeevan Jyoti, Pitampura, Delhi-110034","city":"D-19, Jeevan Jyoti, Pitampura, Delhi-110034"}]},{"name":"CouponzGuru","addresses":[]},{"name":"Froods","addresses":[]},{"name":"Bada Deal","addresses":[{"headline":"Mumbai","latlong":{"lng":72.8776559,"lat":19.0759837},"detail":"Office no. 30, 2nd Floor,, Mohid Heights, RTO Lane,, Andheri, Mumbai.","city":"Office no. 30, 2nd Floor,, Mohid Heights, RTO Lane,, Andheri, Mumbai."}]},{"name":"Urban Decor","addresses":[{"headline":"Bangalore","latlong":{"lng":77.5945627,"lat":12.9715987},"detail":"#1027, 1st Floor, 13th Main, 3rd CrossNear Shreya Hearing Clinic, HAL 2nd StageIndiranagar, Bangalore","city":"#1027, 1st Floor, 13th Main, 3rd CrossNear Shreya Hearing Clinic, HAL 2nd StageIndiranagar, Bangalore"}]},{"name":"Incynk","addresses":[{"headline":"New Delhi","latlong":{"lng":77.14707829999999,"lat":28.6295404},"detail":"EA - 1/75, Second Floor, Inderpuri, New Delhi - 110012","city":"EA - 1/75, Second Floor, Inderpuri, New Delhi - 110012"}]},{"name":"48Craft","addresses":[{"headline":"Hyderabad","latlong":{},"detail":"2-2-647/77/F/101ASrinivasa Nagar colonyBagh AmberpetHyderabad500013","city":"2-2-647/77/F/101ASrinivasa Nagar colonyBagh AmberpetHyderabad500013"}]},{"name":"Blue Horse","addresses":[{"headline":"Corporate office","latlong":{"lng":88.3531247,"lat":22.5700768},"detail":"38, Bentinck Street1st Floor, Room No. 4,Kolkata 743 319,West Bengal,","city":"Kolkata"}]},{"name":"Zven E-commerce Solutions","addresses":[{"headline":"Head Quarters","latlong":{"lng":-89.52644079999999,"lat":13.9366935},"detail":"1St &amp; 2nd Floor, G-41, Sec 63, Noida, Uttar Pradesh 201301","city":"Noida"}]},{"name":"We Make Love","addresses":[{"headline":"Head Quarters","latlong":{"lng":77.22496,"lat":28.635308},"detail":"","city":"Delhi"}]},{"name":"Hurr.in","addresses":[{"headline":"Bangalore","latlong":{"lng":77.61461779999999,"lat":12.920739},"detail":"12th cross, Teacher's colony,Koramangala 3rd BlockBangalore - 34","city":"12th cross, Teacher's colony,Koramangala 3rd BlockBangalore - 34"}]},{"name":"Vellvette","addresses":[]},{"name":"SIM Solutions","addresses":[{"headline":"New Delhi","latlong":{"lng":77.0737149,"lat":28.6382433},"detail":"SIM Solutions (P) Ltd.AG-1 Block, Vikas Puri,New Delhi &ndash; 110018.India.","city":"SIM Solutions (P) Ltd.AG-1 Block, Vikas Puri,New Delhi &ndash; 110018.India."}]},{"name":"Thombya","addresses":[{"headline":"Head Quarters","latlong":{"lng":77.6142558,"lat":12.9971503},"detail":"Frazer TownBangalore- 560005","city":"Bangalore"}]},{"name":"Perfume2order","addresses":[{"headline":"Gurgaon","latlong":{"lng":77.0196721,"lat":28.4329352},"detail":"D-34, Sector-33, Infocity,Gurgaon, Haryana 122001 India","city":"D-34, Sector-33, Infocity,Gurgaon, Haryana 122001 India"}]},{"name":"123Crackers","addresses":[{"headline":"Headquaters","latlong":{"lng":80.249583,"lat":13.060422},"detail":"","city":"Chennai"}]},{"name":"BollyRetails","addresses":[{"headline":"Registered Office","latlong":{"lng":73.8567437,"lat":18.5204303},"detail":"201/A, Kumar Saket,Vitthal Mandir Road,Karvenagar,Pune 411052Maharashtra, India","city":"Pune"}]},{"name":"ViralMint","addresses":[{"headline":"Engineering","latlong":{"lng":73.7683784,"lat":18.6517098},"detail":"Plot No. 75, Sect No. 27 (J), Opp. LIC Training Centre, Pradhikaran, Nigdi, Pune 411044","city":"Pune"},{"headline":"Sales Office","latlong":{"lng":72.8776559,"lat":19.0759837},"detail":"3, Turf Estate, Shakti Mills Lane, Off. Dr. E Moses Road,Mahalaxmi, Mumbai 400 011","city":"Mumbai"}]},{"name":"Premara India","addresses":[{"headline":"Mumbai","latlong":{"lng":72.8776559,"lat":19.0759837},"detail":"52 Evergreen Industrial EstateShakti Mill Lane Mahalaxmi (W)Mumbai, Maharashtra","city":"52 Evergreen Industrial EstateShakti Mill Lane Mahalaxmi (W)Mumbai, Maharashtra"}]},{"name":"The Library","addresses":[{"headline":"Delhi","latlong":{},"detail":"C-699, IInd Floor, Sector 7, Ramphal Chowk, Palam Extension, DwarkaDelhi. India","city":"C-699, IInd Floor, Sector 7, Ramphal Chowk, Palam Extension, DwarkaDelhi. India"}]},{"name":"Bedbathmore","addresses":[{"headline":"Mumbai","latlong":{"lng":72.8264378,"lat":18.9954398},"detail":"212, Second Floor,Cama Industrial Estate,Sun Mill Compound,Lower Parel,Mumbai- 400013","city":"212, Second Floor,Cama Industrial Estate,Sun Mill Compound,Lower Parel,Mumbai- 400013"}]},{"name":"Adhut","addresses":[{"headline":"Development office","latlong":{"lng":80.148032,"lat":12.9459389},"detail":"ChrompetChennai","city":"Chennai"}]},{"name":"Innomart","addresses":[{"headline":"Registered Office","latlong":{"lng":77.2428706,"lat":28.6399089},"detail":"4405/5 Basement, Ansari Road, DaryaganjNew Delhi-110002","city":"New Delhi"}]},{"name":"Indulekhabiz","addresses":[{"headline":"Kottayam","latlong":{"lng":76.5288966,"lat":9.598720499999999},"detail":"Indulekha Media Network, Palathinkal Estate, Vellappally Lane, Kottayam, Kerala,","city":"Indulekha Media Network, Palathinkal Estate, Vellappally Lane, Kottayam, Kerala,"}]},{"name":"Littlehood","addresses":[{"headline":"Bangalore","latlong":{},"detail":"496, CJV Das Road,Padmanabh Nagar,Bangalore - 70","city":"496, CJV Das Road,Padmanabh Nagar,Bangalore - 70"}]},{"name":"Live Your Sport","addresses":[]},{"name":"Monsooncraft","addresses":[{"headline":"Jodhpur","latlong":{"lng":73.02430939999999,"lat":26.2389469},"detail":"1 to 4 Shiv Shakti Vihar, Basni Chouhana., Near Jhalamand Circle, Pali Road, Jodhpur, Rajasthan","city":"1 to 4 Shiv Shakti Vihar, Basni Chouhana., Near Jhalamand Circle, Pali Road, Jodhpur, Rajasthan"}]},{"name":"Viaterra","addresses":[{"headline":"Secunderabad","latlong":{},"detail":"83, 6th Cross, Saipuri Colony,   Sainikpuri, Landmark: Saibaba Temple,                          Secunderabad - 94","city":"83, 6th Cross, Saipuri Colony,   Sainikpuri, Landmark: Saibaba Temple,                          Secunderabad - 94"}]},{"name":"theGr8deal","addresses":[]},{"name":"India Supplement","addresses":[{"headline":"Delhi","latlong":{"lng":77.1736794,"lat":28.6901319},"detail":"W.P.- 482, 1st Floor Wazirpur,Ashok Vihar, Delhi 110052,","city":"W.P.- 482, 1st Floor Wazirpur,Ashok Vihar, Delhi 110052,"}]},{"name":"ebaraha","addresses":[{"headline":"Registered Office","latlong":{"lng":77.5240159,"lat":12.9590408},"detail":"# 1/A, 1st Floor, 1st Stage,3rd Phase, 80 Feet Road,Chandra Layout, Vijayanagar Bangalore-560040","city":"Bangalore"}]},{"name":"Cosmetix","addresses":[{"headline":"Bangalore","latlong":{},"detail":"iFactory Solutions Pvt. Ltd.No 1181, 3rd Floor12th B Main RoadHAL 2nd Stage, IndiranagarBangalore - 560 008","city":"iFactory Solutions Pvt. Ltd.No 1181, 3rd Floor12th B Main RoadHAL 2nd Stage, IndiranagarBangalore - 560 008"}]},{"name":"1600-Flowers","addresses":[{"headline":"Thane","latlong":{"lng":72.8823333,"lat":19.1172192},"detail":"Indira Nagar, Prem Nivas, Kanjurmarg East, MH","city":"Indira Nagar, Prem Nivas, Kanjurmarg East, MH"}]},{"name":"3SweetWords","addresses":[{"headline":"Head Quarters","latlong":{"lng":78.486671,"lat":17.385044},"detail":"","city":"Hyderabad"}]},{"name":"AtoZMarket","addresses":[{"headline":"Navi Mumbai","latlong":{"lng":73.0420036,"lat":19.0186912},"detail":"C-201, 2nd floor, Belapur International Technology Park,    Railway Station Complex,    CBD Belapur, Navi Mumbai, India-400614","city":"C-201, 2nd floor, Belapur International Technology Park,    Railway Station Complex,    CBD Belapur, Navi Mumbai, India-400614"}]},{"name":"Grabdeal","addresses":[]},{"name":"Searchadeal","addresses":[{"headline":"Chennai","latlong":{"lng":80.2530412,"lat":13.0829045},"detail":"Level2 Team Business center, 25 Flowers Road, Kilpauk, Chennai, Tamil Nadu 600084","city":"Level2 Team Business center, 25 Flowers Road, Kilpauk, Chennai, Tamil Nadu 600084"}]},{"name":"Couponoye","addresses":[]},{"name":"DigiSense","addresses":[]},{"name":"Snapittoday","addresses":[{"headline":"","detail":"","city":""}]},{"name":"Gifts Chennai","addresses":[{"headline":"Chennai","latlong":{"lng":80.23772749999999,"lat":13.04281},"detail":"25/11, Mannar streetT.Nagar, Chennai- 600017","city":"25/11, Mannar streetT.Nagar, Chennai- 600017"}]},{"name":"I Love Contact Lenses","addresses":[{"headline":"","detail":"","city":""}]},{"name":"Clean and Green Deals","addresses":[{"headline":"Pune","latlong":{"lng":73.8499928,"lat":18.5155745},"detail":"Narayan Peth, Pune, MH","city":"Narayan Peth, Pune, MH"}]},{"name":"Online Price India","addresses":[{"headline":"Jaipur","latlong":{"lng":75.78511209999999,"lat":26.9479572},"detail":"Nehru Nagar, Jaipur, Rajasthan","city":"Nehru Nagar, Jaipur, Rajasthan"}]},{"name":"Avani coupons","addresses":[]},{"name":"Mom and Me shop","addresses":[]},{"name":"Online Shoppee","addresses":[{"headline":"Saharanpur","latlong":{"lng":77.55,"lat":29.9667},"detail":"Abdul Salam Road,Qutub Sher, Saharanpur, Uttar Pradesh","city":"Abdul Salam Road,Qutub Sher, Saharanpur, Uttar Pradesh"}]},{"name":"White Lily","addresses":[{"headline":"Jaipur","latlong":{"lng":75.8158515,"lat":26.9111724},"detail":"Shri Kanchan 4, Near Maharani College,, Sawai Ram Singh Road,, Sawai Ram Singh Road, Ashok Nagar, Jaipur, Rajasthan","city":"Shri Kanchan 4, Near Maharani College,, Sawai Ram Singh Road,, Sawai Ram Singh Road, Ashok Nagar, Jaipur, Rajasthan"}]},{"name":"Social Heart","addresses":[]},{"name":"Greenytails","addresses":[{"headline":"Bangalore","latlong":{"lng":77.65157099999999,"lat":12.9148282},"detail":"1, Ground Floor, 7th Cross, 27th Main, HSR Layout, Sector - 1, Bangalore, Karnataka","city":"1, Ground Floor, 7th Cross, 27th Main, HSR Layout, Sector - 1, Bangalore, Karnataka"}]},{"name":"Game4U","addresses":[{"headline":"Mumbai","latlong":{"lng":72.8545019,"lat":19.1202321},"detail":"Milestone Games Pvt. Ltd,1st Floor, Nimbus Center,Off New Link Road, Andheri (West),MUMBAI- 400053. INDIA","city":"Milestone Games Pvt. Ltd,1st Floor, Nimbus Center,Off New Link Road, Andheri (West),MUMBAI- 400053. INDIA"}]},{"name":"CandlesKart","addresses":[{"headline":"New Delhi","latlong":{"lng":77.2508979,"lat":28.5586999},"detail":"D-44/7, East Of Kailash,                  New Delhi- 110065.","city":"D-44/7, East Of Kailash,                  New Delhi- 110065."}]},{"name":"TechClove Software Products","addresses":[]},{"name":"Shop Genx","addresses":[{"headline":"Ghaziabad","latlong":{"lng":80.20277329999999,"lat":13.036784},"detail":"733, Sector &ndash; 5,Vaishali, Ghaziabad,(U.P.) INDIA 201010","city":"733, Sector &ndash; 5,Vaishali, Ghaziabad,(U.P.) INDIA 201010"}]},{"name":"Shoppe24Online","addresses":[{"headline":"Jodhpur","latlong":{},"detail":"SanskarJodhpur (Raj.)INDIA","city":"SanskarJodhpur (Raj.)INDIA"}]},{"name":"eMall India","addresses":[{"headline":"Corporate office","latlong":{"lng":72.58,"lat":23.03},"detail":"Apples Infotech11th Floor, Suyojan Tower,Hotel President Lane,Off C G Road,Navrangpura, Ahmedabad - 380009Gujarat, India.","city":"Ahmedabad"}]},{"name":"Kgn.buildabazaar","addresses":[]},{"name":"OfficeYes","addresses":[{"headline":"Registered Office","latlong":{"lng":77.0751538,"lat":28.4706441},"detail":"E- 125, GF, Sushant Shopping Arcade, Sushant Lok- 1, Gurgaon (Haryana)- 122009","city":"Gurgaon (Haryana)"}]},{"name":"Swarswet Consumer Durables Barter","addresses":[]},{"name":"Indobloom","addresses":[{"headline":"Bangalore","latlong":{},"detail":"&quot;EMPIRE INFANTRY&quot;, 3RD FLOOR, NO.29,INFANTRY ROAD, BANGALORE","city":"&quot;EMPIRE INFANTRY&quot;, 3RD FLOOR, NO.29,INFANTRY ROAD, BANGALORE"}]},{"name":"Ebazaarmall","addresses":[{"headline":"Gurgaon","latlong":{"lng":77.0744343,"lat":28.5143177},"detail":"465, The Elements,Udyog Vihar, Phase V,Gurgaon-122016, Haryana,","city":"465, The Elements,Udyog Vihar, Phase V,Gurgaon-122016, Haryana,"}]},{"name":"The Yellow Cycle","addresses":[]},{"name":"Oxyshopping","addresses":[]},{"name":"Chennaionlinegifts","addresses":[{"headline":"Chennai","latlong":{"lng":80.249583,"lat":13.060422},"detail":"chennai","city":"chennai"}]},{"name":"Shoponline","addresses":[{"headline":"Ahmedabad","latlong":{},"detail":"201, Akshat Complex,B/H LG showroom, Opp, Crossword,Mithakhali Six Road, Navrangpura, Ahmedabad - 380 009Gujarat, India.","city":"201, Akshat Complex,B/H LG showroom, Opp, Crossword,Mithakhali Six Road, Navrangpura, Ahmedabad - 380 009Gujarat, India."}]},{"name":"Dial A Book","addresses":[{"headline":"New Delhi","latlong":{"lng":77.1132792,"lat":28.7000856},"detail":"332, Vardhaman, Grand Plaza, Sector-3, Rohini New Delhi, DL 110085, India","city":"332, Vardhaman, Grand Plaza, Sector-3, Rohini New Delhi, DL 110085, India"}]},{"name":"Flairmart","addresses":[{"headline":"Head Quarters","latlong":{"lng":75.7691262,"lat":11.2713473},"detail":"3/1231 C, ValiyathodiGandhi Road, Nadakkavu POKozhikode, Kerala - 673011","city":"Kozhikode"}]},{"name":"Redbell","addresses":[{"headline":"New Delhi","latlong":{"lng":77.29819780000001,"lat":28.5114347},"detail":"A - 24/5,Mohan Co-Operative Industrial EstateMathura Road,New Delhi - 110044","city":"A - 24/5,Mohan Co-Operative Industrial EstateMathura Road,New Delhi - 110044"}]},{"name":"Ishaana","addresses":[]},{"name":"BigSpire Software","addresses":[{"headline":"Chennai","latlong":{"lng":80.22498410000001,"lat":13.0469616},"detail":"#222/93, Rangarajapuram Main Road,Kodambakkam, Chennai - 600024.","city":"#222/93, Rangarajapuram Main Road,Kodambakkam, Chennai - 600024."}]},{"name":"Teddy Bear Gift","addresses":[{"headline":"Delhi","latlong":{"lng":77.30659519999999,"lat":28.6060349},"detail":"MIG Flat , Mayur Vihar Phase - I, Mayur Vihar, DL","city":"MIG Flat , Mayur Vihar Phase - I, Mayur Vihar, DL"}]},{"name":"ID9 Shopping World","addresses":[{"headline":"Jaipur","latlong":{"lng":75.7872879,"lat":26.9124165},"detail":"F3 Gupta Mansion , Ahimsa Circle, C-Scheme, Jaipur, Rajasthan","city":"F3 Gupta Mansion , Ahimsa Circle, C-Scheme, Jaipur, Rajasthan"}]},{"name":"Hindustan Trading Corporation","addresses":[{"headline":"Head Office","latlong":{"lng":73.1313356,"lat":19.2375565},"detail":"13/414, Manick chowk, near post office","city":"Aligarh"}]},{"name":"CyberMart","addresses":[{"headline":"Kolkata","latlong":{"lng":88.36389500000001,"lat":22.572646},"detail":"14B, Chapel Road, Ground Floor, Kolkata, West Bengal","city":"14B, Chapel Road, Ground Floor, Kolkata, West Bengal"}]},{"name":"WEBUSSOLUTIONS","addresses":[]},{"name":"Akosha","addresses":[]},{"name":"Primestore","addresses":[{"headline":"Siliguri","latlong":{"lng":88.42687409999999,"lat":26.7083818},"detail":"Siliguri, West Bengal","city":"Siliguri, West Bengal"}]},{"name":"FANdooDeals","addresses":[{"headline":"Indore","latlong":{"lng":75.8577258,"lat":22.7195687},"detail":"24-A Nidhi Villa, Chandra Nagar, Indore, Madhya Pradesh","city":"24-A Nidhi Villa, Chandra Nagar, Indore, Madhya Pradesh"}]},{"name":"OSDI TechnoLabs","addresses":[]},{"name":"Sheeltalum","addresses":[]},{"name":"partyManao.com","addresses":[]},{"name":"Ordell eVentures","addresses":[]},{"name":"Theitbazaar","addresses":[]},{"name":"Price Bhai","addresses":[]},{"name":"Stiff Collar Apparel","addresses":[{"headline":"Operations and logistics","latlong":{"lng":72.8675775,"lat":19.117839},"detail":"53/3 Street #7, MIDC Andheri Road, Mumbai 400093","city":"Mumbai"},{"headline":"Registered Office","latlong":{"lng":72.8485939,"lat":19.0794351},"detail":"1 Magnum Opus, Shanti Nagar, Vakola, Santa Cruz East, Mumbai 400055","city":"Mumbai"}]},{"name":"My Kids Arena","addresses":[{"headline":"Mumbai","latlong":{},"detail":"Office No. 3,Ground Floor,New Desai Villa Building,Opp Helen Bus Stop,Ramesh NagarNear Amboli Cafe Coffee DayAndheri(W),Mumbai.","city":"Office No. 3,Ground Floor,New Desai Villa Building,Opp Helen Bus Stop,Ramesh NagarNear Amboli Cafe Coffee DayAndheri(W),Mumbai."}]},{"name":"Kashmir Box Online","addresses":[{"headline":"Head Quarters","latlong":{"lng":74.79477969999999,"lat":34.0901243},"detail":"Kashmir Business Factory, Indo Kashmir Complex, Nawab Bazar, Srinagar, Jammu and Kashmir, India","city":"Srinagar"}]},{"name":"SplashMyTee","addresses":[]},{"name":"Living Gifts","addresses":[{"headline":"Regd. Office","latlong":{"lng":77.22496,"lat":28.635308},"detail":"Living Gifts,WZ-20, New Sahib Pura,Tilak Nagar,New Delhi - 110018Ph: (91) 92788 29867","city":"New Delhi"}]},{"name":"2Home","addresses":[{"headline":"Bangalore","latlong":{"lng":77.6387316,"lat":12.9609857},"detail":"Domlur, Bangalore, Karnataka","city":"Domlur, Bangalore, Karnataka"}]},{"name":"33 Percent","addresses":[]},{"name":"Canvera","addresses":[{"headline":"Head Office","latlong":{"lng":77.64788519999999,"lat":12.9075981},"detail":"# 531/144, 150 Feet Ring Road,Agara, HSR Layout, Bangalore - 560102 India","city":"Bangalore (Head Office)"}]},{"name":"My Deals India","addresses":[]},{"name":"3mik","addresses":[]},{"name":"Yaqsh Diamond Pvt Ltd","addresses":[{"headline":"YAQSH DIAMONDS","latlong":{"lng":76.7794179,"lat":30.7333148},"detail":"YAQSH DIAMOND PVT LTDS-29/20, DLF Phase 3Nr St. Stephans Hospital, GurgaonPin : 122002Haryana,INDIA","city":"Chandigarh"}]},{"name":"MONJAAI.COM","addresses":[]},{"name":"RIGO","addresses":[]},{"name":"Voila Commerce Services","addresses":[]},{"name":"Arnit Retail Pvt Ltd","addresses":[{"headline":"Corporate Office","latlong":{"lng":77.2146478,"lat":28.534197},"detail":"90/27A, Malviya Nagar, New Delhi - 110017","city":"New Delhi"},{"headline":"Registered Office","latlong":{"lng":77.2534469,"lat":28.5507963},"detail":"G-7, Ground Floor, 62-63, Nehru Place, New Delhi &ndash; 110019","city":"New Delhi"}]},{"name":"Bhejo LLC","addresses":[]},{"name":"Adodis Technologies Pvt. Ltd.","addresses":[]},{"name":"Gujarat Handicrafts","addresses":[{"headline":"Ahmedabad","latlong":{"lng":72.5840688,"lat":22.996253},"detail":"Plot No. 372, Dani Limbada, Ahmedabad, Gujarat","city":"Plot No. 372, Dani Limbada, Ahmedabad, Gujarat"}]},{"name":"Orange Trend","addresses":[]},{"name":"Chennai Flower Mart","addresses":[]},{"name":"Stork","addresses":[]},{"name":"Organic Shop","addresses":[{"headline":"Head Quarters","latlong":{"lng":75.7872879,"lat":26.9124165},"detail":"R-11, Yudhister Marg,C-scheme,Jaipur","city":"Jaipur"}]},{"name":"Green And Good Eco Solutions","addresses":[{"headline":"Head Quaters","latlong":{"lng":75.79092469999999,"lat":26.931266},"detail":"Plot #6, Flat No 203,204,Tirupathi Enclave, Vinay Path,Kanti Chandra Road,Bani Park,Jaipur - 302016","city":"Jaipur"}]},{"name":"Wardrobe Seven","addresses":[{"headline":"Head Quarters","latlong":{"lng":72.8776559,"lat":19.0759837},"detail":"Gala No.126, Pioneer Industrial Estate, Shubhash Road, Jogeshwari (East), Mumbai 400601","city":"Mumbai"}]},{"name":"Gennext Retail Private Limited","addresses":[{"headline":"Head Quaters","latlong":{"lng":77.3713856,"lat":28.641485},"detail":"9, Gupta Market, 83/1 Shakti Khand-1,  Indirapuram, Ghaziabad -201010","city":"Ghaziabad"}]},{"name":"Samor Enterprise","addresses":[{"headline":"Admin Office","latlong":{"lng":72.53374889999999,"lat":23.0524243},"detail":"14, Radhakunj Society,Opp. Mayur Nagar,Gurukul Road,Ahmedabad - 380052","city":"Ahmedabad"}]},{"name":"Bulbtiger","addresses":[{"headline":"Head Office","latlong":{"lng":77.070837,"lat":28.5720379},"detail":"BG539, Bagdola Village, Sector 8, Dwarka, Delhi 110077","city":"New Delhi"}]},{"name":"Online Prasad","addresses":[{"headline":"Head Quaters","latlong":{"lng":77.0266383,"lat":28.4594965},"detail":"Bldg 8C, 12th Floor(Regus)DLF Cybercity,DLF Phase 2, Gurgaon - 122002Haryana","city":"Gurgaon"}]},{"name":"DealsBooth","addresses":[]},{"name":"Toptomato","addresses":[{"headline":"Headquarters","latlong":{"lng":77.63893589999999,"lat":12.9640235},"detail":"Domlur 2nd Stage, Bangalore, Karnataka","city":"Bangalore"}]},{"name":"Zepo","addresses":[{"headline":"Mumbai","latlong":{},"detail":"C-4, 1602,Lok Everest Complex,JSD Road,Cement Compound,Mulund West,Mumbai - 400 080","city":"C-4, 1602,Lok Everest Complex,JSD Road,Cement Compound,Mulund West,Mumbai - 400 080"}]},{"name":"GiftsXpert.in","addresses":[{"headline":"Sales Office","latlong":{"lng":77.22496,"lat":28.635308},"detail":"F-177 Ist Floor Pandav Nagar","city":"New Delhi"}]},{"name":"VJ Web Marketing","addresses":[{"headline":"Hyderabad","detail":"","city":""}]},{"name":"HighFive India","addresses":[{"headline":"Head Quarters","latlong":{"lng":72.8776559,"lat":19.0759837},"detail":"HighFive India Pvt LtdDreams the Mall, G-337,L.B.S. Marg, Mumbai 400078Tel: 022 6066 0800","city":"Mumbai"}]},{"name":"eCommerceguru Ventures","addresses":[{"headline":"Head Quarters","latlong":{"lng":78.16214370000002,"lat":11.6712526},"detail":"eCommerceguru Ventures,RK Traders,#53/7, Odayappa Chettiar Colony,Salem 636007","city":"Salem"}]},{"name":"Skillsofhand","addresses":[]},{"name":"VIEZEON","addresses":[]},{"name":"Indiebazaar","addresses":[{"headline":"Headquarters","latlong":{"lng":77.0266383,"lat":28.4594965},"detail":"B36, First Floor, Ardee City, Sec 52, Gurgaon","city":"Gurgaon"}]},{"name":"MirchiMart","addresses":[{"headline":"Head office","latlong":{"lng":77.22496,"lat":28.635308},"detail":"301, 3RD FLOOR, LAXMI BHAWAN 71-72, NEHRU PLACE","city":"New delhi"}]},{"name":"apnacashback","addresses":[]},{"name":"EDiOTS","addresses":[{"headline":"Design Studio","latlong":{"lng":77.3910265,"lat":28.5355161},"detail":"Pink Elefant, Sector 93A, Expressway","city":"Noida"},{"headline":"Head Quarters","latlong":{"lng":79.0881546,"lat":21.1458004},"detail":"Behind Saraf chambers, Mount Road, Sadar 440011","city":"Nagpur"}]},{"name":"Fashionara","addresses":[{"headline":"Bangalore","latlong":{"lng":77.63723759999999,"lat":12.9608348},"detail":"#1 Domlur layoutOld Airport Service RoadBangalore - 560071","city":"#1 Domlur layoutOld Airport Service RoadBangalore - 560071"}]},{"name":"PS Lifestyle","addresses":[{"headline":"Head Quarters","latlong":{"lng":72.58,"lat":23.03},"detail":"B-301, Titanium Square, Thaltej Circel","city":"Ahmedabad"}]},{"name":"Machpower systems","addresses":[{"headline":"Head Quarters","latlong":{"lng":80.2895772,"lat":13.0926978},"detail":"124/257, Linghi StreetGeorgetown, Chennai - 600001","city":"Chennai"}]},{"name":"Gingko","addresses":[{"headline":"Corporate Office","latlong":{"lng":77.5988258,"lat":13.0001568},"detail":"#19, 5th Main, Jayamahal Extension,Bangalore - 560046Phone - 080 - 42199505","city":"Bangalore"}]},{"name":"FSY","addresses":[{"headline":"Head Quarters","latlong":{"lng":72.8013701,"lat":18.9548408},"detail":"Garage 4, Ground floor, Ajanta Building, LD Ruparel Marg, Malabar Hill, Mumbai 400006","city":"Mumbai"}]},{"name":"Unravel India","addresses":[{"headline":"Registered Office","latlong":{"lng":80.9912762,"lat":26.8784262},"detail":"C-1502, Aravali Marg, Indira Nagar, Lucknow - 226016","city":"Lucknow"}]},{"name":"fGrape","addresses":[{"headline":"HQ","latlong":{"lng":77.22496,"lat":28.635308},"detail":"","city":"New Delhi"}]},{"name":"Imperial Online Services","addresses":[{"headline":"Headquarters","latlong":{"lng":78.4991842,"lat":17.4057984},"detail":"7-1-616, Ameerpet Cross Roads, Hyderabad - 500016A.P.","city":"Hyderabad"}]},{"name":"tohfah","addresses":[{"headline":"office cum store","latlong":{"lng":86.2018717,"lat":22.8057209},"detail":"gf-10, binapani trade centre,behind hotel mansarover,sakchi, jamshedpur-831001","city":"jamshedpur"}]},{"name":"Skinsecrets","addresses":[{"headline":"Head Quarters","latlong":{"lng":72.5167519,"lat":23.0331792},"detail":"12,Vrajbhoomi Complex, Near Lotus International School, Jodhpurgam Road, Satellite,Ahmedabad","city":"Ahmedabad"}]},{"name":"Bright Lifecare","addresses":[{"headline":"Headquarters","latlong":{"lng":77.0266383,"lat":28.4594965},"detail":"Aquamarine HealthCare Pvt. Ltd.4th Floor, Parshavnath Arcadia1, MG Road(Opposite to Motorola)Sector-14Gurgaon - 122001","city":"Gurgaon"}]},{"name":"DET Labs","addresses":[{"headline":"Engineering","latlong":{"lng":78.364684,"lat":17.458218},"detail":"#204, Manju Enclave, Behind GEM Maruti Showroom, Kondapur,Hyderabad","city":"Hyderabad"}]},{"name":"GoGappa.com","addresses":[{"headline":"Corporate Office","latlong":{"lng":72.9091436,"lat":19.1153798},"detail":"354, Powai Plaza, Opp. Pizza Hut, Hiranandani Gardens, Powai, Mumbai","city":"Mumbai"}]},{"name":"Musicfellas","addresses":[{"headline":"HQ","latlong":{"lng":77.5945627,"lat":12.9715987},"detail":"","city":"Bangalore"}]},{"name":"ShipMyCard","addresses":[]},{"name":"Shopatplaces","addresses":[{"headline":"Head Quarters","latlong":{"lng":77.22496,"lat":28.635308},"detail":"","city":"New Delhi"}]},{"name":"Fabkraft","addresses":[{"headline":"Operations &amp; Warehouse","latlong":{"lng":75.777846,"lat":26.9112009},"detail":"G-23, Kartarpura Industrial Area, 22Godam Jaipur 302006 Rajasthan","city":"Jaipur"}]},{"name":"Samaan.com","addresses":[{"headline":"HQ","latlong":{"lng":75.7872879,"lat":26.9124165},"detail":"61 Sangram Colony, 2nd FloorMahaveer Marg, C-Scheme","city":"Jaipur"}]},{"name":"Desh'Se","addresses":[{"headline":"Organic products supplier","latlong":{"lng":77.3266991,"lat":28.5821195},"detail":"Benor Organics Private Limited52, 2nd Floor, Centrestage MallSector 18, Noida 201301","city":"Noida"}]},{"name":"Stationery Bazaar","addresses":[{"headline":"Registered Address","latlong":{"lng":77.4903108,"lat":28.6797123},"detail":"B-14, 1st Floor, GovindpuramHapur Road, Ghaziabad - 201001UP (India)","city":"Ghaziabad"}]},{"name":"Shopulsify.com","addresses":[]},{"name":"LimeRoad","addresses":[{"headline":"Corporate Office","latlong":{"lng":77.0809093,"lat":28.4941463},"detail":"225, Udyog Vihar, Phase - IV,Gurgaon 122015Haryana, India","city":"Gurgaon"}]},{"name":"Valueleaf","addresses":[{"headline":"Head Quarter","latlong":{"lng":77.5945627,"lat":12.9715987},"detail":"Valueleaf Services (India) Pvt. Ltd.#219, 1st Floor, Gajanana Towers,9th Cross JP Nagar 2nd PhaseBangalore &ndash; 560078Phone: 080 4359 5960","city":"Bangalore"}]},{"name":"emPhi","addresses":[{"headline":"Registered Office","latlong":{"lng":77.22496,"lat":28.635308},"detail":"","city":"New Delhi"}]},{"name":"Exotica Online","addresses":[{"headline":"Pune","detail":"","city":""}]},{"name":"Tshirts","addresses":[]},{"name":"TimberNation","addresses":[]},{"name":"Happinesssale.com","addresses":[{"headline":"Hyderabad","latlong":{},"detail":"9th Floor, Quadrant -1C,Cyber Towers, Hi-Tech City,Madhapur, Hyderabad- 500 081","city":"9th Floor, Quadrant -1C,Cyber Towers, Hi-Tech City,Madhapur, Hyderabad- 500 081"}]},{"name":"touchsy","addresses":[{"headline":"Head Quarters","latlong":{"lng":77.3910265,"lat":28.5355161},"detail":"Sellerforce India Pvt Ltd12, STEP, JSSC-20/1, Sector 62Noida (UP)India","city":"Noida"}]},{"name":"Klip","addresses":[{"headline":"Head Quarter","latlong":{"lng":72.8581738,"lat":19.1638873},"detail":"A-65, Virwani Industrial Estate, Goregoan East, off western express highway, Mumbai 400063","city":"Mumbai"}]},{"name":"Mruga","addresses":[{"headline":"Main Office","latlong":{"lng":73.1810976,"lat":22.3073095},"detail":"316, Top floor, Alien, Nizampura.Vadodara. GUJ. - 390024(INDIA)","city":"Vadodara"}]},{"name":"Nisha Singal","addresses":[{"headline":"packaging and shipping office","latlong":{"lng":77.14707829999999,"lat":28.6295404},"detail":"Inderpuri, New Delhi - 11012","city":"New Delhi"}]},{"name":"KaiseDiya.com","addresses":[]},{"name":"FoodForethought.in","addresses":[{"headline":"Bangalore","detail":"","city":""}]},{"name":"HyderabadiBiryanis.com","addresses":[{"headline":"'Head Quarters","latlong":{"lng":78.4841254,"lat":17.3988136},"detail":"1-2-30/31/409, Street No 16, Domalguda, Hyderabad - A.P.","city":"Hyderabad"}]},{"name":"Joymart","addresses":[{"headline":"Main Office","latlong":{"lng":77.5945627,"lat":12.9715987},"detail":"#599, Aishwarya Acrade, 2nd floor, 20th main, 8th cross, JP Nagar, 2nd phase","city":"Bangalore"}]},{"name":"Easyration","addresses":[{"headline":"Head Quarters","latlong":{"lng":121.03351,"lat":14.5615916},"detail":"Easyration.com66, HUDA MarketSector-21DFaridabad-121001","city":"National Capital Region"}]},{"name":"Kopy Kitab","addresses":[]},{"name":"Stylerug","addresses":[]},{"name":"FashionAndYou","addresses":[{"headline":"Corporate Office","latlong":{"lng":77.0478112,"lat":28.4895248},"detail":"Plot 7C, Sector-18, Maruti Industrial Area, Huda, Gurgaon - 122015, Haryana","city":"Gurgaon"}]},{"name":"Nirvana Arts","addresses":[{"headline":"Head Quarters","latlong":{"lng":73.83711389999999,"lat":15.3883962},"detail":"Nirvana Arts Pvt. Ltd.Top Floor, Diva Residency,Airport Road, Chicalim, Vasco,Goa- 403711","city":"Vasco, Goa"}]},{"name":"Gyeser","addresses":[{"headline":"HQ","latlong":{"lng":78.3115471,"lat":17.46372},"detail":"Aparna SarovorJ-503 LingampallyHyderabad","city":"Hyderabad"}]},{"name":"Mistyque","addresses":[{"headline":"Hyderabad","latlong":{},"detail":"Beta 204Jayabheri Silicon CountyHyderabad - 500084India","city":"Beta 204Jayabheri Silicon CountyHyderabad - 500084India"}]},{"name":"redBus","addresses":[{"headline":"Bangalore","latlong":{"lng":77.6400098,"lat":12.958777},"detail":"redBus, Domlur I Stage, Domlur, Bangalore, Karnataka","city":"redBus, Domlur I Stage, Domlur, Bangalore, Karnataka"}]},{"name":"Foodtang","addresses":[]},{"name":"MAC Technology Services Pvt Ltd","addresses":[]},{"name":"EMart Solutions India Pvt Ltd","addresses":[{"headline":"","detail":"","city":""}]},{"name":"Verterra Ventures","addresses":[{"headline":"Head Quaters","latlong":{"lng":73.8567437,"lat":18.5204303},"detail":"","city":"Pune"}]},{"name":"CloudNix","addresses":[]},{"name":"Bluegape Lifestyle Pvt Ltd","addresses":[]},{"name":"Sonarisa Technologies","addresses":[{"headline":"Development Centre","latlong":{"lng":77.58632899999999,"lat":12.9274422},"detail":"#6, 2nd floor, 11th main,4th block, Jayanagar","city":"Bangalore"}]},{"name":"Indiaemporium","addresses":[]},{"name":"East Village Trading","addresses":[{"headline":"Head Quarters","latlong":{"lng":80.26763009999999,"lat":12.99428},"detail":"No 2 Vardachari streetBesant NagarChennai 600090","city":"CHENNAI"}]},{"name":"Quikr","addresses":[{"headline":"Mumbai","latlong":{},"detail":"Quikr India Pvt Ltd.1st Floor, Raghuvanshi Mansion,Senapati Bapat Marg, Lower Parel,Mumbai - 400 013","city":"Quikr India Pvt Ltd.1st Floor, Raghuvanshi Mansion,Senapati Bapat Marg, Lower Parel,Mumbai - 400 013"}]},{"name":"Stackkart","addresses":[]},{"name":"Rock.in","addresses":[]},{"name":"KeenBean Retail","addresses":[]},{"name":"Redon Ventures","addresses":[{"headline":"Head Office","latlong":{"lng":72.8316078,"lat":19.2164821},"detail":"506 kesar Plaza RDP 6, Sector 3,Charkop, Kandivali west,Mumbai - 400067","city":"Mumbai"}]},{"name":"Spire Online Services","addresses":[{"headline":"Head Quarters","latlong":{"lng":77.3910265,"lat":28.5355161},"detail":"","city":"Noida"}]},{"name":"Vihaan Naturalhealthcare Pvt.Ltd","addresses":[]},{"name":"AskForPets.com","addresses":[{"headline":"Head Office","latlong":{"lng":77.22496,"lat":28.635308},"detail":"A-15, Basement, Shanker Lane,Masoodpur, Vasant Kunj,New Delhi 110070INDIA","city":"New Delhi"}]},{"name":"Cotton County","addresses":[{"headline":"Regd. &amp; Admin Office","latlong":{"lng":75.9269834,"lat":30.8821712},"detail":"Focal Point, Ludhiana - 141010","city":"Ludhiana"}]},{"name":"Discountbaba Fashion Retail Pvt. Ltd","addresses":[]},{"name":"Exit10","addresses":[{"headline":"Headquarters","latlong":{"lng":77.22496,"lat":28.635308},"detail":"B37-A (basement), Behind Nike Showroom, Kalkaji, New Delhi, India 110 019","city":"New Delhi"},{"headline":"Office","latlong":{"lng":77.22496,"lat":28.635308},"detail":"","city":"Delhi"}]},{"name":"S V Inc","addresses":[{"headline":"Head Quarters","latlong":{"lng":77.571972,"lat":12.9675161},"detail":"#7/1 2nd floor 20th cross Hundi Hanumanthappa Lane Killari Road Bangalore-560053","city":"bangalore"}]},{"name":"Technogics","addresses":[]},{"name":"Urban Brat","addresses":[{"headline":"Headquaters","latlong":{"lng":72.8776559,"lat":19.0759837},"detail":"UrbanBratFlat 1101, C Wing, Satguru Phase 2, Gen A K Vaidya Marg, Goregaon East, Mumbai - 63","city":"Mumbai"}]},{"name":"Teesort","addresses":[]},{"name":"Tee20","addresses":[]},{"name":"Doloarts","addresses":[{"headline":"IT Consulting &amp; Solutions","latlong":{"lng":79.4310052,"lat":13.6244611},"detail":"Flat No.501,Sri Vignesh Towers,5th floor,Bye-pass Road,Near Leela Mahal Junction,Tirupati-517501","city":"Tirupati"}]},{"name":"exprez","addresses":[]},{"name":"Panacea Web Technologies","addresses":[]},{"name":"GoToMyPrice.com","addresses":[]},{"name":"Footsy","addresses":[{"headline":"Bangalore","latlong":{},"detail":"407, First Floor4th Main, West WingAmarjyothi LayoutIntermediate Ring RoadBangalore 560071, India.","city":"407, First Floor4th Main, West WingAmarjyothi LayoutIntermediate Ring RoadBangalore 560071, India."}]},{"name":"eklipse retail","addresses":[]},{"name":"The Pipal","addresses":[{"headline":"Head Office","latlong":{"lng":76.7794179,"lat":30.7333148},"detail":"SCO 847, 2nd Floor,NAC Manimajra","city":"Chandigarh"}]},{"name":"Farm2Kitchen.com","addresses":[{"headline":"Corporate Office","latlong":{"lng":77.3910265,"lat":28.5355161},"detail":"Farm2KitchenE-10, Sector 72NOIDA 201307","city":"NOIDA"}]},{"name":"Powox","addresses":[]},{"name":"Boxdzzle Sampling Co.","addresses":[{"headline":"Delhi Main Office.","latlong":{"lng":77.1880559,"lat":28.5682326},"detail":"B-38 Bhikaji Cama Place,New Delhi-110066","city":"Delhi"}]},{"name":"PriceBaba","addresses":[{"headline":"HQ","latlong":{"lng":72.8776559,"lat":19.0759837},"detail":"","city":"Mumbai"}]},{"name":"Site4Shopping","addresses":[{"headline":"Delhi","latlong":{},"detail":"416, ABC ComplexVS Block, shakarpurDelhi,","city":"416, ABC ComplexVS Block, shakarpurDelhi,"}]},{"name":"carmocrat","addresses":[{"headline":"Head Quarters","latlong":{"lng":77.22496,"lat":28.635308},"detail":"","city":"New Delhi"}]},{"name":"www.Laptopwale.com","addresses":[{"headline":"Bangalore","latlong":{"lng":77.5447454,"lat":12.90266},"detail":"Excelan Internet Private Limited#104/C, JHBCS Layout,Gubalala,Kanakpura Road, Bangalore-560061","city":"Excelan Internet Private Limited#104/C, JHBCS Layout,Gubalala,Kanakpura Road, Bangalore-560061"}]},{"name":"mysportcart","addresses":[{"headline":"Registered Office","latlong":{"lng":77.22496,"lat":28.635308},"detail":"","city":"Delhi"}]},{"name":"PosterGully","addresses":[{"headline":"The Den","latlong":{"lng":77.0938583,"lat":28.6201234},"detail":"A-1/224 Janak Puri3rd FloorNew Delhi110058","city":"New Delhi"}]},{"name":"bazara2z","addresses":[]},{"name":"TAINO SHOPPING TRIBE PVT LTD","addresses":[{"headline":"Headquaters","latlong":{"lng":77.45375779999999,"lat":28.6691565},"detail":"TAINO SHOPPING TRIBE PVT LTDIIC-215 Nehru NagarGhaziabadUttar Pradesh- 20100","city":"Ghaziabad"}]},{"name":"Reviews42","addresses":[{"headline":"Head Office","latlong":{"lng":77.3811606,"lat":28.6209871},"detail":"A-83, Sector 63, Noida","city":"Noida"},{"headline":"Main office","latlong":{"lng":77.2805212,"lat":28.5428093},"detail":"S1, Green Park Extension,Uphaar Cinema Complex,New Delhi - 110020","city":"New Delhi"}]},{"name":"Camplace","addresses":[{"headline":"Admin Office","latlong":{"lng":73.80459429999999,"lat":18.5053112},"detail":"Camplace Private Limited 4, Matrusmruti, Madhav Bag, Shivtirthnagar, Paud Road, Kothrud, Pune - 411038 Maharashtra, INDIA","city":"Pune"}]},{"name":"exelmart.com","addresses":[]},{"name":"Giftxoxo","addresses":[{"headline":"Head Office","latlong":{"lng":77.5945627,"lat":12.9715987},"detail":"# 1308, 4th Floor, Shetty Plaza, (Above Bata showroom)  HAL - 3rd stage, Jeevan Bhima nagar main Road,Bangalore - 560008Phone: 080) 4334 0448","city":"Bangalore"}]},{"name":"NaturalMantra","addresses":[{"headline":"Startup Garage","latlong":{"lng":72.8776559,"lat":19.0759837},"detail":"Bldg No 1, 401-B, Green Hills CHSOpp. Lokhandwala Foundation SchoolLokhandwala TownshipKandivali EastMumbai 400101","city":"Mumbai"}]},{"name":"TECHiStyle","addresses":[{"headline":"Head Quarter","latlong":{"lng":73.8567437,"lat":18.5204303},"detail":"","city":"Pune"}]},{"name":"Peopic Retail","addresses":[{"headline":"New Delhi","latlong":{},"detail":"Peopic Retail Private LimitedE-16 Paryavaran complex,IGNOU Road,New Delhi - 30","city":"Peopic Retail Private LimitedE-16 Paryavaran complex,IGNOU Road,New Delhi - 30"}]},{"name":"Mirraw","addresses":[{"headline":"Corporate Office","latlong":{"lng":72.83677759999999,"lat":18.9346619},"detail":"Fort, Mumbai","city":"Mumbai"}]},{"name":"BizBol","addresses":[{"headline":"Head Quarters","latlong":{"lng":77.5945627,"lat":12.9715987},"detail":"","city":"Bangalore"}]},{"name":"Myntra","addresses":[{"headline":"Corporate Office &amp; Headquarters","latlong":{"lng":77.648119,"lat":12.8899132},"detail":"3rd Floor, AKR Tech Park7th Mile, Krishna Reddy Industrial Area, Kudlu Gate,Bangalore - 560068","city":"Bangalore"}]},{"name":"Niittu.com","addresses":[{"headline":"Head Quarter","latlong":{"lng":77.412615,"lat":23.2599333},"detail":"","city":"Bhopal"}]},{"name":"Hoopos","addresses":[]},{"name":"Induna","addresses":[]},{"name":"Collectabillia","addresses":[]},{"name":"Adspace","addresses":[{"headline":"Head office","latlong":{"lng":79.8758333,"lat":6.8397222},"detail":"mount lavinia,colombo,Srilanka.","city":"Mount lavinia"}]},{"name":"BabyOye","addresses":[]},{"name":"PreCared","addresses":[{"headline":"Office/Warehouse","latlong":{"lng":72.8776559,"lat":19.0759837},"detail":"","city":"Mumbai"}]},{"name":"Gizmeup.com","addresses":[{"headline":"Head Quarters","latlong":{"lng":77.1515453,"lat":28.5273352},"detail":"C-6,Vasant Kunj,New Delhi - 110070","city":"New Delhi"}]},{"name":"Style My Way","addresses":[{"headline":"Operations","latlong":{"lng":77.1497997,"lat":28.5257799},"detail":"111/9, Kishangarh,Vasant KunjNew Delhi -110070","city":"New Delhi"}]},{"name":"Shopick","addresses":[{"headline":"Head Quarters","latlong":{"lng":77.2922332,"lat":28.6820964},"detail":"Shahdara , Delhi-110032","city":"New Delhi"}]},{"name":"Ranksheet","addresses":[]},{"name":"Smartas","addresses":[]},{"name":"FortunePay","addresses":[{"headline":"Corporate Office","latlong":{"lng":77.6029476,"lat":12.97469},"detail":"101-B Museum Terraces29, Museum RoadBangalore 560 001","city":"Bangalore"}]},{"name":"BigCurious","addresses":[{"headline":"Head Quarters","latlong":{"lng":77.83015999999999,"lat":12.733027},"detail":"Villa No.32, Springdale, Rayakottai Road, Onnalvadi PO, Hosur, Tamil NaduPin - 635109","city":"Hosur"}]},{"name":"mmyself","addresses":[]},{"name":"CouponRani","addresses":[]},{"name":"PrivyPleasures.com","addresses":[]},{"name":"fullbasket","addresses":[{"headline":"Head office","latlong":{"lng":78.486671,"lat":17.385044},"detail":"fullbasketMouli Ali,Hyderabad","city":"Hyderabad"}]},{"name":"MinRP.com","addresses":[]},{"name":"Get Jewelified","addresses":[]},{"name":"Zansaar","addresses":[]},{"name":"Freemania","addresses":[]},{"name":"Eemli.com","addresses":[]},{"name":"Vialokal","addresses":[]},{"name":"BigThela.com","addresses":[{"headline":"Ghaziabad","latlong":{"lng":77.4343394,"lat":28.6740045},"detail":"Lohia Nagar, Ghaziabad, Uttar Pradesh","city":"Lohia Nagar, Ghaziabad, Uttar Pradesh"}]},{"name":"99blooms","addresses":[]},{"name":"India Florist Direct","addresses":[]},{"name":"Sunglasses India","addresses":[]},{"name":"Bluestone","addresses":[]},{"name":"ZAPstore.com","addresses":[{"headline":"Head Quarters","latlong":{"lng":80.249583,"lat":13.060422},"detail":"#54A, GST Road, Guindy, Chennai - 600032","city":"Chennai"}]},{"name":"Nannool","addresses":[]},{"name":"Fashion-Carnival","addresses":[]},{"name":"Anyrequirement.com","addresses":[{"headline":"Head Quarter","latlong":{"lng":78.4248369,"lat":17.4246389},"detail":"#8-2-120/76, Plot No 89, Road no. 2, Banjara Hills, Hyderabad - 500034","city":"Hyderabad, AP"}]},{"name":"G S Tech India","addresses":[{"headline":"Head Quarters","latlong":{"lng":72.81944399999999,"lat":21.195},"detail":"Strollay.comG S Tech India Private Limited504, Metro Tower,Ring Road, Surat-395002.Gujarat, India.","city":"Surat"}]},{"name":"Maritimedeal.com","addresses":[{"headline":"Head Office","latlong":{"lng":72.8776559,"lat":19.0759837},"detail":"OMSPL, 402, B- Wing, Trade Square Bldg,Mehra Industrial Compound,Opp. Saki Naka Telephone Exchange,Andheri-Kuirla Road, Saki Naka,Mumbai- 400 072, India","city":"Mumbai"}]},{"name":"Saisanj Retail Pvt. Ltd.","addresses":[{"headline":"Head Office","latlong":{"lng":78.41266,"lat":17.4295317},"detail":"Redlily.comSaisanj Retail Pvt. Ltd.B-27, Road Number 7, Filmnagar,Jubilee Hills, Hyderabad - 500033,Andhra Pradesh, India","city":"Hyderabad"}]},{"name":"Vegetablesonwheels","addresses":[{"headline":"Office and Process house","latlong":{"lng":73.2057561,"lat":22.2879614},"detail":"Shop 3, Nanda Deep, Opp. Dena Bank, R V Desai Road, Vadodara - 390001, Gujarat, INDIA","city":"Vadodara"},{"headline":"Main Office","latlong":{"lng":73.1810976,"lat":22.3073095},"detail":"","city":"Vadodara"}]},{"name":"Carstudio Online Services","addresses":[{"headline":"Head Quarters","latlong":{"lng":77.5945627,"lat":12.9715987},"detail":"Carstudio Online Services Pvt. Ltd.No. 70, 3rd Floor, Tuscan Centre,Beside Monarch Luxur Hotel, Infantry RoadBangalore -&nbsp;560001Toll Free: 1800-425-1357","city":"Bangalore"}]},{"name":"Landmark IT Solutions","addresses":[{"headline":"Head Quarters","latlong":{"lng":78.3910691,"lat":17.4411482},"detail":"India:908 Meher Mansion,Ayyappa Society, Madhapur,Hyderabad &ndash; 500080Phone: +91.8790.800.800","city":"Hyderabad"}]},{"name":"Sher Singh","addresses":[]},{"name":"East Village Trading","addresses":[]},{"name":"Thakker Technologies","addresses":[{"headline":"Head Quarter","latlong":{"lng":72.52639839999999,"lat":23.0170901},"detail":"307/B, PRIMATE,Opp. Mother Milk Palace,Judges Bunglow Cross road,Bodakdev, Ahmedabad - 380015","city":"Ahmedabad"}]},{"name":"iShopper.com","addresses":[]},{"name":"Angarkh","addresses":[{"headline":"Head office","latlong":{"lng":72.58,"lat":23.03},"detail":"","city":"Ahmedabad"}]},{"name":"Aporv","addresses":[{"headline":"Head Quarters","latlong":{"lng":77.5945627,"lat":12.9715987},"detail":"1st Floor, Pine Valley, StylusEmbassy Golf LinksOff Intermediate Ring RoadBangalore 560071","city":"Bangalore"}]},{"name":"gallus electronics","addresses":[]},{"name":"sahycart","addresses":[]},{"name":"Net Avenue Technologies","addresses":[{"headline":"Head Quarters","latlong":{"lng":80.249583,"lat":13.060422},"detail":"Net Avenue Technologies (P) Ltd18, Race Course RoadGuindy, Chennai 600 032","city":"Chennai"}]},{"name":"Cilory","addresses":[{"headline":"Corporate Office","latlong":{"lng":77.04061469999999,"lat":28.4472372},"detail":"Plot # 47, Sector-32Gurgaon","city":"Gurgaon"}]},{"name":"cent 2 carat jewellers internaional pvt ltd","addresses":[]},{"name":"Clear Car Rental Pvt Ltd","addresses":[{"headline":"'Head Quarters","latlong":{"lng":75.3433139,"lat":19.8761653},"detail":"&quot;Bhaskarayan&rdquo; Plot No. E 1-7, Near SBH Zonal Office,CIDCO Town Center, Aurangabad-431001","city":"Aurangabad"}]},{"name":"Giftbig.com","addresses":[{"headline":"Head Office","latlong":{"lng":77.6321339,"lat":12.9365045},"detail":"QwikCilver Solutions Private Limited,# 104,1st Main,Vijay Jatti Building3rd Floor , 5th Block Koramangala Industrial Estate BANGALORE - 560095","city":"Bangalore"}]},{"name":"Grocerywala","addresses":[]},{"name":"Furniture Street","addresses":[{"headline":"Registered Address","latlong":{"lng":77.65074890000001,"lat":12.9105591},"detail":"Elitu Retail Pvt. Ltd., No. 446, 17th Cross, 4th Sector, HSR Layoyt, Bangalore - 560102","city":"Bangalore"}]},{"name":"Goodbells.com","addresses":[{"headline":"Head Quarter","latlong":{"lng":73.02430939999999,"lat":26.2389469},"detail":"","city":"Jodhpur, Rajasthan"}]},{"name":"Cazbak India","addresses":[{"headline":"HO","latlong":{"lng":73.1810976,"lat":22.3073095},"detail":"","city":"Vadodara"}]},{"name":"Kinsh Technologies","addresses":[{"headline":"Head Office","latlong":{"lng":72.55535429999999,"lat":23.0097384},"detail":"B-1, Dalal Appartments, New Vikas Gruh Road, Paldi, Ahmedabad - 380007","city":"Ahmedabad"}]},{"name":"Hourglass Project","addresses":[{"headline":"Head Quarter","latlong":{"lng":77.2146478,"lat":28.5284594},"detail":"5D Jungi HouseShahpur Jat New Delhi-110017","city":"New Delhi"}]},{"name":"Yellowleg.com","addresses":[{"headline":"Head Quarters","latlong":{"lng":77.5945627,"lat":12.9715987},"detail":"A-12/1 Vijay Kiran32 Victoria RoadBangalore 560047","city":"Bangalore"}]},{"name":"Koolkart","addresses":[{"headline":"Head Quarters","latlong":{"lng":80.2601013,"lat":13.07242},"detail":"326, Pantheon Road, Egmore, Chennai - 600008","city":"Chennai"}]},{"name":"AlCircle Pte Ltd","addresses":[]},{"name":"OyeChotu.com","addresses":[{"headline":"Administration","latlong":{"lng":72.8402601,"lat":19.1162336},"detail":"B1/26, Panchvati Soc, Juhu Lane, Andheri West, Mumbai 400058","city":"Mumbai"}]},{"name":"Shopo","addresses":[{"headline":"Head Quarters","latlong":{"lng":80.2614808,"lat":12.979926},"detail":"8/2 Subramanya Avenue Valimiki Nagar Thiruvanmiyur Chennai 600041","city":"Chennai"}]},{"name":"Trinketbag.com","addresses":[{"headline":"Head Quarters","latlong":{"lng":77.27645340000001,"lat":28.6383873},"detail":"37 Mohan Park 2nd floorWest Guru Angad NagarLaxmi NagarNew Delhi 110092","city":"New Delhi"}]},{"name":"BuMex","addresses":[{"headline":"Head Quarters","latlong":{"lng":77.1341351,"lat":28.5437141},"detail":"BuMex Tech Pvt Ltd1/4, Sarita Vihar,Pocket C, Gate 2New Delhi - 110076","city":"New Delhi"}]},{"name":"Snooper Commerce","addresses":[{"headline":"Head Quaters","latlong":{"lng":72.8776559,"lat":19.0759837},"detail":"101 Prime Plaza, S v Road,Santacruz West","city":"Mumbai"}]},{"name":"Zapota Online Services","addresses":[{"headline":"Head Quarters","latlong":{"lng":80.2564957,"lat":13.0011774},"detail":"ZAPOTA ONLINE SERVICES Pvt Ltd.#13/1, Vasantha Press Road,Opposite to Malar Hospital,Adyar,Chennai &ndash; 600 020,Tamil Nadu. India.","city":"chennai"}]},{"name":"Gem3s Software Solutions","addresses":[{"headline":"Operations Office","latlong":{"lng":80.2972441,"lat":13.1206642},"detail":"#10 , kasipuram B Block  6th Street , Royapuram , Chennai - 600013","city":"Chennai"}]},{"name":"Incigol Software Solutions","addresses":[{"headline":"HeadQuaters","latlong":{"lng":77.6679292,"lat":12.9848408},"detail":"F-202, Block-B, Vivek Paradise, 2nd Cross,Byrasandra,(Behind) Baghmani Tech Park,Bangalore 560093","city":"Bangalore"}]},{"name":"Easility","addresses":[{"headline":"Head Office","latlong":{"lng":77.3611549,"lat":28.6197948},"detail":"Sellerforce India Pvt Ltd 12, STEP, JSS C-20/1, Sector 62 Noida (UP) India","city":"Noida"}]},{"name":"Reasoning Global eApplications Pvt Ltd","addresses":[{"headline":"Branch Office","latlong":{"lng":72.8776559,"lat":19.0759837},"detail":"Office No: 106Lok Centre Corporate ParkLok Bharati ComplexMarol Maroshi Road, MarolAndheri EastMumbai 400059Contact : 022-42291081, +91-9326070201","city":"Mumbai"},{"headline":"Corporate Office","latlong":{"lng":78.486671,"lat":17.385044},"detail":"Reasoning Global eApplications Pvt. Ltd.Plot No 1244,Road No 36,Jubilee Hills,Hyderabad- 500033.Ph : 91 40 23542937, 91 40 44430000.","city":"Hyderabad"}]},{"name":"DholDhamaka.com Retail Pvt. Ltd.","addresses":[{"headline":"Registered Office","latlong":{"lng":77.1398389,"lat":28.4908585},"detail":"514, 2nd Floor, Near MCD School, Ghitorni, New Delhi - 110030","city":"New Delhi"}]},{"name":"Fame Eduserve","addresses":[{"headline":"Head Office","latlong":{"lng":77.077623,"lat":28.4809873},"detail":"SC) -18, Saraswati Vihar Market, M.G. Road, Gurgaon - 122002","city":"Gurgaon"}]},{"name":"goGrab.in","addresses":[{"headline":"Office","latlong":{"lng":80.22120919999999,"lat":12.975971},"detail":"Suite #3, 2nd Floor,P.S.K Bhooshanam Mahal,127, 100ft By Pass Road,Velachery, Chennai - 600042.","city":"Chennai"}]},{"name":"Posterlabs","addresses":[{"headline":"Head Office","latlong":{"lng":77.20122119999999,"lat":28.6442977},"detail":"#152, Cycle Market,Jhandewalan Ext. New Delhi-110055","city":"New Delhi"}]},{"name":"Stuffcool Retail","addresses":[{"headline":"HO","latlong":{"lng":72.86779419999999,"lat":19.1286862},"detail":"Stuffcool Retail Pvt Ltd.B41, Giriraj Industria Estate,Mahakali Caves Road,Opp Ahura Centre,Andheri East, Mumbai 400093","city":"Mumbai"}]},{"name":"Homex","addresses":[]},{"name":"RTINation","addresses":[{"headline":"Head Quarters","latlong":{"lng":83.3124551,"lat":17.7145402},"detail":"12 RC, JK Towers, Nowroji Road, Visakhapatnam","city":"Visakhapatnam"}]},{"name":"BooksTerminal","addresses":[{"headline":"Retail Outlet / Warehouse","latlong":{"lng":73.8610191,"lat":18.5114952},"detail":"PustakDhara, 39/1, Budhwar Peth, Rajasthan Beauty Parlour Lane, Appa Balwant Chowk, Pune 411002. Maharashtra, India.","city":"Pune"},{"headline":"Retail Outlet","latlong":{"lng":73.80073399999999,"lat":18.6574421},"detail":"BooksTerminal, BigBazaar, Premier Plaza, Chinchwad, Pune 411019. Maharashtra, India.","city":"Chinchwad"},{"headline":"Head Office","latlong":{"lng":73.8567437,"lat":18.5204303},"detail":"BooksTerminal, Sanwad Group, Shop 4, Prasanna Paradise, Sector 1, Near Vaishno Mata Temple, Indrayani Nagar, Bhosari Pradhikaran, Pune 411039. Maharashtra, India.","city":"Pune"}]},{"name":"Middaysale","addresses":[{"headline":"Corporate Office","latlong":{"lng":73.92769299999999,"lat":18.50336},"detail":"Magarpatta","city":"Pune"}]},{"name":"NextgenMedia","addresses":[{"headline":"HeadQuarter","latlong":{"lng":72.8776559,"lat":19.0759837},"detail":"Unit 205, Second Floor, Madhu Industrial EstateMogra Lane, Off Old Nagardas RoadAndheri- EastMumbai- 400069","city":"Mumbai"}]},{"name":"Brandzter","addresses":[{"headline":"HeadQuarter","latlong":{"lng":81.31243409999999,"lat":21.2096036},"detail":"CHPL DreamHome Apartments, Apollo Hospital Road, Junwani-Bhilai, Durg Dist Chhattisgarh - 490020","city":"Bhilai"}]},{"name":"Empire Mart","addresses":[{"headline":"Head Office","latlong":{"lng":77.22496,"lat":28.635308},"detail":"Shop No. G-3, Vishal Bhavan, No. 95  Nehru Place, New Delhi, Delhi 110019011 26427231","city":"New Delhi"}]},{"name":"Kitchen18","addresses":[{"headline":"Head Quarters","latlong":{"lng":77.5848338,"lat":12.9236196},"detail":"#297, 10th Main,Jayanagar 3rd BlockBANGALORE - 560 011","city":"Bangalore"}]},{"name":"DARJEELINGTEAXPRESS","addresses":[{"headline":"Operations Office","latlong":{"lng":88.4318959,"lat":26.7318093},"detail":"120 Sevoke RoadSiliguri 734401West BengalIndia","city":"Siliguri (West Bengal)"}]},{"name":"PoshVine","addresses":[]},{"name":"Strand of Silk","addresses":[{"headline":"Head Office","latlong":{"lng":-0.1198244,"lat":51.51121389999999},"detail":"","city":"London"}]},{"name":"SpotMyGadget","addresses":[{"headline":"Engineering-Strategy-Marketing-Everything","latlong":{"lng":72.830829,"lat":19.055229},"detail":"302 Deja Vu,77 Hill Road,Opp. Holy Family Hospital,Bandra West,Mumbai - 400050","city":"Mumbai"}]},{"name":"DeliveryChef.in","addresses":[{"headline":"Head Office","latlong":{"lng":72.8776559,"lat":19.0759837},"detail":"","city":"Mumbai"}]},{"name":"wearloop","addresses":[{"headline":"Registered Office","latlong":{"lng":77.6407258,"lat":12.9030203},"detail":"Wearloop, No:1174, 1st Floor, 17th Cross Road,Sector-7, H.S.R Layout, Bangalore - 560102","city":"Bangalore"}]},{"name":"Mitera Agrotech Pvt. Ltd","addresses":[{"headline":"Main Warehouse","latlong":{"lng":77.5945627,"lat":12.9715987},"detail":"#8, Shrinishi Complex, Kundalahalli, Near Brookefields","city":"Bangalore"}]},{"name":"Brainbees Technologies","addresses":[]},{"name":"Bushirt","addresses":[{"headline":"Head Quarters","latlong":{"lng":76.76683129999999,"lat":30.6810378},"detail":"#3808, Sector - 32 A, Chandigarh Road, Ludhiana","city":"Ludhiana"}]},{"name":"Cuddlepoint","addresses":[{"headline":"HeadQuarter","latlong":{"lng":81.3780632,"lat":21.2088774},"detail":"CHPL DreamHome Apartments, Apollo Hospital Road, Junwani - Bhilai, Durg Dist 490020 Chhattisgarh","city":"Bhilai"}]},{"name":"LiveExperts","addresses":[{"headline":"HeadQuarter","latlong":{"lng":81.3780632,"lat":21.2088774},"detail":"CHPL DreamHome Apartment, Apollo Hospital Road, Junwani-Bhilai, Durg Dist CG 490020","city":"Bhilai"}]},{"name":"Naaptol","addresses":[]},{"name":"Styleshore Emarketing","addresses":[{"headline":"Delhi","detail":"","city":""}]},{"name":"21diamonds","addresses":[{"headline":"Head Quarters India","latlong":{"lng":77.08339740000001,"lat":28.5061397},"detail":"521, Udyog Vihar Phase - 3","city":"Gurgaon"}]},{"name":"HiFives","addresses":[]},{"name":"Fedobe Solutions Pvt Ltd","addresses":[{"headline":"Head Quarters","latlong":{"lng":85.8245398,"lat":20.2960587},"detail":"117 Surya Nagar.Bhubaneswar, Orissa, IndiaPin - 751003","city":"Bhubaneswar"}]},{"name":"Rcart99","addresses":[]},{"name":"Adorns","addresses":[]},{"name":"Lifelyk","addresses":[]},{"name":"GiftCardsIndia.in","addresses":[]},{"name":"Book Adda","addresses":[]},{"name":"Shopveg","addresses":[]},{"name":"Sravanthi Associates","addresses":[]},{"name":"data-entry-india","addresses":[{"headline":"Head Office","latlong":{"lng":71.1923805,"lat":22.258652},"detail":"Hi-Tech House,B/H V-Murti Complex,Near Gurukul Tower,Gurukul,Ahmedabad-380 052,Gujarat, India","city":"Ahmedabad"}]},{"name":"99 labels","addresses":[]},{"name":"Red OnIon","addresses":[]},{"name":"SnapDeal","addresses":[]},{"name":"JusBill","addresses":[]},{"name":"eShakti","addresses":[]},{"name":"Mob eCommerce","addresses":[]},{"name":"Akshitha Solutions","addresses":[]},{"name":"TheFind","addresses":[]},{"name":"Deliv","addresses":[]},{"name":"Tinkerboxx Innovations","addresses":[{"headline":"Head Quarters","latlong":{"lng":76.26730409999999,"lat":9.9312328},"detail":"Startup VillageKinfra High Tech ParkKalamassery, KochiKerala, India","city":"Kochi"}]},{"name":"Kaboodle","addresses":[]},{"name":"Curious.com","addresses":[]},{"name":"DK Travels","addresses":[]},{"name":"oDesk","addresses":[]},{"name":"StylishYarn","addresses":[]},{"name":"Tiny Prints","addresses":[]},{"name":"WebKul","addresses":[{"headline":"Development Center","latlong":{"lng":77.3266991,"lat":28.5821195},"detail":"WebKul Software Private LimitedB 56 Sector 64 , Noida-201301 (U.P.)India","city":"Noida"}]},{"name":"My Cad Design","addresses":[{"headline":"Head Quarters","latlong":{"lng":72.8574558,"lat":19.261367},"detail":"My Cad Design Private LimitedB-209, Diamoda, SV Road, Dahisar East.Mumbai - 400068 - Maharastra - India.","city":"Mumbai"}]},{"name":"Elance","addresses":[]},{"name":"autogully","addresses":[]},{"name":"Altos Research","addresses":[]},{"name":"Vantiv","addresses":[]},{"name":"Matwali | stylish outfits!!!","addresses":[]},{"name":"Plastic Jungle","addresses":[]},{"name":"beganto Incorporation","addresses":[]},{"name":"Excel Technologies","addresses":[{"headline":"Head Office","latlong":{"lng":77.08788170000001,"lat":28.4912996},"detail":"N-6/7, Dlf Phase 2, Gurgaon-122002","city":"Haryana"}]},{"name":"Willow TV","addresses":[]},{"name":"Megasite e-Biz","addresses":[]},{"name":"Crunchy Fashion Private Limited","addresses":[]},{"name":"Tripobox","addresses":[{"headline":"HQ","latlong":{"lng":-122.0130457,"lat":37.3834395},"detail":"440 N. Wolfe Rd.Sunnyvale, CA, 94085","city":"Sunnyvale, CA"}]},{"name":"PriceGenie.in","addresses":[{"headline":"Head Quarters","latlong":{"lng":77.328135,"lat":28.5951643},"detail":"C84A Second Floor Sector 8 Noida","city":"Noida"}]},{"name":"Bazaarify","addresses":[]},{"name":"Coupon Baba","addresses":[]},{"name":"ArtSquare","addresses":[]},{"name":"natbooks","addresses":[]},{"name":"Virgin Mango","addresses":[]},{"name":"Crafusion","addresses":[]},{"name":"ADTELLIGENCE","addresses":[]},{"name":"ShopSocially","addresses":[]},{"name":"Cerillion Technologies","addresses":[]},{"name":"India Orders","addresses":[{"headline":"Head Quarters","latlong":{"lng":72.90797599999999,"lat":19.07907},"detail":"106-107, B-wing, Kanara Business Center, Ghatkopar East","city":"Mumbai"}]},{"name":"ikit.me","addresses":[{"headline":"Head Office","latlong":{"lng":77.21301,"lat":28.51918},"detail":"IKITME4th Floor Rectangle No.1,Behind Marriot Hotel Saket,Commercial Complex D4, Saket,New Delhi, INDIA 110017","city":"New Delhi"}]},{"name":"UsTrendy","addresses":[]},{"name":"Variation Fashion Accessories","addresses":[{"headline":"Head Quarters","latlong":{"lng":72.86379,"lat":19.49306},"detail":"Variation Fashion Accessories.B-209, Diamoda,Novety Silk Mill Compound,Near Dahisar Petrol Pump.SV Road, Dahisar East,Mumbai-400068Maharastra- India.","city":"Mumbai"},{"headline":"Head Quarters","latlong":{"lng":72.86379,"lat":19.49306},"detail":"Variation Fashion AccessoriesB-209, Diamoda,Novelty Silk Mill Comound,Near Dahisar Petrol Pump,SV Road,Dahisar East.Mumbai.","city":"Mumbai"}]},{"name":"veda","addresses":[]},{"name":"Photobucket, Inc.","addresses":[]},{"name":"ShopLogic","addresses":[]},{"name":"KlickBag","addresses":[]},{"name":"Postini","addresses":[]},{"name":"Friend Trusted","addresses":[]}],"number":615,"addresses":452}
