{"companies":[{"name":"Frosher","addresses":[{"headline":"Registered Office","latlong":{"lng":80.249583,"lat":13.060422},"detail":"","city":"Chennai"}]},{"name":"MadRat Games Pvt. Ltd.","addresses":[{"headline":"MadRat Games","latlong":{"lng":77.6163803,"lat":12.9993248},"detail":"9/6 Lloyd's Ville, Lloyd Road, Cookes Town,Bangalore, India 560005","city":"Bangalore"}]},{"name":"Learning Infinite","addresses":[{"headline":"Primary office","latlong":{"lng":72.8776559,"lat":19.0759837},"detail":"212, Maker Chambers V, Nariman Point, Mumbai 21 Maharastra India","city":"Mumbai"}]},{"name":"2tion","addresses":[{"headline":"HQ","latlong":{"lng":80.249583,"lat":13.060422},"detail":"EDSERV SOFTSYSTEMS LIMITEDNew No. 50, Old No.72,Arya Gowder Road, West Mambalam,Chennai 600 033. INDIAPhone : 91 44 3988 5533","city":"Chennai"}]},{"name":"Lazy Bone Publications","addresses":[{"headline":"Registered Office","latlong":{"lng":72.9726305,"lat":19.1602277},"detail":"Mulund East, Mumbai - 400081","city":"MUMBAI"}]},{"name":"Institute of Solar Technology","addresses":[{"headline":"Educational Institute","latlong":{"lng":88.1743571,"lat":22.5392405},"detail":"Shyamsundar Child and Women Development SocietyRegistred OfficeVill. - Shyamsundar Chawk,P.O. - Sontoshpur,Dist. - HowrahPin - 711310Institute of Solar TechnologyCampus Address:Raghudevpur, NH-6, Opp. Panchla Bus Stand,Singh Building, 1st Floor,Howrah - 711322West BengalIndia","city":"Panchla, Howrah"}]},{"name":"MyKlassroom.com","addresses":[{"headline":"Head Quarters","latlong":{"lng":76.9558321,"lat":11.0168445},"detail":"30 A Thirumoorthy Layout,Thadagam Road, RS PuramCoimbatore","city":"Coimbatore"}]},{"name":"Zaya","addresses":[{"headline":"Zaya Lab Head Quarters","latlong":{"lng":72.8629943,"lat":19.0438092},"detail":"Block B/15-4, Sindhi Colony,Sion - (W), Mumbai 400077","city":"Mumbai"}]},{"name":"Mobignosis","addresses":[{"headline":"Head Quarter","latlong":{"lng":77.5945627,"lat":12.9715987},"detail":"","city":"Bangalore"}]},{"name":"Excelsior","addresses":[{"headline":"Work, Live, Play","latlong":{"lng":77.22496,"lat":28.635308},"detail":"","city":"Gurgaon, Chennai, Delhi"}]},{"name":"HCF Infosec","addresses":[{"headline":"Head Quarter","latlong":{"lng":77.3910265,"lat":28.5355161},"detail":"5th Level, SB Tower, Sec-16A, Noida ( U.P.)","city":"Noida"}]},{"name":"LEBTOP","addresses":[{"headline":"HQ","latlong":{"lng":73.0139616,"lat":19.0606202},"detail":"Sanpada, Navi Mumbai","city":"Navi Mumbai"}]},{"name":"GyanFinder","addresses":[{"headline":"Head Quarters","latlong":{"lng":78.486671,"lat":17.385044},"detail":"Gyan Web Solutions3-6-69, F-502Block-A, Venkatarama TowersOpp : Skyline TheatreBasheerbagh, Hyderabad &ndash; 500029Andhra Pradesh, India.","city":"Hyderabad"}]},{"name":"AnB Education","addresses":[{"headline":"Corporate Office","latlong":{"lng":77.1959622,"lat":28.5252445},"detail":"M-64, Lado Sarai, New Delhi","city":"New Delhi"}]},{"name":"Mentor My Way Inc.","addresses":[{"headline":"Registered Office","latlong":{"lng":77.28769410000001,"lat":28.5643211},"detail":"2/13, Jullena Commercial Complex, Okhla Road, New Delhi - 110025","city":"New Delhi"}]},{"name":"OptimizeSQL Technologies","addresses":[]},{"name":"ADD-on-GYAN Educational Services","addresses":[{"headline":"Research &amp; Development Centre","latlong":{"lng":74.78857599999999,"lat":13.3464069},"detail":"1st Floor (MUTBI), Innovation Centre, MIT Campus, Manipal - 576104 Karnataka, India","city":"Manipal"},{"headline":"Head Quarters","latlong":{"lng":77.6448703,"lat":12.9180079},"detail":"#172, 19th Main, 4th Sector,HSR Layout, Bangalore - 560102,Karnataka, India","city":"Bangalore"},{"headline":"Registered Office","latlong":{"lng":74.78857599999999,"lat":13.3464069},"detail":"1st Floor (MUTBI), Innovation Centre,MIT Campus, Manipal - 576104Karnataka, India","city":"Manipal"}]},{"name":"TotalDotNet","addresses":[]},{"name":"Rock Your Life","addresses":[{"headline":"HQ","latlong":{"lng":174.8052563,"lat":-36.8992655},"detail":"P O Box 11125EllerslieAuckland 1542New Zealand","city":"Auckland"}]},{"name":"Genext Students","addresses":[]},{"name":"TIMESCAPE","addresses":[]},{"name":"Let'sDo","addresses":[]},{"name":"QuickLearn Institute","addresses":[]},{"name":"Preschool Curriculum","addresses":[]},{"name":"VIBHOR ASRI CORPORATE TRAINERS","addresses":[{"headline":"Gurgaon","latlong":{"lng":77.0967357,"lat":28.4798899},"detail":"Level 4, Augusta Point, Golf Course Road, Sector-53, Gurgaon-122002","city":"Level 4, Augusta Point, Golf Course Road, Sector-53, Gurgaon-122002"}]},{"name":"Institute of Business Communication and Languages","addresses":[{"headline":"Other Branch","latlong":{"lng":77.19739969999999,"lat":28.5497644},"detail":"D-59, Hauz Khas, New Delhi- 110016 (India)","city":"New Delhi"},{"headline":"A-188, Regency Park-I, DLF City Phase IV","latlong":{"lng":77.08670049999999,"lat":28.4657133},"detail":"A-188, Regency Park-I, DLF City Phase IV, Gurgaon - 122009 (India)","city":"Gurgaon"}]},{"name":"Odisha Naukri","addresses":[]},{"name":"Global BPT","addresses":[{"headline":"Onlinetutoring BPT","latlong":{"lng":-95.712891,"lat":37.09024},"detail":"Tel: +1-347- 537-6979E-Mail: info@onlinetutoringbpt.comSkype: onlinetutoringbpt","city":"USA"}]},{"name":"Wordpandit","addresses":[]},{"name":"ThinkVidya","addresses":[{"headline":"Bangalore","latlong":{},"detail":"25, 3A Cross, 1st Main, Domlur 2nd Stage, Indiranagar, Bangalore, Karnataka 560071Phone:080 4153 9954","city":"25, 3A Cross, 1st Main, Domlur 2nd Stage, Indiranagar, Bangalore, Karnataka 560071Phone:080 4153 9954"}]},{"name":"ExTreme Consultancy","addresses":[{"headline":"Corporate office","latlong":{"lng":80.2627973,"lat":13.0220445},"detail":"12/116,2nd street, NarayanSwamy garden street, Raja Annamalaipuram, chennai-600028","city":"Chennai"}]},{"name":"Network Bulls","addresses":[]},{"name":"Learners Planet","addresses":[{"headline":"Head Office","latlong":{"lng":74.0789389,"lat":32.5737972},"detail":"B 5/204 La Habitat Opp Ayna Complex Hebatpur Road, Thaltej, Ahmedabad Gujrat - 380054","city":"Gujrat"}]},{"name":"Cite.Communities","addresses":[]},{"name":"Mango Reader","addresses":[{"headline":"Head Quarters","latlong":{"lng":73.8567437,"lat":18.5204303},"detail":"Flat 101, Ujjwal Regalia SocietyBaner Road, Pune.","city":"Pune"}]},{"name":"Elysium Labs","addresses":[]},{"name":"H2I","addresses":[{"headline":"Registered Office","latlong":{"lng":72.8776559,"lat":19.0759837},"detail":"RM 50, 1st Cross Lane, Old Hanuman, Kalbadevi, Mumbai-2","city":"mumbai"}]},{"name":"mom-dom","addresses":[{"headline":"Head Office","latlong":{"lng":77.22496,"lat":28.635308},"detail":"New Delhi","city":"Delhi"}]},{"name":"Find Your Great Work","addresses":[{"headline":"Gurgaon, India","latlong":{},"detail":"Q1/283, South City II, Gurgaon8860 719 730","city":"Q1/283, South City II, Gurgaon8860 719 730"}]},{"name":"Engineers India Research Institute","addresses":[{"headline":"Head office","latlong":{"lng":77.2347674,"lat":28.6536944},"detail":"No. 4449, Nai Sarak, Main Road, Delhi - 110006, India","city":"Delhi"}]},{"name":"Sarkari Naukri","addresses":[]},{"name":"iProzoneTechnology Solutions","addresses":[{"headline":"Delhi","latlong":{"lng":77.27508619999999,"lat":28.623392},"detail":"A-BlockShakarpurDelhi, 110092, IND","city":"A-BlockShakarpurDelhi, 110092, IND"}]},{"name":"Turbo Institute of Industrial technnology","addresses":[{"headline":"Training Institute","latlong":{"lng":78.486671,"lat":17.385044},"detail":"Vasavi's Sreemukh Building,Himayathnagar, Hyderabad-29","city":"Hyderabad"}]},{"name":"dmitri Tech Solutions Pvt.Ltd","addresses":[{"headline":"Head Quarters","latlong":{"lng":76.26730409999999,"lat":9.9312328},"detail":"Dmitri Tech Solutions Pvt.Ltd4C, Vattolly TowerSRM Road, CochinKerala - 682018","city":"Cochin"}]},{"name":"International Institute of Market Research and Analytics","addresses":[{"headline":"Bangalore","latlong":{},"detail":"No-7, Manjunatha Street, 5th Cross- Old Madiwala Road, MadiwalaBangalore-68","city":"No-7, Manjunatha Street, 5th Cross- Old Madiwala Road, MadiwalaBangalore-68"}]},{"name":"Nayi Disha Studios","addresses":[{"headline":"Development and Sales Office","latlong":{"lng":72.8776559,"lat":19.0759837},"detail":"","city":"Mumbai"},{"headline":"Headquarters","latlong":{"lng":77.22496,"lat":28.635308},"detail":"","city":"New Delhi"}]},{"name":"Little Readers' Nook","addresses":[{"headline":"Self Pickup Centers","latlong":{"lng":72.8590251,"lat":19.1297353},"detail":"Shivaji Park, Vile Parle, Thane","city":"MUMBAI"}]},{"name":"Explorers School - An Outdoor Education Org","addresses":[]},{"name":"Collegites","addresses":[{"headline":"Head Quarters","latlong":{"lng":77.0266383,"lat":28.4594965},"detail":"A-201, Unitech ArcadiaSouth City 2, GurgaonHayrana IndiaPin: 122018","city":"Gurgaon"}]},{"name":"Sanskriti (Brand Name: 'I Can')","addresses":[{"headline":"New Delhi","latlong":{"lng":77.180149,"lat":28.634143},"detail":"E-197, New Rajinder Nagar, Upper Ground Floor, New Delhi - 110060","city":"E-197, New Rajinder Nagar, Upper Ground Floor, New Delhi - 110060"}]},{"name":"livetext","addresses":[]},{"name":"SchoolCom","addresses":[{"headline":"Development Office","latlong":{"lng":77.5945627,"lat":12.9715987},"detail":"202, Charitha Blossoms, A Block,BEML Layout, Kundanahalli,Bangalore &ndash; 560037","city":"Bangalore"}]},{"name":"TopChalks","addresses":[{"headline":"Gurgaon","latlong":{"lng":77.0362967,"lat":28.5113577},"detail":"H-512, Palam Vihar, GurgaonHaryana - 122017","city":"H-512, Palam Vihar, GurgaonHaryana - 122017"}]},{"name":"Ten On Ten Education","addresses":[{"headline":"Corporate office","latlong":{"lng":77.5945627,"lat":12.9715987},"detail":"216/2, 3rd FloorZareen Heights, NagavarapalyaSir C. V. Raman Nagar PostBangalore-560 093Karnataka, INDIA","city":"Bangalore"}]},{"name":"REACH EDUCATION PVT. LTD.","addresses":[{"headline":"Education Advisory","latlong":{"lng":72.8242221,"lat":18.9255728},"detail":"Mittal Tower, B Wing, First floor, Mumbai - 400021","city":"Mumbai"}]},{"name":"The Science and Information Organization","addresses":[{"headline":"Head Office","latlong":{"lng":77.2390784,"lat":28.5609053},"detail":"Lajpat NagarNew Delhi","city":"New delhi"}]},{"name":"Codelearn.org","addresses":[]},{"name":"yet5.com","addresses":[{"headline":"Registered Office","latlong":{"lng":80.20088200000001,"lat":12.9951179},"detail":"31, Palandi Amman Kovil Street,Adambakkam, Chennai - 88","city":"Chennai"}]},{"name":"Mind Shaper Technologies Pvt Ltd.","addresses":[{"headline":"Chennai Office","latlong":{"lng":80.249583,"lat":13.060422},"detail":"Classteacher Learning Systems Mind Shaper Technologies (P) Ltd. H.P Plaza ( 1st floor)#14, G.N. Chetty RoadT.Nagar,Chennai-600017Landline: +91 44 42125216 / 42125217","city":"Chennai"},{"headline":"Hyderabad Office","latlong":{"lng":78.486671,"lat":17.385044},"detail":"Classteacher Learning Systems Mind Shaper Technologies (P) Ltd. Susrithlok Complex,1st Floor, Flat no 103Laxmi Nagar colony, Omini Hospital LaneKothapet,Hyderabad, Andhra Pradesh-60Subba Rao - Regional Head AP- 9391000355","city":"Hyderabad"},{"headline":"New Delhi Office","latlong":{"lng":77.22496,"lat":28.635308},"detail":"Classteacher Learning Systems Mind Shaper Technologies Pvt Ltd.A-1, 1st floor, Phase-I,Naraina Industrial Area, New Delhi-110028Contact No:+91 41242824","city":"New Delhi"}]},{"name":"Solution Inn LLC","addresses":[{"headline":"Head Quarter","latlong":{"lng":-75.4938118,"lat":39.7929013},"detail":"Carson RD, Wilmington DE USA","city":"Wilmington"}]},{"name":"Antz Age Technologies","addresses":[{"headline":"New Delhi","latlong":{"lng":77.1664905,"lat":28.5575674},"detail":"31, Community Center, Mezzanine Floor, Basant Lok, Vasant Vihar, New Delhi - 110057","city":"31, Community Center, Mezzanine Floor, Basant Lok, Vasant Vihar, New Delhi - 110057"}]},{"name":"catercap","addresses":[{"headline":"Head Office","latlong":{"lng":77.7157134,"lat":12.9940045},"detail":"A-604, SMR Vinay Galaxy, Hoodi Circle, Mahadevpur, Bangalore-560048","city":"Bangalore"}]},{"name":"KnowYourStar","addresses":[{"headline":"Head Quarters","latlong":{"lng":77.5945627,"lat":12.9715987},"detail":"","city":"Bengaluru"}]},{"name":"Learning Outcomes","addresses":[{"headline":"HQ","latlong":{"lng":73.8567437,"lat":18.5204303},"detail":"","city":"Pune"}]},{"name":"EPractize Labs","addresses":[]},{"name":"iZenBridge Consultancy","addresses":[]},{"name":"ThinnkWare","addresses":[{"headline":"Head Office","latlong":{"lng":77.3910265,"lat":28.5355161},"detail":"ThinnkWare, A venture of KC Robotics &amp; Embedded Pvt. Ltd.#4 ITBI, JSSATE-STEP C-20/1, Sector - 62 Noida (U.P.)- 201301 [India]","city":"Noida"}]},{"name":"Kaybus","addresses":[]},{"name":"AnswerJini","addresses":[]},{"name":"DSipher Design Solutions","addresses":[{"headline":"correspondance address","latlong":{"lng":77.5945627,"lat":12.9715987},"detail":"Golden Square Business Centre53/A, 16th C Main4th Block, KoramangalaBangalore - 560034Karnataka, INDIA","city":"bangalore"}]},{"name":"PerfectMyEnglish","addresses":[]},{"name":"User Base Retail","addresses":[]},{"name":"Gabss EduSkill Ltd.","addresses":[{"headline":"Corporate Office","latlong":{"lng":77.0460121,"lat":28.4710656},"detail":"M-26 Old DLF ColonyNear Sector 14 Gurgaon 122 001 HARYANA","city":"Gurgaon"}]},{"name":"LearnEx Academy","addresses":[]},{"name":"surana educations","addresses":[{"headline":"Jahazpur","latlong":{},"detail":"Natiyo ka Mohalla, jahazpurDist - bhilwaraRajasthan - 311201","city":"Natiyo ka Mohalla, jahazpurDist - bhilwaraRajasthan - 311201"}]},{"name":"Buddy4study","addresses":[{"headline":"Head Office","latlong":{"lng":77.3910265,"lat":28.5355161},"detail":"Smiling Star Advisory Pvt. LtdA-75, 2nd Floor, Sector-58,Noida-201301Email:- ashutosh@buddy4study.com","city":"Noida"}]},{"name":"Latestjobz","addresses":[{"headline":"Bangalore","latlong":{"lng":77.62046269999999,"lat":12.9380247},"detail":"3rd Cross 6th BlockKormanglaBangalore, 560095","city":"3rd Cross 6th BlockKormanglaBangalore, 560095"}]},{"name":"Pillarex Technologies Pvt. Ltd","addresses":[{"headline":"Head Quarters","latlong":{"lng":73.0296625,"lat":19.0330488},"detail":"302, Plot 101-102, Sector 44, Seawoods,","city":"Navi Mumbai"}]},{"name":"Invicta Veritas","addresses":[{"headline":"Headquarters","latlong":{"lng":77.5945627,"lat":12.9715987},"detail":"34-AmarJyoti LayoutHotel Royal Orchid RoadDomlur- 560071","city":"Bangalore"}]},{"name":"Nurture Talent Academy","addresses":[]},{"name":"Dinasim Learning","addresses":[]},{"name":"Phodphad!","addresses":[]},{"name":"KNOLSKAPE","addresses":[{"headline":"Head Office","latlong":{"lng":77.5945627,"lat":12.9715987},"detail":"KNOLSKAPE Solutions Pvt Ltd#854, 4th Cross,10th Main, Indira Nagar,Stage II, Bangalore - 560 037","city":"Bangalore"}]},{"name":"Vertois Training","addresses":[{"headline":"Client Liaison Centre","latlong":{"lng":72.8545019,"lat":19.1202321},"detail":"506,Crescent Tower, Opp Infinity Mall, New Link Road, Andheri (W, Mumbai 400053","city":"Mumbai"},{"headline":"Training Centre","latlong":{"lng":75.9063906,"lat":17.6599188},"detail":"&quot;Lumbini&quot;, 54, Waman Nagar, Near D-Mart, Jule Solapur, Solapur 411004","city":"Solapur"},{"headline":"Head Office &amp; Training Centre","latlong":{"lng":73.8434798,"lat":18.5291894},"detail":"201, D'Gold House, Fergusson College Road, Pune, Maharashtra 411005","city":"Pune"}]},{"name":"International School of Engineering","addresses":[]},{"name":"CrackVerbal","addresses":[{"headline":"Head Quarters","latlong":{"lng":77.6021001,"lat":12.980943},"detail":"S-7, 2nd Floor, Gem Plaza, Infantry Road, Bangalore 560001","city":"Bangalore"}]},{"name":"Eduron","addresses":[]},{"name":"TechieOpus","addresses":[]},{"name":"K12 Techno Services","addresses":[{"headline":"Secunderabad","latlong":{},"detail":"GVR Laxmi nivas, Street no 6West Marredpally,Secunderabad - 500 026.","city":"GVR Laxmi nivas, Street no 6West Marredpally,Secunderabad - 500 026."}]},{"name":"startup corner","addresses":[]},{"name":"Venture for India","addresses":[{"headline":"Main Office","latlong":{"lng":72.8776559,"lat":19.0759837},"detail":"G - 11 Neelam Building, 80 Marine Drive, Mumbai - 400 002","city":"Mumbai"}]},{"name":"OnCourse Global","addresses":[{"headline":"Branch Office","latlong":{"lng":72.50790690000001,"lat":23.0503765},"detail":"'Anand' Bungalow, Next to 426 Apartments, Vastapur-Thaltej Rd,Ahmedabad 380054","city":"Ahmedabad"},{"headline":"Head Office","latlong":{"lng":72.819052,"lat":18.9846831},"detail":"214 Nav-Neelam Society, B-Wing108 Worli Sea face Road, Worli, Mumbai 400018","city":"Mumbai"}]},{"name":"SrushtiSoft","addresses":[{"headline":"Head Office","latlong":{"lng":75.9238397,"lat":14.4663438},"detail":"","city":"Davangere"}]},{"name":"Learnpedia Edutech","addresses":[{"headline":"Head Quarters","latlong":{"lng":78.486671,"lat":17.385044},"detail":"Learnpedia Edutech,# 1-9-1114 to 1117,UGF 5,6&amp;7, Shobha Pavani Arcade,Opp. DD Hospital,Vidya Nagar, Hyderabad - 500044","city":"Hyderabad"}]},{"name":"professorbuddy.com","addresses":[]},{"name":"Edusys","addresses":[]},{"name":"Rentmytext.in","addresses":[{"headline":"Head Quarters","latlong":{"lng":77.5945627,"lat":12.9715987},"detail":"","city":"Bangalore"}]},{"name":"Bank Power","addresses":[{"headline":"Head Office","latlong":{"lng":77.2922332,"lat":28.6362211},"detail":"G-7, Roots Tower, Laxmi Nagar District Centre, Delhi - 110092","city":"Delhi"}]},{"name":"intelivisto","addresses":[{"headline":"Office in Mumbai","latlong":{"lng":72.8308692,"lat":19.2099437},"detail":"MumbaiGround Floor, Aekveera Regency,Kandivli (West), Mumbai - 400067, INDIA","city":"Mumbai"},{"headline":"Head Office","latlong":{"lng":77.314739,"lat":28.580112},"detail":"Delhi/NCRC-131, Sector 2, Noida 201301, INDIA","city":"Noida"}]},{"name":"PODWIRE","addresses":[]},{"name":"Function Space","addresses":[{"headline":"Head Quarters","latlong":{"lng":73.7654367,"lat":18.5967274},"detail":"Wakad - 411027","city":"Pune"}]},{"name":"Connect4Career","addresses":[{"headline":"Head Quarter","latlong":{"lng":77.22496,"lat":28.635308},"detail":"324,Living Style Mall Jasola ViharNew DelhiIndia","city":"New Delhi"}]},{"name":"Studycopter","addresses":[]},{"name":"AFC","addresses":[]},{"name":"Students Leads","addresses":[]},{"name":"100Marks","addresses":[{"headline":"Head Quarters","latlong":{"lng":77.0266383,"lat":28.4594965},"detail":"","city":"Gurgaon"}]},{"name":"Tutorvista","addresses":[]},{"name":"whizZdumb Networks","addresses":[{"headline":"Registered Office","latlong":{"lng":77.45375779999999,"lat":28.6691565},"detail":"A 217 Asha ApartmentRailway Road Ghaziabad","city":"Delhi NCR"}]},{"name":"BridgeSmart","addresses":[{"headline":"Registered Office","latlong":{"lng":75.139911,"lat":27.6094},"detail":"F-5, Bioscope Mall, Sikar, Rajasthan-332001","city":"Sikar"},{"headline":"Office of Operations","latlong":{"lng":75.81271989999999,"lat":26.8571264},"detail":"10/202, Malviya Nagar, Jaipur, Rajasthan - 302017","city":"Jaipur"}]},{"name":"Eduarrow","addresses":[]},{"name":"Edureka","addresses":[{"headline":"Bangalore","latlong":{"lng":77.6435896,"lat":12.9709576},"detail":"Edureka.inNo-845,2nd Cross,7th Main,HAL 2nd Stage,Indiranagar,Bangalore-560038, India","city":"Edureka.inNo-845,2nd Cross,7th Main,HAL 2nd Stage,Indiranagar,Bangalore-560038, India"}]},{"name":"Inovas Tech.","addresses":[{"headline":"NEW Delhi","latlong":{"lng":77.28036589999999,"lat":28.6070374},"detail":"University Tower,Mayur Vihar Phase IINew Delhi.","city":"University Tower,Mayur Vihar Phase IINew Delhi."}]},{"name":"STEM Edutech Pvt Ltd","addresses":[]},{"name":"Tutor Chrome","addresses":[]},{"name":"IT Pathshala","addresses":[{"headline":"Head Quarter","latlong":{"lng":77.3970354,"lat":28.5413965},"detail":"Plot #83, NSEZ, Phase II,Noida- 201305,Uttar Pradesh, India","city":"Noida"}]},{"name":"24x7 Bulletin","addresses":[]},{"name":"AmbitionMe Resources","addresses":[{"headline":"Registered Office","latlong":{"lng":72.9431038,"lat":19.1746739},"detail":"Mulund West, Mumbai","city":"Mumbai"}]},{"name":"Yagna Innovation","addresses":[{"headline":"Head Office","latlong":{"lng":77.60205690000001,"lat":12.8828199},"detail":"#21, First Floor, Royal Residency Layout, Near SaiBaba Temple, IIMB Post, Bangalore-560076","city":"BANGALORE"}]},{"name":"Brainvalley Solutions","addresses":[{"headline":"HQ","latlong":{"lng":80.2564957,"lat":13.0011774},"detail":"Dev Apartments, No 32, 4th Floor,Gandhi Nagar, I Main Road, Adyar, Chennai - 600 020.","city":"Chennai"},{"headline":"Corporate Offfice","latlong":{"lng":80.249583,"lat":13.060422},"detail":"#29 A, Golden Rays Business Complex, West Mambalam, Chennai, India - 600 033","city":"Chennai"}]},{"name":"Mathcaptain","addresses":[]},{"name":"ExamsGuru","addresses":[{"headline":"Head Office","latlong":{"lng":77.2813701,"lat":28.6330069},"detail":"Da-18, 1st Flr, Vikas Mg, Shakarpur, Delhi - 110092 (INDIA)","city":"Delhi"}]},{"name":"info360degree","addresses":[]},{"name":"Last-Bench!","addresses":[{"headline":"Head Quarters","latlong":{"lng":72.8360295,"lat":19.1229802},"detail":"702, Sardar Patel Institute Of Technology,Bhavans Campus, Munshi Nagar, Andheri West, Mumbai 400058","city":"Mumbai"}]},{"name":"PUNYA","addresses":[]},{"name":"X2PN","addresses":[]},{"name":"EC Educare","addresses":[{"headline":"Registered Office","latlong":{"lng":77.12081789999999,"lat":28.7129921},"detail":"519, Amba Tower, DC Chowk, Sec-9, Rohini, New Delhi-110085","city":"Delhi"}]},{"name":"Feacher India","addresses":[{"headline":"Virtual Office","latlong":{"lng":77.5945627,"lat":12.9715987},"detail":"no 184A, Rainbowgarden, Bannergatta Anekal Road,Bangalore 562105","city":"Bangalore"}]},{"name":"iKnowledge","addresses":[{"headline":"Future Office","latlong":{"lng":83.89999999999999,"lat":18.3},"detail":"SrikakulamAndhra Pradesh","city":"Hiramandalam"}]},{"name":"ViSports","addresses":[]},{"name":"Alma Connect","addresses":[{"headline":"Gurgaon","detail":"","city":""}]},{"name":"studentcampus eduventure","addresses":[]},{"name":"Experifun","addresses":[]},{"name":"skillVeri Technology Enabled Learning","addresses":[{"headline":"Registered Office","latlong":{"lng":80.249583,"lat":13.060422},"detail":"Skillveri Training Solutions Pvt Ltd35, North Street, Ganga Nagar, Jafferkhanpet (behind Kasi Theatre) Chennai 600 083","city":"Chennai"},{"headline":"Home Office","latlong":{"lng":77.5576241,"lat":13.058661},"detail":"BommasandraPh: +91 88674 53690","city":"Bangalore"}]},{"name":"QuizMantra","addresses":[]},{"name":"Freshmentors","addresses":[]},{"name":"New Rubric Solutions","addresses":[]},{"name":"LearnStreet","addresses":[]},{"name":"Nidhi Infotech","addresses":[]},{"name":"Excelgoodies","addresses":[{"headline":"Corporate Headquarters","latlong":{"lng":-121.9999714,"lat":37.2928574},"detail":"ExcelGoodies, Inc.5205 Prospect Road,San Jose,CA 95129","city":"California"}]},{"name":"SchoolCountry","addresses":[]},{"name":"WEBCRFT NETWORK","addresses":[]},{"name":"Global Talent Track","addresses":[]},{"name":"Essence Learning","addresses":[{"headline":"Training &amp; Development Office","latlong":{"lng":77.5945627,"lat":12.9715987},"detail":"Essence Learning,306, 3rd Floor, Ammashree Chambers, No 967, ST Bed Entrance, 4th Block, 80 Feet Road crossKoramangala, Bangalore &ndash; 560 034","city":"Bangalore"}]},{"name":"FocuswithTokas","addresses":[{"headline":"Main Office","latlong":{"lng":77.0266383,"lat":28.4594965},"detail":"FWT Educational Pvt. Ltd.H 19, Sushant Arcade, Sushant Lok Phase 1,GURGAON - 122 002Haryana","city":"Gurgaon"}]},{"name":"Vlrn","addresses":[]},{"name":"Eduora","addresses":[]},{"name":"KnowurCollege.com","addresses":[{"headline":"Head Quarters","latlong":{"lng":72.6048113,"lat":23.1014174},"detail":"105, Kamdhenu Complex, Nr. Toran Dining Hall Income Tax Circle, Ashram Road, 380018 Ahmedabad","city":"Ahmedabad"}]},{"name":"MYWBUT","addresses":[]},{"name":"Careersutra.in","addresses":[]},{"name":"Digital Academy","addresses":[{"headline":"Corporate Office","latlong":{"lng":77.0266383,"lat":28.4594965},"detail":"Level 4, Augusta Point,DLF Golf Course Road, Sector 53,Gurgaon, Haryana 122002INDIA","city":"Gurgaon"}]},{"name":"Celestial Consulting","addresses":[{"headline":"Training and Counseling Office","latlong":{"lng":80.92249,"lat":26.8371256},"detail":"2nd Floor,Jagat Singh Complex,Gurudwara Road,Naka Hindola,Lucknow","city":"Lucknow"},{"headline":"Training and Counseling Office","latlong":{"lng":80.92249,"lat":26.8371256},"detail":"2nd Floor, Jagat Singh Complex,Gurudwara Road,Naka Hindola,Lucknow","city":"Lucknow"}]},{"name":"Aurus Network","addresses":[{"headline":"R&amp;D Office","latlong":{"lng":77.5945627,"lat":12.9715987},"detail":"S-503, Manipal Centre, Dickenson Road, Off. M. G. Road, Bangalore - 560 042","city":"Bangalore"}]},{"name":"Jobsplane","addresses":[]},{"name":"Skyfi Labs","addresses":[]},{"name":"Sparsha Learning Technologies","addresses":[]},{"name":"Eduflix","addresses":[]},{"name":"Blogging Shiksha","addresses":[]},{"name":"WSMeducation","addresses":[]},{"name":"Pristine","addresses":[]},{"name":"StudyNation.com","addresses":[{"headline":"Gurgaon","latlong":{"lng":77.0752768,"lat":28.5128074},"detail":"21-C, Sector 18, Udyog Vihar, Gurgaon - 122016","city":"21-C, Sector 18, Udyog Vihar, Gurgaon - 122016"}]},{"name":"Creya Learning","addresses":[{"headline":"Corporate Office &amp; Creya Experience Centre","latlong":{"lng":78.43374779999999,"lat":17.4116226},"detail":"Creya Learning, 258A, MLA Colony, Road No 12, Banjara Hills, Hyderabad - 500034","city":"Hyderabad"}]},{"name":"Apply2Many","addresses":[]},{"name":"Bookmytrainings.com","addresses":[{"headline":"Sales Office","latlong":{"lng":77.21666669999999,"lat":28.6666667},"detail":"5th Floor, SB TowerSector 16ANoida - 201301Uttar Pradesh","city":"Delhi-NCR"},{"headline":"HQ","latlong":{"lng":77.5945627,"lat":12.9715987},"detail":"#1496/20, 2nd Floor, 40th Cross, 22nd Main Road,4th 'T' Block, Jayanagar,Landmark: Jaynagar 9th Block Bus Stop, Bangalore- 560041","city":"Bangalore"}]},{"name":"mysuperbrain.com","addresses":[]},{"name":"GreenRing Learning","addresses":[{"headline":"Registered Office","latlong":{"lng":73.8567437,"lat":18.5204303},"detail":"C1/1003 Hariganga Society, Phulenagar, Yerwada, Pune","city":"Pune"}]},{"name":"Chalkpad Technologies","addresses":[{"headline":"Knowledge Lab","latlong":{"lng":76.7920769,"lat":30.7443282},"detail":"SCO 160-161,Basement, Sector 9C,Chandigarh - 160009, India","city":"Chandigarh"}]},{"name":"Vienova","addresses":[]},{"name":"ikenstore","addresses":[]},{"name":"Urbanista Image Consulting","addresses":[{"headline":"Head Office","latlong":{"lng":77.22496,"lat":28.635308},"detail":"","city":"New Delhi"}]},{"name":"SarkariExam","addresses":[{"headline":"Head Quarter","latlong":{"lng":82.9739144,"lat":25.3176452},"detail":"","city":"Varanasi"}]},{"name":"iWillStudy.com - Ambastha EduTech","addresses":[{"headline":"Head Quarters","latlong":{"lng":72.58,"lat":23.03},"detail":"F05, Aditya Raj, Near Seema Hall, 100 Ft Anand Nagar RoadAhmedabad, India 380015","city":"Ahmedabad"}]},{"name":"GyanCentral","addresses":[{"headline":"HQ","latlong":{"lng":72.8776559,"lat":19.0759837},"detail":"35, A Laram CenterAndheri WestMumbai - 58","city":"Mumbai"}]},{"name":"FUCCHA","addresses":[]},{"name":"ePravesh","addresses":[{"headline":"Main Office","latlong":{"lng":73.83308439999999,"lat":18.5133793},"detail":"5,Soham Apartment,Prabhat Road Lane No 15,Opp Symbiosis School, Pune 411004","city":"Pune"}]},{"name":"Bucketbolt","addresses":[{"headline":"Registered Adress","latlong":{"lng":72.90753409999999,"lat":19.0890786},"detail":"33, Kamla Bhuvan, Lbs Marg , Ghatkopar (East), Mumbai - 400086","city":"Mumbai"},{"headline":"Headquaters","latlong":{"lng":72.91246439999999,"lat":19.0935531},"detail":"33, kamla bhuvan, lbs marg, Ghatkopar west, mumbai-86","city":"Mumbai"}]},{"name":"GlobalTHEN","addresses":[{"headline":"Head Office","latlong":{"lng":72.79837049999999,"lat":19.1637135},"detail":"903 Sevilla, Raheja Exotica, Malad West, Mumbai 400061","city":"MUMBAI"},{"headline":"Head Office","latlong":{"lng":72.79837049999999,"lat":19.1637135},"detail":"903 Sevilla, Raheja Exotica, Malad West, Mumbai 400061","city":"MUMBAI"}]},{"name":"Firstventure Corporation","addresses":[{"headline":"Headquarters","latlong":{"lng":72.8776559,"lat":19.0759837},"detail":"163-C Mittal Tower,Nariman Point,Mumbai 400021Phone: +91 22 22875595","city":"Mumbai"}]},{"name":"BookStreet.in","addresses":[{"headline":"Head Office","latlong":{"lng":72.8057367,"lat":18.9731972},"detail":"Surya Apts, Breach Candy, Bhulabhai Desai Road","city":"Mumbai"}]},{"name":"Gyaanexchange","addresses":[{"headline":"Head Quarters","latlong":{"lng":72.8776559,"lat":19.0759837},"detail":"Noesis Knowledge Solutions Pvt. Ltd.105 Regal Diamond CenterOpera HouseMumbai 400004","city":"Mumbai"}]},{"name":"Career Mitra Information Services","addresses":[{"headline":"Head Quarters","latlong":{"lng":77.5945627,"lat":12.9715987},"detail":"Career Mitra Information Services Pvt. Ltd, #96, I Cross, AECS Layout, Behind Food World, Sanjayanagar, Bangalore 94","city":"Bangalore"}]},{"name":"CraftedKids","addresses":[{"headline":"Head Office","latlong":{"lng":77.5945627,"lat":12.9715987},"detail":"","city":"Bangalore"}]},{"name":"E Online Tutors","addresses":[{"headline":"Corporate Office","latlong":{"lng":-78.6568942,"lat":37.4315734},"detail":"E ONLINE TUTORS INC9908 E HILL DRLORTON, VA 22079EIN 45-4229849.","city":"Virginia"},{"headline":"Head Office","latlong":{"lng":76.71787259999999,"lat":30.7046486},"detail":"SCF 87 Level-1Phase 3B2Mohali-160059PBINDIA","city":"Mohali"}]},{"name":"Incubation India Business Solutions","addresses":[{"headline":"Head Office","latlong":{"lng":72.9780897,"lat":19.2183307},"detail":"","city":"Thane"}]},{"name":"ImaginMor","addresses":[]},{"name":"DreamNotion Innovations","addresses":[{"headline":"Head Quarters","latlong":{"lng":77.6221365,"lat":12.9307073},"detail":"Premier Apartments #2C, 6th Cross, Inner Ring Road,Koramangala, Bangalore -560047","city":"Bangalore"}]},{"name":"Mind Edutainment","addresses":[]},{"name":"@MySchool","addresses":[]},{"name":"iWantTutor","addresses":[]},{"name":"National Olympiad Foundation","addresses":[{"headline":"Headquarter","latlong":{"lng":75.8577258,"lat":22.7195687},"detail":"","city":"Indore"}]},{"name":"Excellere Edulearning","addresses":[{"headline":"Engineering Office","latlong":{"lng":73.6915439,"lat":24.5712699},"detail":"HS-13, Vasant ViharSector - 5HiranmagriUdaipur - 313002","city":"Udaipur"},{"headline":"Corporate Office","latlong":{"lng":77.61636469999999,"lat":12.9995124},"detail":"13/2 Standage RoadFraser TownBangalore 560005","city":"Bangalore"}]},{"name":"Kern Learning Solutions","addresses":[{"headline":"Corporate Office","latlong":{"lng":78.4982741,"lat":17.4399295},"detail":"Kern Learning Solutions Pvt Ltd210 B Swapnalok ComplexSD Road, Secunderabad500003, AP, IndiaBranch Office - MumbaiUnit-314,3rd Floor, Arya ArcadeNear Vikhroli(W)stationVikhroli-WestMumbai-400 083India","city":"Secunderabad"}]},{"name":"Eduwire","addresses":[{"headline":"Head Office","latlong":{"lng":75.8003561,"lat":26.8659439},"detail":"Eduwire, F-1, Pratap Plaza, Sector-6, Pratap Nagar, Tonk Road, Jaipur, Rajasthan - 302022","city":"Jaipur"}]},{"name":"Classpro","addresses":[{"headline":"Head Quarters","latlong":{"lng":72.8776559,"lat":19.0759837},"detail":"","city":"Mumbai"}]},{"name":"Oliveboard","addresses":[{"headline":"Headquarters","latlong":{"lng":77.5945627,"lat":12.9715987},"detail":"","city":"Bangalore"}]},{"name":"eStudy Corner","addresses":[]},{"name":"Lionsher","addresses":[{"headline":"Corporate Office","latlong":{"lng":78.4982741,"lat":17.4399295},"detail":"Kern Learning Solutions Pvt Ltd210 B Swapnalok ComplexSD Road, Secunderabad500003, AP, India","city":"Secunderabad"}]},{"name":"EdMine","addresses":[{"headline":"Head Office","latlong":{"lng":78.6196331,"lat":17.5006251},"detail":"1-8-4/2, North Kamala Nagar ECIL, Hyderabad, AP India - 500062","city":"Hyderabad"}]},{"name":"Management Paradise","addresses":[{"headline":"HQ","latlong":{"lng":72.8530249,"lat":19.2336297},"detail":"S-59, 2nd FloorOff. Gorai Bus DepotGorai-2, Borivali (West),Mumbai 400091","city":"Mumbai"}]},{"name":"Winning Notes","addresses":[]},{"name":"Mauka","addresses":[{"headline":"Head office","latlong":{"lng":80.0981869,"lat":17.0477624},"detail":"Unit No 11B, 5th floor, Bldg # 9,  Raheja IT Park - MindSpace, MadhapurHyderabad, Andhra Pradesh, India","city":"Hyderabad"}]},{"name":"ShikshaCLUB","addresses":[{"headline":"Head Quarters","latlong":{"lng":77.7019419,"lat":12.962769},"detail":"#222, 1st Main,Karthik Nagar, Marathahalli,Outer Ring RoadBangalore","city":"Bangalore"}]},{"name":"MindWaves","addresses":[]},{"name":"Biziga Labs","addresses":[{"headline":"Head Quarters","latlong":{"lng":72.8776559,"lat":19.0759837},"detail":"","city":"Mumbai"}]},{"name":"One52","addresses":[{"headline":"Registered Office","latlong":{"lng":77.083787,"lat":28.6721702},"detail":"M-299, (4th floor), Guru Harkishan Nagar, Paschim Vihar, Delhi - 110087","city":"Delhi"}]},{"name":"Open Novus","addresses":[{"headline":"HeadQuarters","latlong":{"lng":80.1543389,"lat":13.0218554},"detail":"#3,Ramamoorthy avenuesakthi nagarPorur,Chennai-116","city":"Chennai"}]},{"name":"LearnSocial","addresses":[{"headline":"Head Quarters","latlong":{"lng":78.34975299999999,"lat":17.445665},"detail":"CIE, Vindhya C4 Block, IIIT, Gachibowli, Hyderabad, Andhra Pradesh","city":"Hyderabad"}]},{"name":"angineer","addresses":[]},{"name":"SakRobotix","addresses":[{"headline":"Head Quarter","latlong":{"lng":85.8245398,"lat":20.2960587},"detail":"HIG-193Dharama ViharKhandagiriBhubaneswar Odisha 750030","city":"Bhubaneswar"}]},{"name":"SKAND VLSI","addresses":[]},{"name":"TesPro Systems Pvt. Ltd.","addresses":[{"headline":"Head Office","latlong":{"lng":80.2185724,"lat":12.9748214},"detail":"5B/13, 3rd Main Road, 2nd Cross StreetVenkateswara Nagar, VelacheryChennai 600042.","city":"Chennai"}]},{"name":"Foradian Technologies","addresses":[{"headline":"Head Quarters","latlong":{"lng":77.6518219,"lat":12.912492},"detail":"#2733, 16th Cross,27th Main, Sector 1,HSR Layout, Bangalore,Karnataka, India - 560102","city":"Bangalore"}]},{"name":"Linways Technologies","addresses":[{"headline":"Cochin","latlong":{"lng":76.2710833,"lat":10.8505159},"detail":"Linways TechnologiesDoor No. CC 37/1781,Azad Road, Kaloor,Cochin-682 017,Kerala, INDIA","city":"Linways TechnologiesDoor No. CC 37/1781,Azad Road, Kaloor,Cochin-682 017,Kerala, INDIA"}]},{"name":"Harness Handitouch","addresses":[{"headline":"Main Office","latlong":{"lng":80.249583,"lat":13.060422},"detail":"Software Technology Parks of India - ChennaiOffice No. 5, 2nd Floor, No. 5, Rajiv Gandhi Salai,Taramani, Chennai - 600 113. INDIA.","city":"Chennai"}]},{"name":"Students3k","addresses":[]},{"name":"educbooks","addresses":[]},{"name":"Creative Signal Processing","addresses":[]},{"name":"I E Education","addresses":[]},{"name":"IIR","addresses":[]},{"name":"TrackMyMBA","addresses":[]},{"name":"ProClass Service Solutions","addresses":[]},{"name":"Playpower Labs","addresses":[]},{"name":"SHArP Edge Learning","addresses":[]},{"name":"B-School","addresses":[]},{"name":"LMT Leaning solution","addresses":[]},{"name":"Strawberry People","addresses":[]},{"name":"MindWorkz","addresses":[]},{"name":"Aalizwel.com","addresses":[]},{"name":"MobiSir Technologies","addresses":[]},{"name":"myBskool","addresses":[]},{"name":"Tutor Vista","addresses":[]},{"name":"Innobuzz","addresses":[]},{"name":"BrainNook","addresses":[]},{"name":"Redbytes Software","addresses":[]},{"name":"BrainCoerce Technologies LLP","addresses":[{"headline":"Engineering Office","latlong":{"lng":77.6388277,"lat":12.9679187},"detail":"8/1,13th F MainIndira Nagar , Bangalore - 560008","city":"Bangalore"}]},{"name":"Loqu8","addresses":[]},{"name":"prajnAM","addresses":[]},{"name":"SkillSign","addresses":[]},{"name":"itsikshana.com","addresses":[]},{"name":"Zing Corporate Consulting","addresses":[]},{"name":"TechAPTO","addresses":[{"headline":"Head Quarters","latlong":{"lng":77.0266383,"lat":28.4594965},"detail":"","city":"Gurgaon"}]},{"name":"MockBank","addresses":[]},{"name":"Exam18","addresses":[]},{"name":"Medhavi Foundation","addresses":[{"headline":"Head Quarters","latlong":{"lng":77.2189594,"lat":28.5647271},"detail":"#C-70, 2nd Floor, South Extension, Part II, New Delhi - 110049","city":"New Delhi"}]},{"name":"NavStik","addresses":[{"headline":"Head Office","latlong":{"lng":73.9369458,"lat":18.5627541},"detail":"A-401, Chandhere Complex, Opp. Inorbit Mall, Nagar Road,Pune - 411014","city":"Pune"}]},{"name":"Central Career School","addresses":[{"headline":"Head Office","latlong":{"lng":-74.4206142,"lat":40.5466785},"detail":"126 Corporate Blvd., South Plainfield, NJ 07080","city":"South Plainfield"}]},{"name":"F.I.S.H technologies","addresses":[{"headline":"&quot;Education centre&quot;","latlong":{"lng":83.97516399999999,"lat":21.4662219},"detail":"C/0-F.I.S.H technologies,Poddar Complex, KhetrajpurNear Marwari Dharamshala,At/po:Khetrajpur,Dist: Sambalpur(odisha)pin:768003","city":"Sambalpur"}]},{"name":"Big Data Education","addresses":[{"headline":"Working Office","latlong":{"lng":77.3855549,"lat":28.6120528},"detail":"C-28 (Basement)Sector - 65+91.8800223063","city":"Noida"}]},{"name":"smartsheets","addresses":[]},{"name":"SkillsForLife","addresses":[]},{"name":"CK-12 Foundation","addresses":[]},{"name":"EduGain Educational Services","addresses":[]},{"name":"LearnComputer","addresses":[]},{"name":"Score Beyond","addresses":[]},{"name":"buddy4jobs","addresses":[]},{"name":"Ever After","addresses":[{"headline":"Head Quarters","latlong":{"lng":77.6613826,"lat":12.9216385},"detail":"The Library, Sobha Lakeview Club,Outer Ring Road,Bellandur,Bangalore-560103","city":"Bangalore"}]},{"name":"Courseeplus","addresses":[]},{"name":"The Job Consultant","addresses":[]},{"name":"EduHunch","addresses":[{"headline":"Head Quarters","latlong":{"lng":78.3097824,"lat":17.4726884},"detail":"I-307, Aparna Cyber CommuneHyderabad, India","city":"Hyderabad"}]},{"name":"Voroso Software","addresses":[{"headline":"Head Office","latlong":{"lng":77.3910265,"lat":28.5355161},"detail":"","city":"Noida"}]}],"number":259,"addresses":161}
