{"companies":[{"name":"ASEwater technologies pvt ltd","addresses":[{"headline":"Head quarters","latlong":{"lng":80.249583,"lat":13.060422},"detail":"No.377, IInd Floor,Anna Salai,Chennai - 600 018.Ph :+91 44 4204 3355, 2432 2511","city":"Chennai"}]},{"name":"hykon india","addresses":[{"headline":"regional office","latlong":{"lng":76.9440283,"lat":11.0236544},"detail":"no.10, ramalinga nagar 1st layout, saibaba colony, coimbatore","city":"coimbatore"}]},{"name":"E-Cube Energy Trading","addresses":[{"headline":"Head Quarters","latlong":{"lng":88.36389500000001,"lat":22.572646},"detail":"","city":"Kolkata"}]},{"name":"Sunlight Solar","addresses":[{"headline":"Sunlight Solar Head Office","latlong":{"lng":80.4365402,"lat":16.3066525},"detail":"Brindavan Gardens, 3rd Lane,D-No: 3-28-18/28b,Spencers back side, Guntur - 2,Ph: 0863-6586555","city":"Guntur"}]},{"name":"Enelek Power","addresses":[{"headline":"Corporate Office","latlong":{"lng":72.9050809,"lat":19.1196773},"detail":"CM-06, SINE Office, 3rd Floor, CSRE BuildingIIT Bombay, Powai Mumbai, Maharashtra, India","city":"Mumbai"}]},{"name":"Bijli Bachao","addresses":[]},{"name":"Emergent Ventures India","addresses":[{"headline":"Gurgaon","latlong":{},"detail":"5th Floor, Universal Trade TowerGurgaon- Sohna Road, Sector 49Haryana","city":"5th Floor, Universal Trade TowerGurgaon- Sohna Road, Sector 49Haryana"}]},{"name":"Moser Baer Solar","addresses":[{"headline":"New Delhi","latlong":{"lng":77.26781369999999,"lat":28.549291},"detail":"43B, Okhla Industrial Estate,Phase - 3, New Delhi - 110020.","city":"43B, Okhla Industrial Estate,Phase - 3, New Delhi - 110020."}]},{"name":"Greenko","addresses":[]},{"name":"CONTOSO NATURA PVT LTD","addresses":[{"headline":"HEAD QUARTER","latlong":{"lng":80.9466832,"lat":26.8465108},"detail":"J-41, SOUTH CITYNEAR RBL ROADLUCKNOW","city":"LUCKNOW"}]},{"name":"Autoboxx Automation Technologies","addresses":[]},{"name":"Sudarshan Sales","addresses":[{"headline":"Head Office","latlong":{"lng":73.8610191,"lat":18.5114952},"detail":"No. 418, Ganesh Peth, Shop No. 2/3, Near Gurudwara - 411002, Maharashtra, India","city":"Pune"}]},{"name":"Aamsel Impex Private Limited","addresses":[{"headline":"Head Office","latlong":{"lng":73.8477874,"lat":18.4887425},"detail":"No. 54, Amitdeep Tulshibawale Colony - 411009, Maharashtra, India","city":"Pune"}]}],"number":13,"addresses":10}
