{"companies":[{"name":"PromptCloud","addresses":[{"headline":"Head Quarters","latlong":{"lng":77.65148719999999,"lat":12.9715538},"detail":"#277, 4th Floor, 4th Main,HAL 3rd Stage, New ThippasandraBangalore-560075, Karnataka, INDIA","city":"Bangalore"}]},{"name":"Brilliant Engineering Works","addresses":[{"headline":"Head Office","latlong":{"lng":72.8776559,"lat":19.0759837},"detail":"Gala No. D - 6, Sai Kripa Society, Netaji Nagar, Hill No. 3, Opposite Sharma Vidhyalay, Sakinaka, R.G. Meta Cost  - 400 072, Maharashtra, India","city":"Mumbai"}]},{"name":"InterviewStreet","addresses":[{"headline":"India Office","latlong":{"lng":77.5945627,"lat":12.9715987},"detail":"http://goo.gl/maps/H2oTMInterviewstreet Technologies Pvt Ltd,# 80, Ahad Pinnacle,2nd Floor, 5th Main, 2nd Cross, 5th Block, Koramangala Industrial layout, Bangalore, 560095","city":"Bangalore"}]},{"name":"Deltapowersolutions","addresses":[]},{"name":"Infinidea","addresses":[{"headline":"Head Office","latlong":{"lng":77.0362967,"lat":28.5113577},"detail":"D Block 2068FPalam ViharGurgaon - Haryana 122017","city":"Gurgaon"}]},{"name":"SQuare Consulting and Management Services","addresses":[{"headline":"Regional Office","latlong":{"lng":76.9585,"lat":30.83806},"detail":"Shop No. 1, N.H. No. 22, Sector - 6, Parwanoo (HIMACHAL PRADESH) - 173 220","city":"Parwanoo, HIMACHAL PRADESH"},{"headline":"Regional Office","latlong":{"lng":76.76683129999999,"lat":30.6810378},"detail":"SCO - 101, Modern Housing Complex, 1st Floor, Mani Majra, Chandigarh (U.T) - 160 101","city":"Chandigarh, CHD"},{"headline":"Regd. Office","latlong":{"lng":72.81944399999999,"lat":21.195},"detail":"603, River View, Ambikaniketan, Athwalines, Surat (GUJARAT) - 395 007","city":"Surat, Gujarat"}]},{"name":"Arvan Technologies","addresses":[{"headline":"Head Office","latlong":{"lng":73.8567437,"lat":18.5204303},"detail":"","city":"Pune"}]},{"name":"Bizgain","addresses":[{"headline":"Head Quarters","latlong":{"lng":78.44673,"lat":17.4151918},"detail":"Level 1, MB Towers, Road No 10 Banjara Hills, Hyderabad - 500034","city":"Hyderabad"}]},{"name":"VIOBEL TECHNOLOGIES","addresses":[]},{"name":"Horizon Mercantile Associates Pvt. Ltd. (Flanges)","addresses":[{"headline":"head quarter","latlong":{"lng":72.8205292,"lat":18.9575351},"detail":"2nd Ground Floor, Shashi Kripa Building, Paowala Street,Opp. Police Station, Raja Ram Mohan Rao RoadMumbai 400004, Maharashtra (India)","city":"Mumbai"}]},{"name":"Kolorjet Chemicals Pvt. Ltd","addresses":[{"headline":"corporate office","latlong":{"lng":72.8776559,"lat":19.0759837},"detail":"Address : B/5, Rajratan Industrial Estate,Liberty Garden Road, Malad West,Mumbai - 400 064, Maharashtra, IndiaE-mail : mitul.mehta@kolorjetchemicals.comMobile : +(91)-9920645611","city":"Mumbai"}]},{"name":"Canvass","addresses":[{"headline":"Main Office","latlong":{"lng":72.8596712,"lat":19.0395421},"detail":"Ground Floor, Sadminee CHS Ltd. Opp. Central BankSV Marg, Sion (W)Mumbai - 400022","city":"Mumbai"}]},{"name":"Tydy","addresses":[]},{"name":"A-mantra","addresses":[{"headline":"Corporate office","latlong":{"lng":78.486671,"lat":17.385044},"detail":"SatNav Technologies Pvt.Ltd., 2nd Floor, Lake Shore Towers, Rajbhavan Road, Somajiguda,Hyderabad-500 082, Andhra Pradesh, IndiaPhone: +91 9849460351","city":"Hyderabad"}]},{"name":"GreeneStep Technologies","addresses":[{"headline":"SALES AND SUPPORT","latlong":{"lng":103.819836,"lat":1.352083},"detail":"GREENESTEP (PTE.) LTD.#03-02 ZERVEX, 8 UBI ROAD 2,SINGAPORE 408538.Call:6509-4625","city":"SINGAPORE"},{"headline":"SALES AND MARKETING","latlong":{"lng":-74.16375529999999,"lat":40.8584328},"detail":"GREENESTEP LLC.5665 LONESOME DOVE CT.,CLIFTON, VA-20124.USACall:+1 703 546 4236","city":"CLIFTON"},{"headline":"R &amp; D Office","latlong":{"lng":77.5945627,"lat":12.9715987},"detail":"GREENESTEP TECHNOLOGIES#151 6TH A CROSS, VIJAYA BANK COLONY, NEAR IIMB,BANGALORE- 560076, INDIACall: +9180-26482920","city":"Bangalore"}]},{"name":"BenchTech Software Pvt Ltd","addresses":[]},{"name":"Innosols Infocom Pvt. Ltd.","addresses":[{"headline":"Head Quarters","latlong":{"lng":77.30659519999999,"lat":28.3649294},"detail":"35-36,Ground FloorShubham Tower,Faridabad-121001","city":"Faridabad"}]},{"name":"Greytip","addresses":[{"headline":"Head Quarters","latlong":{"lng":77.5945627,"lat":12.9715987},"detail":"Greytip Software Pvt. Ltd.  30/31, 100 Feet Road, Koramangala, Bangalore, INDIA 34","city":"Bangalore"}]},{"name":"Shambhavi Impex","addresses":[{"headline":"Head Office","latlong":{"lng":73.0296625,"lat":19.0330488},"detail":"No. 108, Neco Chamber, 1st Floor, Plot No. 48, Sector -11, CBD, BelapurNavi Mumbai - 400614Maharashtra - INDIA","city":"Navi Mumbai"}]},{"name":"Inuit Cloud Technologies Pvt. Ltd.","addresses":[{"headline":"Development","latlong":{"lng":77.5945627,"lat":12.9715987},"detail":"III Floor, GINSERV,C A Site #1, H A L 3rd StageKodihallyBangalore 560 008","city":"Bangalore"}]},{"name":"Quikformz","addresses":[{"headline":"Head Quarters","latlong":{"lng":77.5945627,"lat":12.9715987},"detail":"Orbis Media Technologies Pvt Ltd,IInd Floor, B.B.Court, No.526, 7th Cross, 10th Main, Jeevan Bimanagar,Bangalore-560 075, IndiaTel :  +91 - 80 - 40985090","city":"BANGALORE"}]},{"name":"Mashinga","addresses":[]},{"name":"Little Charms","addresses":[]},{"name":"Pervazive","addresses":[{"headline":"Registered Office","latlong":{"lng":77.5694218,"lat":12.9264148},"detail":"3061 Ninth Main RoadBSK II StageBangalore 560 070, INDIA","city":"Bangalore"}]},{"name":"CipherGraph Networks","addresses":[]},{"name":"SPURLINK TELESERVICES PRIVATE LIMITED","addresses":[{"headline":"Sales &amp; Support Office","latlong":{"lng":72.8776559,"lat":19.0759837},"detail":"19, Ashok Chambers, Broach Street, Mumbai","city":"MUMBAI"},{"headline":"Sales &amp; Support Office","latlong":{"lng":73.7915426,"lat":18.6353879},"detail":"Building M2, 403, 4th Floor, Empire Estate, Chinchwad, Pune","city":"PUNE"},{"headline":"Head Quarters","latlong":{"lng":76.7322092,"lat":30.69933919999999},"detail":"E 42, ELTOP, Phase VIII, MOHALI","city":"MOHALI"}]},{"name":"Thatva","addresses":[{"headline":"India Head Quarters","latlong":{"lng":77.5945627,"lat":12.9715987},"detail":"#1/2, 1st floor, Rose Garden, Kothnur Dinne Main Road,JP Nagar 8th Phase Bangalore 560076, India.Tel/Fax: +91 080 2685 1887 Email: innovate@thatva.com","city":"Bangalore"}]},{"name":"Trabacus Technologies","addresses":[{"headline":"Sales Office","latlong":{"lng":-0.2943416,"lat":51.08104420000001},"detail":"Travel Systems Associates Limited, Construct House, 7 Derwent Close, Horsham, West Sussex, RH12 4GW, United Kingdom.","city":"Horsham, West Sussex, UK"},{"headline":"Head Quarters","latlong":{"lng":77.5659847,"lat":13.0074237},"detail":"298/1, Near 17th Cross, Sampige Main Road, Malleshwaram, Bangalore 560003.","city":"Bangalore"}]},{"name":"Sciflare Technologies","addresses":[{"headline":"Head Office","latlong":{"lng":80.21092349999999,"lat":12.9623189},"detail":"708, 6th Main Road,Ram Nagar South,Madipakkam,Chennai - 600 091","city":"Chennai"}]},{"name":"Optic Bridge Technologies","addresses":[{"headline":"Head Quarters","latlong":{"lng":72.8776559,"lat":19.0759837},"detail":"","city":"Mumbai, India"}]},{"name":"sirius gifting","addresses":[{"headline":"Corporate Office","latlong":{"lng":77.22496,"lat":28.635308},"detail":"Sirius Integrated Trading Pvt. Ltd.364 2nd floor sant nagar East Of Kailashnew Delhi -110065","city":"New Delhi"}]},{"name":"Colimetrics","addresses":[{"headline":"Head Quarters","latlong":{"lng":77.6226959,"lat":12.9316556},"detail":"Koramangala","city":"Bangalore"}]},{"name":"WebEngage","addresses":[{"headline":"Head Quarters","latlong":{"lng":72.8776559,"lat":19.0759837},"detail":"Webklipper Technologies Pvt Ltd F-117, Shagun Arcade Film City Road, Mumbai Pin - 400 063 India","city":"Mumbai"}]},{"name":"Rolex Impex Co.","addresses":[]},{"name":"CiteMan Network","addresses":[{"headline":"New Delhi","latlong":{"lng":77.19722,"lat":28.561041},"detail":"B-7 Safdarjung EnclaveNew Delhi, 110029,","city":"B-7 Safdarjung EnclaveNew Delhi, 110029,"}]},{"name":"Aghreni Technologies","addresses":[{"headline":"Bangalore","latlong":{"lng":77.6359512,"lat":12.9726989},"detail":"335 Double RoadIndiranagar 1st StageBangalore 560038","city":"335 Double RoadIndiranagar 1st StageBangalore 560038"}]},{"name":"Santosh Lad Group","addresses":[{"headline":"Bangalore","latlong":{"lng":77.5648155,"lat":13.0399992},"detail":"#520, 7th Main, 13th Cross,RMV II Stage, Dollars ColonyBANGALORE - 560094","city":"#520, 7th Main, 13th Cross,RMV II Stage, Dollars ColonyBANGALORE - 560094"}]},{"name":"SolitonTechnologies","addresses":[{"headline":"Bangalore","latlong":{"lng":77.5910454,"lat":12.9061635},"detail":"#683, 15th Cross RoadJ.P. Nagar 2nd Phase Bangalore , 560078","city":"#683, 15th Cross RoadJ.P. Nagar 2nd Phase Bangalore , 560078"}]},{"name":"EXON Solutions","addresses":[]},{"name":"MindHelix Technosol","addresses":[{"headline":"Head Quarters","latlong":{"lng":76.26730409999999,"lat":9.9312328},"detail":"Door 1, The Startup Village,Kinfra Hightech Park, HMT Junction,Cochin,Kerala","city":"Cochin"}]},{"name":"DataFactors","addresses":[]},{"name":"Roadstar","addresses":[{"headline":"Corporate Office","latlong":{"lng":77.2764329,"lat":28.5357628},"detail":"E 45/6, Okhla Phase-II, New Delhi -110020","city":"New Delhi"}]},{"name":"SolutionsHead Global Services","addresses":[{"headline":"Head Quarters","latlong":{"lng":77.2782285,"lat":28.6123087},"detail":"C1/491, Near Akshardham Temple Cross, Chitrakoot, Ajmer Road, Jaipur-302020Rajasthan, INDIA","city":"Jaipur"}]},{"name":"MoviePsycho","addresses":[{"headline":"Head Quarters","latlong":{"lng":77.1291122,"lat":28.6859029},"detail":"E-193, Rishi Nagar , Rani Bagh, New Delhi, 110034","city":"New Delhi"}]},{"name":"Raigadestate.in","addresses":[]},{"name":"Relgo Networks","addresses":[{"headline":"Engineering Office","latlong":{"lng":78.4365851,"lat":17.3902756},"detail":"12-2-823/A/67, Santosh Nagar, Mehdipatnam, Hyderabad - 500028 India","city":"Hyderabad"}]},{"name":"Thinkflow Software","addresses":[{"headline":"Head Quarters","latlong":{"lng":77.6375278,"lat":12.9704506},"detail":"3266, 11th Main, HAL 2nd StageIndiranagarBangalore - 560008","city":"Bangalore"}]},{"name":"Signum iTechnology Pvt. Ltd.","addresses":[{"headline":"Head Quarters","latlong":{"lng":72.8776559,"lat":19.0759837},"detail":"Signum iTechnology Pvt. Ltd.#05, Tripathi Nagar,Mahakali Caves roadAndheri(East), Mumbai-400093Maharastra(India)","city":"Mumbai"}]},{"name":"Niqotin","addresses":[{"headline":"Experiment","latlong":{"lng":80.1825759,"lat":13.0190356},"detail":"668/2, First Main Road, River View Colony, Manapakkam, Chennai - 600125","city":"Chennai"}]},{"name":"Freshdesk","addresses":[{"headline":"Product Development Centre","latlong":{"lng":80.2422016,"lat":12.9531858},"detail":"SP Infocity 40 MGR SalaiPerungudi (OMR)Chennai 600096","city":"Chennai"}]},{"name":"HuntShire","addresses":[{"headline":"Head Quaters","latlong":{"lng":77.69464459999999,"lat":12.9562728},"detail":"Marathalli","city":"Bangalore"}]},{"name":"AutoCon TechnoSys","addresses":[{"headline":"Business Office","latlong":{"lng":77.7151616,"lat":12.9743773},"detail":"Prestige Omega, 2nd Floor,#104, EPIP Zone, Whitefield,Bangalore - 560066","city":"BANGALORE"}]},{"name":"BizMerlin","addresses":[{"headline":"Main Office","latlong":{"lng":77.018441,"lat":28.4455958},"detail":"1048-49 Spaze ITech Park,Sohna-Gurgaon Expressway,Gurgaon 122018","city":"Gurgaon"},{"headline":"Development Office","latlong":{"lng":75.81271989999999,"lat":30.9257818},"detail":"Noble Enclave, West Side (3rd floor)Ferozepore Road,Ludhiana, PB 141001,India","city":"Ludhiana"}]},{"name":"SourceEdge Software Technologies Private Limited","addresses":[{"headline":"HQ","latlong":{"lng":77.5945627,"lat":12.9715987},"detail":"3 S Kariappa RoadBasavanagudiBangalore - 560004","city":"Bangalore"}]},{"name":"Evol Technologies","addresses":[{"headline":"Head Quarters","latlong":{"lng":74.8346296,"lat":12.8967709},"detail":"3rd Floor, Rameshwar Arcade, Urwa Store, Urwa, Mangalore - 575006, Karnataka, India","city":"Mangalore"}]},{"name":"Orbis Media Technologies Pvt Ltd","addresses":[{"headline":"Head Quarters","latlong":{"lng":77.5945627,"lat":12.9715987},"detail":"Orbis Media Technologies Pvt Ltd,IInd Floor, B.B.Court, No.526, 7th Cross, 10th Main, Jeevan Bimanagar,Bangalore-560 075, IndiaTel :  +91 - 80 - 40985090","city":"Bangalore"}]},{"name":"ScaleArc","addresses":[{"headline":"Engineering Office","latlong":{"lng":73.0110096,"lat":19.0574665},"detail":"Real Tech Park, 813/814, 8th Floor  Sector 30A, Vashi, Navi Mumbai, Maharashtra 400705","city":"Mumbai"}]},{"name":"Ruby Kitchen","addresses":[{"headline":"Main Officer","latlong":{"lng":76.26730409999999,"lat":9.9312328},"detail":"Flat 1C, Asset Life Space, Irumpanam, Cochin - 682309","city":"Cochin"}]},{"name":"QuickoLabs","addresses":[{"headline":"Head Quarters","latlong":{"lng":77.61065119999999,"lat":12.9142924},"detail":"BTM LayoutBangalore","city":"Bangalore"}]},{"name":"HiJobs","addresses":[{"headline":"Development Office","latlong":{"lng":77.5945627,"lat":12.9715987},"detail":"New World Software#1, Coconut Garden CrossOuter Ring Road, Kalyan Nagar POBangalore - 560043Karnataka, India.Tel: +91 9740169197","city":"Bangalore"}]},{"name":"Arsya Jewellery","addresses":[{"headline":"Flagship Store","latlong":{"lng":72.8776559,"lat":19.0759837},"detail":"Arsya Jewellery10, Vallabh TerraceS V P RoadOpera HouseMumbai 400004","city":"Mumbai"}]},{"name":"Pursue.ly","addresses":[]},{"name":"Segemai Technologies","addresses":[]},{"name":"karnataka enterprises","addresses":[]},{"name":"Scribon","addresses":[{"headline":"Head Quarters-Pune; Development office: Ahmedabad","detail":"","city":""}]},{"name":"weblineindia.com","addresses":[{"headline":"Head Quarter &amp; Development Center","latlong":{"lng":72.58,"lat":23.03},"detail":"4th Floor, Arth Complex,Near Mithakhali Six Road,Navrangpura, Ahmedabad - 09Gujarat, India.","city":"Ahmedabad"}]},{"name":"Vheeds Technology Solutions","addresses":[{"headline":"Development Centre","latlong":{"lng":77.7274769,"lat":11.342235},"detail":"#481, Ist Floor, Valayakara Street,Erode, 638001+91.424.2210595","city":"Erode"}]},{"name":"EmployeeSocial","addresses":[]},{"name":"Headrun","addresses":[{"headline":"Head Quarters","latlong":{"lng":77.6180582,"lat":12.9146329},"detail":"#122, 4th Cross,35th Main, BTM 2nd Stage,Bangalore - 560076,Karnataka, India.","city":"Bangalore"}]},{"name":"Hazel Media","addresses":[{"headline":"Work Office","latlong":{"lng":77.3317246,"lat":28.5904833},"detail":"Sector 10, Noida","city":"Noida"}]},{"name":"Skopex","addresses":[{"headline":"Corporate Office","latlong":{"lng":77.328135,"lat":28.5951643},"detail":"F-73, Sector-8, Noida, 201301","city":"Noida"}]},{"name":"SETU Software Systems","addresses":[{"headline":"Head Quarters","latlong":{"lng":78.486671,"lat":17.385044},"detail":"III Floor, R-Square Avenue, Behind Suraj Restaurant, Gachibowli X Roads, Hyderabad - 32.","city":"Hyderabad"}]},{"name":"Uberlabs","addresses":[]},{"name":"Infintrix Global","addresses":[{"headline":"Head Office","latlong":{"lng":103.819836,"lat":1.352083},"detail":"","city":"Singapore"},{"headline":"Development Centre","latlong":{"lng":72.8776559,"lat":19.0759837},"detail":"","city":"Mumbai"}]},{"name":"MapleCode Consulting","addresses":[{"headline":"Overseas Operations","latlong":{"lng":-71.0597732,"lat":42.3584308},"detail":"","city":"Boston, USA"},{"headline":"Regional Branch","latlong":{"lng":78.486671,"lat":17.385044},"detail":"","city":"Hyderabad"}]},{"name":"Acelin Creations","addresses":[]},{"name":"Propalms Nework","addresses":[]},{"name":"Fixerline Consulting","addresses":[{"headline":"Head Quarter","latlong":{"lng":77.0463719,"lat":28.4736102},"detail":"595 (Basement), Sector 14, Gurgaon, Haryana","city":"Gurgaon"}]},{"name":"Digitalise2","addresses":[]},{"name":"Akshar Speech Technologies","addresses":[{"headline":"Head Quarters","latlong":{"lng":78.486671,"lat":17.385044},"detail":"C5-211, CIE, Vindhya C4, IIIT-Hyderabad Campus, Gachibowli, Hyderabad, India. PIN: 500032","city":"Hyderabad"}]},{"name":"Fullerene Solutions and Services (P) Ltd","addresses":[]},{"name":"Innovative WebWorlds","addresses":[{"headline":"Web Developer","latlong":{"lng":72.81944399999999,"lat":21.195},"detail":"G-23,Rupam Complex,nr. p.p.savani school, hirabaug surat-6.","city":"Surat"}]},{"name":"NE Techno (P) Ltd","addresses":[{"headline":"Development","latlong":{"lng":91.8824544,"lat":25.5775248},"detail":"NE Techno (P) Ltd, 2nd Floor, Salonsar Mansion, Police Bazar  Shillong, Meghalaya 793001","city":"Shillong"}]},{"name":"New Age Content Services LLP","addresses":[{"headline":"Corporate office","latlong":{"lng":72.846563,"lat":19.1171389},"detail":"Andheri, Mumbai, Maharashtra, India","city":"Mumbai"}]},{"name":"Wallet Kit","addresses":[]},{"name":"Howard Roark Laughed","addresses":[]},{"name":"Vanuston Intelligence Pvt Ltd","addresses":[{"headline":"Head Quarter","latlong":{"lng":80.249583,"lat":13.060422},"detail":"No 124, Sri Balaji Towers,Mount Road, GuindyChennai, Tamil NaduINDIA - 600032TEL:+91-44-42119714FAX: +91-44-22501372Email Id:info@vanuston.comwww.vanuston.com","city":"Chennai"}]},{"name":"Profoundis Labs Pvt Ltd","addresses":[{"headline":"Corporate Office","latlong":{"lng":76.3434679,"lat":10.0550531},"detail":"Profoundis Labs (P) Ltd.Startup VillageKinfra High Tech ParkKalamassery, Kochi, Kerala, INDIA - 683503","city":"Cochin"}]},{"name":"Visvas Abrasive","addresses":[{"headline":"Head Office","latlong":{"lng":77.9766843,"lat":10.352435},"detail":"32/83, D2, College House Road,Nagal Nagar,Dindigul,Tamilnadu624003","city":"Dindigul"}]},{"name":"niqotin","addresses":[{"headline":"Head Quarters","latlong":{"lng":80.1825759,"lat":13.0190356},"detail":"668/2, First Main Road, River View Colony, Manapakkam, Chennai - 600 125, India","city":"Chennai"}]},{"name":"Metier Software Solutions P Limited","addresses":[{"headline":"Head Quarters","latlong":{"lng":78.486671,"lat":17.385044},"detail":"First Floor, Koti's CourtRaj Bhawan RoadSomajigudaHyderabad - 500 082","city":"Hyderabad"}]},{"name":"Webwizard Technologies","addresses":[{"headline":"Dominican Republic Office","latlong":{"lng":-69.9833333,"lat":18.5},"detail":"Monolo Taverez Justo #59 Apt 3B, Urb RealSanto Domingo","city":"Santo Domingo"},{"headline":"UK Office","latlong":{"lng":-0.2793894,"lat":51.589214},"detail":"230, Princess avenueColindaleLondon NW9 9JH","city":"London"},{"headline":"India Office","latlong":{"lng":88.3672149,"lat":22.7792244},"detail":"7/8, Green Park, Green PlazaKolkata-700056","city":"Kolkata"}]},{"name":"Tulsani Infotech Services","addresses":[]},{"name":"Jain Technosoft","addresses":[{"headline":"Head Quarters","latlong":{"lng":77.5945627,"lat":12.9715987},"detail":"Jain Technosoft #2, 1st Floor, 80 Feet Road,1st Block, 7th Main,Above The Mobile Store,Koramangala, Bangalore - 560034Karnataka, India","city":"Bangalore"}]},{"name":"Sona Group","addresses":[]},{"name":"Globussoft Technology Pvt Ltd","addresses":[{"headline":"Branch Office","latlong":{"lng":10.451526,"lat":51.165691},"detail":"Alpha Park Officepark9400 SopronHungary","city":"Germany"},{"headline":"Branch Office","latlong":{"lng":-73.9292464,"lat":40.7722524},"detail":"12-21 Astoria blvd2nd flrNY, NY 11102","city":"USA"},{"headline":"Branch Office","latlong":{"lng":72.8776559,"lat":19.0759837},"detail":"205,2nd Floor, Madhu Industrial Park, Mogra cross road,New Apollo Chambers, Mogra lane, Andheri (E) - Mumbai 69","city":"Mumbai"},{"headline":"HeadQuarter","latlong":{"lng":81.31243409999999,"lat":21.2096036},"detail":"CHPL DreamHome Apartments, Apollo Hospital Road, Junwani-Bhilai, Durg Dist. Chhattisgarh 490020","city":"Bhilai"}]},{"name":"Appointy","addresses":[{"headline":"USA Office","latlong":{"lng":-80.129768,"lat":26.1231079},"detail":"1301 East Broward Blvd.,Suite 330,Fort Lauderdale, Florida 33301USA","city":"Fort Lauderdale"},{"headline":"India Office","latlong":{"lng":77.46120379999999,"lat":23.1870364},"detail":"XtremeHeights Building,203-C, Rajat Vihar,Hoshangabad Rd., Bhopal, Madhya Pradesh - 462026","city":"Bhopal"}]},{"name":"SutraHR","addresses":[{"headline":"Head Quarters","latlong":{"lng":72.8776559,"lat":19.0759837},"detail":"601 B, Annapurna, Above Mumbai Darbar Hotel,Adarsh Nagar, Off New Link Road, Oshiwara, Andheri (West),Mumbai 400 102.","city":"Mumbai"}]},{"name":"Convergence IT Services","addresses":[{"headline":"Head Office","latlong":{"lng":72.90831299999999,"lat":19.0857477},"detail":"Shop No 11, Raj Rajeshwari Apt, Narayana Nagar, LBS Marg, Ghatkopar (W) , Mumbai 400086 Maharashtra, India.","city":"Mumbai"}]},{"name":"Interview Master","addresses":[{"headline":"Sales Office","latlong":{"lng":72.84164779999999,"lat":19.0981744},"detail":"B 103, Kailash, Juhu Church Road, Juhu, Mumbai-400049, India","city":"Mumbai"},{"headline":"Sales Office","latlong":{"lng":76.26730409999999,"lat":9.9312328},"detail":"Emprenure LabsKinfra Hi-Tech Park,Kalamassery, Kochi,India.","city":"Kochi"},{"headline":"Head Quarters","latlong":{"lng":77.5945627,"lat":12.9715987},"detail":"Emprenure Labs818/1 Plot No.13Fidelity National Finance Building LaneElectronics City, Phase II Bangalore 560 100","city":"Bangalore"}]},{"name":"ARSWebTech","addresses":[{"headline":"Development","latlong":{"lng":88.36389500000001,"lat":22.572646},"detail":"ARSWebTechGr. Flr Shantana Apartment,4, ShantiPath, SantoshpurKolkata -75","city":"Kolkata"}]},{"name":"Wingify","addresses":[{"headline":"Main Office","latlong":{"lng":77.142764,"lat":28.69074599999999},"detail":"404 Gopal Heights,Netaji Subhash PlacePitam Pura, Delhi 110034","city":"Delhi"}]},{"name":"Techcello","addresses":[{"headline":"Marketing","latlong":{"lng":-78.898619,"lat":35.9940329},"detail":"","city":"Durham North Carolina USA"},{"headline":"Engineering and Support","latlong":{"lng":80.249583,"lat":13.060422},"detail":"","city":"Chennai"}]},{"name":"SYSOI","addresses":[{"headline":"Head Quarter","latlong":{"lng":85.1052187,"lat":25.6039915},"detail":"Sysoi Technologies,RPS More, Ranjan Path,West Bailey Road,Patna, Bihar","city":"Patna"}]},{"name":"CloudPact","addresses":[{"headline":"Head Quarters","latlong":{"lng":78.486671,"lat":17.385044},"detail":"S1, The Willows,Kavuri Hills,Hyderabad - 500033Andhra PradeshIndia","city":"Hyderabad"}]},{"name":"antkorp","addresses":[]},{"name":"Centhrix","addresses":[{"headline":"Head Quarter","latlong":{"lng":72.8776559,"lat":19.0759837},"detail":"Centhrix Technologies Private LimitedG/2, Shreya HousePareira Hill Road, Andheri EastMumbai 400 099India","city":"Mumbai, India"}]},{"name":"Wisestep","addresses":[{"headline":"Product Development","latlong":{"lng":78.486671,"lat":17.385044},"detail":"","city":"Hyderabad"}]},{"name":"Plavaga","addresses":[{"headline":"Head Quarters","latlong":{"lng":77.64931709999999,"lat":12.9627546},"detail":"PLAVAGA SOFTWARE SOLUTIONS PVT. LTD.Level 3, GINSERV,CA Site No.1, HAL 3rd Stage, Kodihalli, Bangalore - 560008, Karnataka, India","city":"Bangalore"}]},{"name":"OrangeScape","addresses":[{"headline":"US HQ","latlong":{"lng":-122.0677936,"lat":37.4002614},"detail":"OrangeScape Inc.,800 West El Camino Real, Suite 180Mountain View, California 94040United States of America.Tel  : +1-650-394-PAAS (7227)","city":"Mountain View, Silicon Valley, USA"},{"headline":"India HQ","latlong":{"lng":80.249583,"lat":13.060422},"detail":"OrangeScape Technologies Limited#4 Rajiv Gandhi Salai, TIDEL Park,Unit #305, D-Block, North Wing, 3rd Floor,Taramani, Chennai,Tamil Nadu. 600113. India.Tel  : +91-72-99-222-999","city":"Chennai"}]},{"name":"PixelKare","addresses":[{"headline":"Head Office","latlong":{"lng":77.5945627,"lat":12.9715987},"detail":"PixelKare56, 3rd Cross, BHBCS Layout, Virata Nagar, BommanahalliBangalore, Karnataka, INDIAPin - 560068","city":"Bangalore"}]},{"name":"Gifts4u.in","addresses":[]},{"name":"PageStitch","addresses":[]},{"name":"Giga Soft Systems","addresses":[{"headline":"Head Office","latlong":{"lng":77.22496,"lat":28.635308},"detail":"6/3514, Pyarelal Road, Bank Street, Karol Bagh,New Delhi - 110005India","city":"New Delhi"}]},{"name":"Ample Retail Stores Pvt. Ltd.","addresses":[{"headline":"Ample Retail Stores Pvt. Ltd.","latlong":{"lng":73.8567437,"lat":18.5204303},"detail":"Ample Retail Stores Pvt. Ltd.5F, KK Market, Pune Satara Road,Dhankwadi, Pune 411043http://www.amplestores.in","city":"Pune"}]},{"name":"Mafiree","addresses":[{"headline":"Head Office","latlong":{"lng":77.6588372,"lat":12.9590723},"detail":"Unit 303, 3rd Floor, Vanguard Rise, 5th Main, Konena Agrahara, Old Airport Road, Bangalore - 560017.","city":"Bangalore"}]},{"name":"Zintrus","addresses":[]},{"name":"Xtreme Digital Solutions","addresses":[{"headline":"Head Quarters","latlong":{"lng":77.1585822,"lat":28.6879671},"detail":"B4, Keshav Puram","city":"New Delhi"}]},{"name":"IdeaBox Creations","addresses":[{"headline":"Head Quarters","latlong":{"lng":73.6915439,"lat":24.5712699},"detail":"19, Pipleshwar Mahadev GaliNaiyo Ki TalaiUdaipur Rajasthan.","city":"Udaipur"}]},{"name":"ideaken","addresses":[]},{"name":"Cradiant IT Services Pvt. Ltd.","addresses":[{"headline":"Head Quarters","latlong":{"lng":73.8567437,"lat":18.5204303},"detail":"Cradiant IT Services Pvt. Ltd. 'REX', Plot No. 15, S. No. 41/14, Sai Colony, Triveninagar, Pune &ndash; 412114. INDIA.","city":"Pune"}]},{"name":"IQLECT","addresses":[]},{"name":"Coherendz","addresses":[{"headline":"Head Office","latlong":{"lng":78.3888472,"lat":17.4004605},"detail":"8-2-608/40, GK Colony,, Road No. 10, Banjara Hills  Hyderabad, Andhra Pradesh 500034","city":"Hyderabad"}]},{"name":"InRev Systems","addresses":[{"headline":"Head Quarter","latlong":{"lng":77.5945627,"lat":12.9715987},"detail":"3rd Floor, 7/1 Binnamangala,100 Feet Road, Indiranagar Bangalore 560038 Landmark: Opposite Toit,Telephone: +91-80-40971130","city":"Bangalore"}]},{"name":"UKnowva","addresses":[{"headline":"Head Quarters","latlong":{"lng":72.8776559,"lat":19.0759837},"detail":"11, Raj Rajeshwari Bldg, Narayana Nagar, LBS Marg, Ghatkopar (W) , Mumbai, Maharashtra, PIN : 400086 , India","city":"Mumbai"}]},{"name":"Peopledock","addresses":[{"headline":"World Garage","latlong":{"lng":78.41266,"lat":17.4295317},"detail":"H315Jubilee Hills","city":"Hyderabad"}]},{"name":"shipX","addresses":[{"headline":"Corporate Office","latlong":{"lng":77.5836145,"lat":12.9162563},"detail":"747, 47th Cross, 8th Block JayanagarBangalore 560 082","city":"Bangalore"}]},{"name":"Owe Global Solutions","addresses":[{"headline":"Headquarters","latlong":{"lng":80.2404959,"lat":13.0610677},"detail":"110/1, The Arcade Centre, M.G.Road, Nungambakkam, Chennai 600 034","city":"Chennai"}]},{"name":"ContractIQ","addresses":[]},{"name":"eConserve","addresses":[{"headline":"Development","latlong":{"lng":78.486671,"lat":17.385044},"detail":"","city":"Hyderabad"}]},{"name":"BA Studio","addresses":[]},{"name":"Enabling Innovations and Technologies","addresses":[]},{"name":"Netfunda Technologies","addresses":[]},{"name":"Avera Essentials","addresses":[]},{"name":"BIOZYMES","addresses":[]},{"name":"42Gears Mobility Systems","addresses":[]},{"name":"Shivrai Technologies","addresses":[]},{"name":"RainMaker","addresses":[{"headline":"Corporate Office","latlong":{"lng":77.5945627,"lat":12.9715987},"detail":"","city":"Bangalore"}]},{"name":"CloudNucleus Technologies","addresses":[]},{"name":"Virtualmin","addresses":[]},{"name":"Vindicia","addresses":[]},{"name":"YottaMark","addresses":[]},{"name":"Silver Spring Networks","addresses":[]},{"name":"MarkLogic","addresses":[]},{"name":"BruteSoft","addresses":[]},{"name":"Sabse Technologies","addresses":[]},{"name":"Replay Solutions","addresses":[]},{"name":"Pattern Insight","addresses":[]},{"name":"UserTesting.com","addresses":[]},{"name":"Publictivity","addresses":[]},{"name":"Agistix","addresses":[]},{"name":"clearpack","addresses":[{"headline":"Clearpack India Pvt. Ltd.","latlong":{"lng":72.8776559,"lat":19.0759837},"detail":"Shrenuj House, Ground Floor, Plot No. A-7, M.I.D.C., Road No. 5, Andheri (East), Mumbai- 400 093+91 22 6113 4200+91 22 2838 9360","city":"Mumbai"}]},{"name":"FonGenie","addresses":[]},{"name":"SEVEN Networks","addresses":[]},{"name":"BDNA","addresses":[]},{"name":"Socialtext","addresses":[]},{"name":"Euclid","addresses":[]},{"name":"Nexenta Systems","addresses":[]},{"name":"LongJump","addresses":[]},{"name":"Signifyd","addresses":[]},{"name":"StrongMail","addresses":[]},{"name":"parakh trading company","addresses":[{"headline":"wholesaler and trading company","latlong":{"lng":72.8456858,"lat":19.1422813},"detail":"g-9 , ivy centre , patel estate road , jogeshwari west","city":"mumbai"}]},{"name":"Issuu","addresses":[]},{"name":"GuideSpark","addresses":[]},{"name":"Pano Logic","addresses":[]},{"name":"PenDigi Media","addresses":[]},{"name":"Teneros","addresses":[]},{"name":"Datanyze","addresses":[]},{"name":"Ariba","addresses":[]},{"name":"Oracle Corporation","addresses":[]},{"name":"CyDesign Labs","addresses":[]},{"name":"Talend","addresses":[]},{"name":"Coveo","addresses":[]},{"name":"InfiniGraph","addresses":[]},{"name":"MetricStream","addresses":[]},{"name":"Kapow Software","addresses":[]},{"name":"PayTango","addresses":[]},{"name":"Verix","addresses":[]},{"name":"Wrike","addresses":[]},{"name":"Vorkspace","addresses":[]},{"name":"Proofpoint","addresses":[]},{"name":"DreamFactory Software","addresses":[]},{"name":"TIBCO Software","addresses":[]},{"name":"Adaptive Planning","addresses":[]},{"name":"Medallia","addresses":[]},{"name":"Boardwalktech","addresses":[]},{"name":"Delphix","addresses":[]},{"name":"Kazeon","addresses":[]},{"name":"Saba","addresses":[]},{"name":"Globant","addresses":[]}],"number":190,"addresses":122}
