{"companies":[{"name":"Tax Print","addresses":[{"headline":"Head Office","latlong":{"lng":72.83677759999999,"lat":18.9346619},"detail":"177, Perin Nariman Street (Bazargate,Fort, Mumbai, Maharashtra, India","city":"Mumbai"}]},{"name":"Fundscoop Advisors Private Limited","addresses":[{"headline":"Corporate Office","latlong":{"lng":88.3932066,"lat":22.4917418},"detail":"D-25, Calcutta Greens Commercial Complex, 1050/2 Survey Park, Kolkata - 700075","city":"KOLKATA"}]},{"name":"Heckyl","addresses":[{"headline":"Head Quarters","latlong":{"lng":72.8776559,"lat":19.0759837},"detail":"HECKYL TECHNOLOGIES405, CENTER POINTM.V. ROAD, J.B. NAGARAndheri (East), Mumbai - 400059PHONE: +91 2242153561","city":"Mumbai"}]},{"name":"InvestmentYogi FinAdvisory Services Pvt Ltd","addresses":[{"headline":"Head Quarters","latlong":{"lng":78.4497593,"lat":17.4151036},"detail":"Banjara Hills Rd no.1","city":"Hyderabad"}]},{"name":"SuperCFO","addresses":[{"headline":"Head Quarters","latlong":{"lng":72.9382131,"lat":19.1640548},"detail":"104, Marathon Max,Mulund-Goregaon Link Road, Mulund (W), Mumbai-400080, India.","city":"Mumbai"}]},{"name":"Marketiffy","addresses":[{"headline":"Main Office","latlong":{"lng":73.8567437,"lat":18.5204303},"detail":"","city":"Pune"}]},{"name":"Marketcalls","addresses":[]},{"name":"Finahub","addresses":[{"headline":"Head Quarters","latlong":{"lng":76.26730409999999,"lat":9.9312328},"detail":"Finahub Internet Services LLPStartup VillageKinfra High Tech Park.Kalamassery, Kochi- 683104, India.","city":"Kochi"}]},{"name":"Unicon","addresses":[{"headline":"Corporate Office","latlong":{"lng":72.8498662,"lat":19.1054534},"detail":"A-Wing, 2nd-3rd Floor, Vilco Center 8 Subhash Road,Vile Parle (East),Mumbai-400057 (Maharashtra)","city":"Mumbai"},{"headline":"Corporate Office","latlong":{"lng":77.3811606,"lat":28.6209871},"detail":"D-221,Sector 63,Noida 201301, Uttar Pradesh","city":"Noida"},{"headline":"New Delhi","latlong":{"lng":77.21608499999999,"lat":28.6304101},"detail":"Unicon Investment Solutions69,2nd Floor,Regal Building,Connaught Place,New Delhi-110001","city":"Unicon Investment Solutions69,2nd Floor,Regal Building,Connaught Place,New Delhi-110001"}]},{"name":"Investologic","addresses":[]},{"name":"RupeeManager","addresses":[]},{"name":"scripbox.com","addresses":[{"headline":"Head quarters","latlong":{"lng":77.5945627,"lat":12.9715987},"detail":"scripbox.com India Pvt. Ltd.2966, 4th Cross, 12th MainHAL 2nd Stage, IndiranagarBangalore 560008India","city":"Bangalore"}]},{"name":"Investopresto","addresses":[]},{"name":"Accountancy Edge","addresses":[{"headline":"Head Office","latlong":{"lng":-4.2112549,"lat":51.0404462},"detail":"7 Honey StreetBidefordDevonEX39 1DLUnited Kingdom","city":"Bideford"}]},{"name":"SKS Microfinance","addresses":[{"headline":"Head Office","latlong":{"lng":80.0981869,"lat":17.0477624},"detail":"SKS Microfinance Ltd3rd Floor, My Home Tycoon,Block A, 6-3-1192, Kundanbagh,Begumpet, Hyderabad- 500 016, Andhra Pradesh, India.","city":"Hyderabad"}]},{"name":"MoneyLeo","addresses":[{"headline":"Head Quarters","latlong":{"lng":72.8776559,"lat":19.0759837},"detail":"603, Vasudeo Chamber,Opp. D-Mart,Mulund Goregaon Link Road,Bhandup West, Mumbai - 400 078.","city":"Mumbai"}]},{"name":"satin","addresses":[]},{"name":"Realty Gujarat","addresses":[]},{"name":"Indiaforensic","addresses":[]},{"name":"Marwah Financial","addresses":[{"headline":"","detail":"","city":""},{"headline":"Main Office","latlong":{"lng":77.22496,"lat":28.635308},"detail":"Marwah Financial Advisory Pvt. Ltd.719, Amba Tower, D.C. Chowk, Sector-9 Rohini, New Delhi, 110085, India Phone: 011-47016500","city":"New Delhi"}]},{"name":"Hexagon Global","addresses":[{"headline":"Head Quarters","latlong":{"lng":77.5945627,"lat":12.9715987},"detail":"","city":"Bangalore"}]},{"name":"InGovern Research","addresses":[{"headline":"Office","latlong":{"lng":77.65158989999999,"lat":12.9205853},"detail":"107, 3rd Cross, 27th Main,HSR Layout, Sector 1Bangalore 560102","city":"Bangalore"}]},{"name":"Investor School","addresses":[{"headline":"Office","latlong":{"lng":72.86927109999999,"lat":19.2855038},"detail":"Shop #5, Building #38/39, Shanti Park, Mira Road","city":"Mira Road, Mumbai"}]},{"name":"Futurewise","addresses":[{"headline":"Head Quarters","latlong":{"lng":72.86927109999999,"lat":19.2050017},"detail":"110, Autumn Grove, Opp. Lokhandwala Foundation School, Lokhandwala Township, Kandivali East, Mumbai 400101","city":"Mumbai"}]},{"name":"Zerodha","addresses":[]},{"name":"Riskpro India Ventures Private Limited","addresses":[{"headline":"Financial District Office","latlong":{"lng":72.830829,"lat":19.055229},"detail":"B44, Glaxo Building, Near Mt. Mary's Steps, Bandra West Mumbai 400050","city":"Mumbai"},{"headline":"Registered Office","latlong":{"lng":77.2333304,"lat":28.571832},"detail":"C 561, Defence colonyNew Delhi 110024","city":"Delhi"}]},{"name":"Artha Yantra","addresses":[]},{"name":"Probe Equity Research","addresses":[]},{"name":"Ujjivan","addresses":[]},{"name":"activitas management advisors","addresses":[{"headline":"Headquarters","latlong":{"lng":72.8776559,"lat":19.0759837},"detail":"","city":"Mumbai"}]},{"name":"Taaza finance","addresses":[{"headline":"Gurgaon","latlong":{"lng":77.0752768,"lat":28.5128074},"detail":"21-C, Sector 18, Udyog Vihar, Gurgaon - 122016","city":"21-C, Sector 18, Udyog Vihar, Gurgaon - 122016"}]},{"name":"NetAmbit","addresses":[]},{"name":"IndiaHomes","addresses":[]},{"name":"Azhura Finpoint India","addresses":[{"headline":"Registered Office","latlong":{"lng":78.486671,"lat":17.385044},"detail":"Azhura Finpoint India LLPFlat No. 306, III Floor,Abhay Plaza, Above Fantoosh,Amberpet, Hyderbad - 500013, India","city":"Hyderabad"}]},{"name":"SecureNow Insurance Broker","addresses":[{"headline":"Head Office","latlong":{"lng":77.19739969999999,"lat":28.5497644},"detail":"3rd Floor, 1A Hauz Khas Village, New Delhi 110016","city":"New Delhi"}]},{"name":"SS Halcyon Investment Advisory Pvt Ltd","addresses":[]},{"name":"myFin Advisor","addresses":[{"headline":"Registered Office","latlong":{"lng":77.042014,"lat":28.4117971},"detail":"A-603, Park View City 2Sector 49, Sohna RoadGurgaon - 122001","city":"Gurgaon"}]},{"name":"MilkorWater Financial Analytics","addresses":[]},{"name":"stelcore advisors","addresses":[]},{"name":"California Coast CU","addresses":[{"headline":"Head Quarters","latlong":{"lng":-117.1326743,"lat":32.8262766},"detail":"9201 Spectrum Center BlvdCA 92123","city":"San Diego"}]},{"name":"First California Mortgage Company","addresses":[{"headline":"Head Quarters","latlong":{"lng":-122.672977,"lat":38.278025},"detail":"1435 North McDowell Blvd. Suite 300CA 94954","city":"Petaluma"}]},{"name":"Matrix Insurance Agency","addresses":[]},{"name":"Excellent money advisor","addresses":[]},{"name":"Metcon Finance","addresses":[{"headline":"CORPORATE OFFICE","latlong":{"lng":72.8092999,"lat":18.9602319},"detail":"13, N.S Patkar Marg,Kemps Corner,Mumbai &ndash; 400007","city":"mumbai"}]}],"number":44,"addresses":30}
