{"companies":[{"name":"Gamineazy Entertainment","addresses":[{"headline":"Store #2 - Kiosk","latlong":{"lng":77.5973247,"lat":12.8885565},"detail":"Third Floor, Gopalan Innovation Mall,Near Jayadeva Flyover, Bannerghatta Road, Bangalore 560076","city":"Bangalore"},{"headline":"Store #1","latlong":{"lng":77.5973247,"lat":12.8885565},"detail":"The Gamineazy Store,#22, Third Floor, Gopalan Innovation Mall,Near Jayadeva Flyover,Bannerghatta Road, Bangalore 560076","city":"Bangalore"},{"headline":"Corporate Office","latlong":{"lng":77.6997663,"lat":12.9511982},"detail":"C-217, Ittina Abha Apartments,104/3A, Munekollala Road,Marathahalli, Bangalore 560037","city":"Bangalore"}]},{"name":"IPLPOLL","addresses":[{"headline":"Design Studio","latlong":{"lng":78.5568578,"lat":17.3745831},"detail":"3-1-208/7Sowbhagya NagarHyderabad - 74","city":"Hyderabad"}]},{"name":"Play Games24x7","addresses":[]},{"name":"HashCube","addresses":[]},{"name":"Indyarocks","addresses":[{"headline":"Hyderabad","latlong":{"lng":78.486671,"lat":17.385044},"detail":"Hyderabad","city":"Hyderabad"}]},{"name":"Toufee","addresses":[{"headline":"New Delhi","latlong":{"lng":77.1159065,"lat":28.6338644},"detail":"24/B, ArjunF-Block, vikaspuriNew Delhi, 110018","city":"24/B, ArjunF-Block, vikaspuriNew Delhi, 110018"}]},{"name":"Games2Win","addresses":[{"headline":"Mumbai","latlong":{"lng":72.8087425,"lat":18.9710984},"detail":"42, Film Center,4th Floor, 68,Tardeo,Mumbai","city":"42, Film Center,4th Floor, 68,Tardeo,Mumbai"}]},{"name":"Bash Gaming","addresses":[]},{"name":"MediaNama","addresses":[{"headline":"Headquarters","latlong":{"lng":77.21722749999999,"lat":28.6765076},"detail":"20 A Rajpur RoadCivil LinesDelhi, 110054","city":"New Delhi"}]},{"name":"Istrike","addresses":[]},{"name":"GameWallah","addresses":[]},{"name":"46 Idea Street","addresses":[]},{"name":"Mega Mentis Infotech","addresses":[{"headline":"&quot;Head Office&quot;","latlong":{"lng":77.0914935,"lat":28.9285745},"detail":"Shoap No-24, 2nd Floor Subhash Chowk Sonepat","city":"Sonepat"}]},{"name":"Titip","addresses":[{"headline":"Game Lab","latlong":{"lng":77.6321339,"lat":12.9365045},"detail":"Titip Entertainment LLP218, 1st Main,7th Block,Koramangala,Bangalore - 560095","city":"Bangalore"}]},{"name":"Rhythm Labs","addresses":[{"headline":"Head Quaters","latlong":{"lng":77.5945627,"lat":12.9715987},"detail":"110, Lakshmi, Krishna Garden Main road, Krishna Garden, R V College Post, Rajarajeshwari Nagar, Bangalore 560069","city":"Bangalore"}]},{"name":"Nextwave Multimedia Pvt Ltd","addresses":[{"headline":"Chennai","latlong":{},"detail":"Nextwave Multimedia Pvt. Ltd, No.1A, 2nd Street, Dr. Tirumurthy Nagar, Nungambakkam,Chennai - 600 034, India.Tel: +91-44-28260450,42060451/52","city":"Nextwave Multimedia Pvt. Ltd, No.1A, 2nd Street, Dr. Tirumurthy Nagar, Nungambakkam,Chennai - 600 034, India.Tel: +91-44-28260450,42060451/52"}]},{"name":"PaxPlay","addresses":[]},{"name":"The Awesome Game Studio (TAGS)","addresses":[]},{"name":"Coffin Games","addresses":[]},{"name":"Funstar Studios","addresses":[]},{"name":"Rolocule Games","addresses":[{"headline":"Main Studio","latlong":{"lng":73.8095574,"lat":18.5574017},"detail":"Aundh","city":"Pune"}]},{"name":"GamesRnD","addresses":[{"headline":"HQ","latlong":{"lng":77.63885669999999,"lat":12.9783477},"detail":"Indiranagar 2nd Stage","city":"Bangalore"}]},{"name":"FunVoltage","addresses":[{"headline":"Head Quarters","latlong":{"lng":77.59919210000001,"lat":13.0267617},"detail":"#139, 3rd main, Weavers Colony, Ganganagar, Bangalore - 560032","city":"Bangalore"}]},{"name":"Artillery","addresses":[{"headline":"Artillery Games, Inc.","latlong":{"lng":-122.1430195,"lat":37.4418834},"detail":"395 Page Mill Road FL3Palo Alto, CA, 94306USA","city":"Palo Alto, CA"}]},{"name":"Junglee Rummy","addresses":[]}],"number":25,"addresses":16}
