{"companies":[{"name":"little eye labs","addresses":[{"headline":"Main Office","latlong":{"lng":77.5046101,"lat":12.7935045},"detail":"No. 96/2, 'Thunga House',First Floor, 31st Cross,Jayanagar 7th Block,Bangalore 560082","city":"Bangalore"}]},{"name":"135 Tech Labs","addresses":[{"headline":"Head Quarters","latlong":{"lng":78.486671,"lat":17.385044},"detail":"135 Tech Labs Pvt. Ltd.-1 Floor (West Wing) DHFLVC Silicon TowersKondapur, Hyderabad - 500 084Andhra Pradesh, India","city":"Hyderabad"}]},{"name":"Simplified Software Solutions (India)","addresses":[{"headline":"Head Office","latlong":{"lng":72.8776559,"lat":19.0759837},"detail":"Simplified Software Solutions (India) :7, Mangalam Society,Mamlatdar Wadi Cross Road No 6,Malad &ndash; (W),MUMBAI, Maharashtra, IndiaOff : +91-22-28808539Cell. +91-9870295810E-mail: info@smarts3.in","city":"Mumbai"}]},{"name":"SignEasy","addresses":[{"headline":"Engineering","latlong":{"lng":77.5945627,"lat":12.9715987},"detail":"","city":"Bangalore"}]},{"name":"iloho","addresses":[{"headline":"Product Development","latlong":{"lng":77.61565519999999,"lat":12.9600267},"detail":"Manipal Centre,Dickenson Road","city":"Bangalore City Centre"}]},{"name":"Citypal","addresses":[{"headline":"Head Quaters","latlong":{"lng":72.8264378,"lat":18.9954398},"detail":"A/2, Shah and Nahar Ind Est,SJ Marg, Lwoer Parel, Mumbai 400013","city":"Mumbai"}]},{"name":"Contus","addresses":[{"headline":"Mobile Application Development","latlong":{"lng":-121.976983,"lat":37.381336},"detail":"3333 Bowers Avenue,Suite 130 Santa Clara,CA 95054.","city":"Santa Clara"},{"headline":"Mobile Application Development","latlong":{"lng":80.1843804,"lat":13.0206763},"detail":"#149, 1C-1D, II Floor,Mount Poonamallaee High Road,Ramapuram,Chennai - 600 089. INDIA.","city":"chennai"}]},{"name":"Elevenity Ventures","addresses":[{"headline":"HQ","latlong":{"lng":77.55362819999999,"lat":12.9843682},"detail":"755 60 Cross5 Block RajajinagarBangalore 560010","city":"Bangalore"}]},{"name":"Valezco","addresses":[{"headline":"Corporate Office","latlong":{"lng":75.7872879,"lat":26.9124165},"detail":"S 103, Second Floor,  Rudraksh Samridhi, Mahalaxmi Nagar, Near Hotel Soni Space,Behind World Trade Park, Malviya Nagar, Jaipur (Raj) PIN - 302017","city":"Jaipur"}]},{"name":"Openxcell","addresses":[{"headline":"Head Quarters","latlong":{"lng":-73.5251253,"lat":40.7684331},"detail":"OPENXCELL INC.Woodbine Drive,Hicksville, NY 11801.Tel.: +1-888-777-4629","city":"Hicksville"}]},{"name":"Think201","addresses":[]},{"name":"Kahuna Systems","addresses":[]},{"name":"DSYN Media","addresses":[]},{"name":"Veepal IT Services Pvt. Ltd","addresses":[{"headline":"Head Quaters","latlong":{"lng":77.5945627,"lat":12.9715987},"detail":"Veepal IT Services Pvt. Ltd.Saffron Square#56, Devarabisanahalli, Varthur HobliOpp. Intel Software onOuter Ring Road, Bangalore - 560 103Karnataka, India","city":"Bangalore"}]},{"name":"ikanksha Software Pvt. Ltd","addresses":[{"headline":"Development Center","latlong":{"lng":73.8567437,"lat":18.5204303},"detail":"Office No. 14, Level 3Business Center, Hinjewadi Phase 1Pune, India","city":"Pune"}]},{"name":"Eazyswipe","addresses":[{"headline":"Head Quarter","latlong":{"lng":77.22496,"lat":28.635308},"detail":"","city":"New Delhi"}]},{"name":"foofys","addresses":[{"headline":"Head Quarters","latlong":{"lng":77.5945627,"lat":12.9715987},"detail":"Aarkay SignsM-103 3rd main East of NGEF layout  Kasturinagar Bangalore 560043India","city":"Bangalore"}]},{"name":"iPad Application Development &amp; Consultant Company - HMAD","addresses":[]},{"name":"ShepHertz","addresses":[{"headline":"Head Office","latlong":{"lng":77.0266383,"lat":28.4594965},"detail":"","city":"Gurgaon"}]},{"name":"iCoderz Solutions","addresses":[]},{"name":"Cumulations","addresses":[]},{"name":"Sumudra Technologies","addresses":[]},{"name":"PrayerApp","addresses":[]},{"name":"Rainingclouds Technologies","addresses":[{"headline":"Head Quarters","latlong":{"lng":73.7841892,"lat":18.5634571},"detail":"Anusha, Row house no 2, Opposite Orchid school, Balewadi phata, Baner,Pune, Maharashtra, India 411045","city":"Pune"}]},{"name":"Enziq Solutions Pvt. Ltd.","addresses":[]},{"name":"SmartShehar","addresses":[{"headline":"Head Quarters","latlong":{"lng":72.8492042,"lat":19.1044549},"detail":"103, Smruti, MV Pandloskar Marg, Vile Parle(E), Mumbai - 400057","city":"Mumbai"},{"headline":"Head Quarters","latlong":{"lng":72.8492042,"lat":19.1044549},"detail":"103, Smruti, MV Pandloskar Marg, Vile Parle(E), Mumbai - 400057","city":"Mumbai"}]},{"name":"Appacitive","addresses":[{"headline":"Head Quarters","latlong":{"lng":73.8918897,"lat":18.535787},"detail":"A-3 Hermes Vishal,Lane 7 Koregaon Park,Pune 411001","city":"Pune"}]},{"name":"Smacon Technologies","addresses":[{"headline":"Hack Lab","latlong":{"lng":76.26730409999999,"lat":9.9312328},"detail":"Smacon Technologies,Startup Village, Kinfra Park, Kalamasherry, Kochi","city":"Ernakulam"},{"headline":"Head Quarters","latlong":{"lng":76.35,"lat":9.95},"detail":"Smacon Technologies,West SRD,Tripunithura","city":"Ernakulam"},{"headline":"office","latlong":{"lng":76.26730409999999,"lat":9.9312328},"detail":"Startup Village,Kinfra Park,Kalamasherry,Kochi","city":"Ernakulam"}]},{"name":"PredictGaze","addresses":[{"headline":"Head Quarters","latlong":{"lng":-121.952271,"lat":37.38858099999999},"detail":"1031 Clyde Avenue, Suite #1004","city":"Santa Clara, CA"}]},{"name":"GoDB Technology","addresses":[{"headline":"Head Office","latlong":{"lng":80.249583,"lat":13.060422},"detail":"89/3, Temple ViewSanthome High RoadChennai, 600028","city":"Chennai"}]},{"name":"TeleDNA Communications","addresses":[{"headline":"Bangalore","latlong":{"lng":-98.2293421,"lat":26.2916366},"detail":"No. 23 &amp; 24, 2nd Floor, AMR Tech Park, Hosur Road, Bangalore - 560 068, Karnataka,","city":"No. 23 &amp; 24, 2nd Floor, AMR Tech Park, Hosur Road, Bangalore - 560 068, Karnataka,"}]},{"name":"Roamware","addresses":[{"headline":"Bangalore","latlong":{},"detail":"Shezan Lavelle, 15, Walton Road, Bangalore 560 001, INDIA","city":"Shezan Lavelle, 15, Walton Road, Bangalore 560 001, INDIA"}]},{"name":"Hire Mobile App Developers USA Company","addresses":[]},{"name":"Xen GlobalTech","addresses":[{"headline":"Bangalore","latlong":{"lng":77.6199608,"lat":12.9352156},"detail":"#144, 60 feet Road,KHB Colony, 5th Block,koramangala,bangalore, 560095","city":"#144, 60 feet Road,KHB Colony, 5th Block,koramangala,bangalore, 560095"}]},{"name":"Cybofix Technologies","addresses":[{"headline":"Kochi","latlong":{},"detail":"Startup Village,Kinfra Hi Tech Park,Kalamassery,Kochi 683503,Kerala","city":"Startup Village,Kinfra Hi Tech Park,Kalamassery,Kochi 683503,Kerala"}]},{"name":"Market Simplified Inc","addresses":[{"headline":"Chennai","latlong":{},"detail":"13th Floor, Zenith Building,Ascendas International Tech Park,CSIR Road, Taramani, Chennai - 600 113.","city":"13th Floor, Zenith Building,Ascendas International Tech Park,CSIR Road, Taramani, Chennai - 600 113."}]},{"name":"SyncUsUp, Inc.","addresses":[{"headline":"Corporate Office &amp; Development Center","latlong":{"lng":77.5945627,"lat":12.9715987},"detail":"","city":"Bangalore"}]},{"name":"Revu Cloud Services Pvt Ltd","addresses":[]},{"name":"Crowd Beans","addresses":[]},{"name":"MobileAppz","addresses":[]},{"name":"Vserv.Mobi","addresses":[{"headline":"Sales","latlong":{"lng":103.849632,"lat":1.283276},"detail":"3 Church Street,#08-00, Samsung Hub, Singapore 049483","city":"Singapore"},{"headline":"Sales","latlong":{"lng":0.2716829,"lat":51.1461766},"detail":"12 Silverdale Lane, Tunbridge Wells, Kent, TN4 9JAUnited Kingdom","city":"London"},{"headline":"Sales","latlong":{"lng":77.2705623,"lat":28.572572},"detail":"25, Community Center, East of Kailash, New DelhiIndia","city":"New Delhi"},{"headline":"Head Quarters","latlong":{"lng":72.8638818,"lat":19.165509},"detail":"Vserv Digital Services Pvt. Ltd.605, Eco House, Vishweshwar NagarOff. Aarey Road, Goregaon (East),400063, India","city":"Mumbai"}]},{"name":"Seven Stars Services","addresses":[]},{"name":"Demach","addresses":[{"headline":"HQ","latlong":{"lng":80.249583,"lat":13.060422},"detail":"","city":"Chennai"}]},{"name":"Gotopal","addresses":[]},{"name":"Telmoco Development Labs P Ltd","addresses":[{"headline":"Corporate Office","latlong":{"lng":76.88171539999999,"lat":8.5569835},"detail":"Thejus D, Park Centre, Technopark, Trivandrum, Kerala, India","city":"Thiruvananthapuram"}]},{"name":"Avigma Technologies","addresses":[]},{"name":"Technoscore","addresses":[]},{"name":"Heuristics Technosol","addresses":[]},{"name":"WapleStuff","addresses":[]},{"name":"Bizpunditz","addresses":[{"headline":"HQ","latlong":{"lng":72.8545019,"lat":19.1202321},"detail":"E-111, Crystal Plaza, Opp Infiniti Mall, Andheri West, Mumbai - 400053","city":"Mumbai"}]},{"name":"AdNear","addresses":[{"headline":"India Office","latlong":{"lng":77.5945627,"lat":12.9715987},"detail":"AdNear [Imere Tech]The Millenia, Level 1, Tower B#1 Murphy Road, UlsoorBangalore 560008","city":"Bangalore"}]},{"name":"iauro Systems Pvt Ltd","addresses":[{"headline":"Corporate Office","latlong":{"lng":79.9673636,"lat":18.8437824},"detail":"Lane-1 Prabhat raod","city":"Pune"}]},{"name":"MetroSmith","addresses":[]},{"name":"Bubble Motion","addresses":[{"headline":"Singapore","latlong":{},"detail":"Bubble Motion Pte. Ltd.28 Maxwell Road, #04-07Red Dot Traffic BuildingSingapore 069120","city":"Bubble Motion Pte. Ltd.28 Maxwell Road, #04-07Red Dot Traffic BuildingSingapore 069120"}]},{"name":"AirGol","addresses":[]},{"name":"Collegewires","addresses":[]},{"name":"Ambivo","addresses":[{"headline":"Head Quarters","latlong":{"lng":-122.0334167,"lat":37.2997321},"detail":"20593, Murano Cir, Cupertino, CA 95014","city":"Cupertino"}]},{"name":"Uniphore","addresses":[]},{"name":"Picovico","addresses":[]},{"name":"Amplyfy","addresses":[]},{"name":"Sound Ventures Inc.,","addresses":[]},{"name":"Zapsty","addresses":[{"headline":"Head Quarters","latlong":{"lng":72.8378281,"lat":19.1287909},"detail":"Suite 6, Meridien ApartmentsVeera Desai Road,Andheri (w)Mumbai - 400058","city":"Mumbai"}]},{"name":"Mojostreet","addresses":[]},{"name":"Livares Technologies Pvt Ltd","addresses":[{"headline":"Regional Office","latlong":{"lng":76.3434679,"lat":10.0550531},"detail":"Livares Technologies (P) Ltd,Startup VillageIndia Telecom Innovation HubKinfra Hi-Tech Park,KalamasseryCochin-683503, Kerala, India.","city":"Kochi"}]},{"name":"AstralPad","addresses":[]},{"name":"SMS TO DIARY","addresses":[{"headline":"Chennai","detail":"","city":""}]},{"name":"Habile Technologies","addresses":[{"headline":"Offshore Development Center","latlong":{"lng":80.249583,"lat":13.060422},"detail":"Habile Technologies, First Floor, Janaki Commercial Complex, L.B Road, Thiruvanmiyur,Chennai - 600041.Phone:+91 44 24415759","city":"Chennai"}]},{"name":"Unikove Technologies","addresses":[{"headline":"New Delhi NCR","latlong":{"lng":77.36761419999999,"lat":28.6024748},"detail":"B44 Sector 60NOIDA","city":"B44 Sector 60NOIDA"}]},{"name":"Plackal","addresses":[{"headline":"Head Quarters","latlong":{"lng":77.5945627,"lat":12.9715987},"detail":"Plackal, Ginserv, JSS Campus, CA Site No.1, HAL 3rd Stage,Kodihalli, Bangalore, Karnataka, India. PIN &ndash; 560 008","city":"Bangalore"}]},{"name":"Mann-India Technologies","addresses":[{"headline":"Head Quarters","latlong":{"lng":77.2376414,"lat":28.54786},"detail":"B-267a, Greater Kailash Part-I , New Delhi-110 048 , India","city":"New Delhi"}]},{"name":"SectorQube Technolabs Pvt. Ltd","addresses":[{"headline":"Head Quarters","latlong":{"lng":76.28,"lat":9.98},"detail":"SectorQube Technolabs Pvt LtdStartup VillageKinfra Hi-Tech ParkKalamasseryErnakulam, Kerala","city":"Ernakulam"}]},{"name":"Tejasco Techsoft","addresses":[{"headline":"Production office","latlong":{"lng":77.5848338,"lat":12.9236196},"detail":"#282/C, 10th Main5th Block, Jayanagar,Bangalore, India - 560 041","city":"Bangalore"}]},{"name":"Jigsee","addresses":[]},{"name":"EmobiTechnologies","addresses":[]},{"name":"Mobivite","addresses":[]},{"name":"ZSL Mobile","addresses":[{"headline":"US Headquarters","latlong":{"lng":80.249583,"lat":13.060422},"detail":"85 Lincoln HighwayEdison, NJ 088820Ph: 732-549-9770","city":"Chennai"}]},{"name":"Treetle","addresses":[{"headline":"India Head Quarters","latlong":{"lng":77.5945627,"lat":12.9715987},"detail":"","city":"Bangalore"}]},{"name":"Wiinnova Software Labs","addresses":[{"headline":"Engineering Office","latlong":{"lng":75.9368887,"lat":11.3216399},"detail":"Technology Business Incubator,The National Institute of Technology,Calicut, Kerala.","city":"Calicut"}]},{"name":"TECSOL Software","addresses":[]},{"name":"TechAhead Software","addresses":[{"headline":"Noida","latlong":{"lng":77.3811606,"lat":28.6209871},"detail":"D-49, Sector 63Noida (UP) 201301","city":"D-49, Sector 63Noida (UP) 201301"}]},{"name":"Remo Software","addresses":[]},{"name":"MobiTexter","addresses":[]},{"name":"Bitfinch Technologies","addresses":[]},{"name":"Zinghopper","addresses":[]},{"name":"PurpleTab","addresses":[{"headline":"Branch Office and Development Center","latlong":{"lng":78.1197754,"lat":9.9252007},"detail":"12, A.R.Thope First Street,Madurai, Tamilnadu 625 003","city":"Madurai"},{"headline":"Corporate Office","latlong":{"lng":77.6152987,"lat":12.9173994},"detail":"331/1, 2nd Cross, 1st Stage, 29th Main, BTM Layout,Bengaluru, Karnataka 560 068","city":"Bangalore"}]},{"name":"Mobi Brainy","addresses":[]},{"name":"All Events","addresses":[{"headline":"HeadQuarter Office","latlong":{"lng":72.55745329999999,"lat":23.0191652},"detail":"Top Floor , Rang Krupa BuildingNear Parimal Crossroads,Ahmedabad-380006","city":"Ahmedabad"}]},{"name":"Codeyssus","addresses":[]},{"name":"www.webprogr.com","addresses":[]},{"name":"Radio Flote","addresses":[]},{"name":"Palewar Techno Solutions","addresses":[]},{"name":"Helpshift","addresses":[{"headline":"R&amp;D","latlong":{"lng":73.9195883,"lat":18.5630577},"detail":"102-D, #A3, E-Space IT ParkNagar RoadPune - 411014","city":"Pune, India"},{"headline":"Headquarters","latlong":{"lng":-122.3924896,"lat":37.7816707},"detail":"300 Brannan St. #406San FranciscoCA - 94107","city":"San Francisco, CA"}]},{"name":"MintM","addresses":[{"headline":"HQ","latlong":{"lng":77.6448703,"lat":12.9180079},"detail":"#166, 19th Main, HSR layout Sector 4, Bangalore - 560102","city":"Bangalore"}]},{"name":"Mobicules","addresses":[{"headline":"Head Quarter","latlong":{"lng":77.3266991,"lat":28.5821195},"detail":"MOBICULES TECHNOLOGIESB-35, Sector-57, Noida-201301, India","city":""}]},{"name":"LoReMo Solutions","addresses":[{"headline":"Head Quarters + Engineering","latlong":{"lng":77.6494602,"lat":13.0092067},"detail":"#201, 3rd Floor, 2nd G Main Road, Kasturinagar, Bangalore, Karnataka 560043","city":"Bangalore"}]},{"name":"Brainistic Technologies Ltd","addresses":[{"headline":"Product Company","latlong":{"lng":77.5945627,"lat":12.9715987},"detail":"L 149/A, 5th main, 6th sector,3rd Floor, Fooddays Building,HSR layout, Bangalore - 560 102","city":"Bangalore"}]},{"name":"WonderBiz Technologies","addresses":[]},{"name":"dexetra","addresses":[{"headline":"Head Quarters","latlong":{"lng":77.5945627,"lat":12.9715987},"detail":"Dexetra Software Solutions Private Limited,No. 2007, Binary tree, IInd Floor, Atlantic Centre, HAL 2nd stage, 100ft road, Indranagar,Bangalore","city":"Bangalore"}]},{"name":"Kirusa","addresses":[]},{"name":"Hibiscus Technology Solutions","addresses":[{"headline":"Development Center","latlong":{"lng":77.57047709999999,"lat":12.9222764},"detail":"73/74, KR Layout, 2nd Cross, 26th Main, JP Nagar 6th Phase, Bangalore - 560078","city":"Bangalore"}]},{"name":"Pipal Tech Ventures","addresses":[]},{"name":"SourceBits","addresses":[]},{"name":"SOL Studios - Y2jisme Labs","addresses":[]},{"name":"Aurality","addresses":[{"headline":"Head quarters","latlong":{"lng":72.8776559,"lat":19.0759837},"detail":"10 Mohanlal MansionLN RoadMatunga EastMumbai - 400019","city":"Mumbai"}]},{"name":"IndiaNIC","addresses":[{"headline":"Head Quarters","latlong":{"lng":72.52639839999999,"lat":23.0170901},"detail":"201 - Dev Arc Mall, Nr. ISKCON Bridge, SG HighwayAhmedabad, Gujarat 380015","city":"Ahmedabad"}]},{"name":"Path Seventeen","addresses":[]},{"name":"Riktam Tech","addresses":[]},{"name":"AmidRay Technologies Pvt Ltd","addresses":[]},{"name":"NextGen Infotech","addresses":[{"headline":"Marketing and support","latlong":{"lng":-81.5157535,"lat":27.6648274},"detail":"Techflow80 IncSuite 2001933, Willowwood DriveKissmee, Florida-34746U.S.A.","city":"Florida"},{"headline":"Head Quarters","latlong":{"lng":77.6123841,"lat":12.9144271},"detail":"#263, 21st main, 3rd crossBTM 2nd stage, 1st PhaseBangalore-560076India.","city":"Bangalore"}]},{"name":"Snapwork","addresses":[]},{"name":"StarTele Tech","addresses":[]},{"name":"Eki Communications","addresses":[]},{"name":"Technousa Consulting Services","addresses":[{"headline":"Head Quaters","latlong":{"lng":77.1132792,"lat":28.7000856},"detail":"317 W Mall,Pearls Corporate,Rohini,Sector-3,New Delhi-110085","city":"New Delhi"}]},{"name":"ngpay","addresses":[]},{"name":"Flurry","addresses":[]},{"name":"Innoz","addresses":[{"headline":"Corporate Headquarters","latlong":{"lng":77.5945627,"lat":12.9715987},"detail":"Innoz TechnologiesBuilding no.717th Cross1st Main RoadKHB ColonyKoramangala 5th block","city":"Bangalore"}]},{"name":"Mobhero","addresses":[{"headline":"Development Headquarters","latlong":{"lng":77.5945627,"lat":12.9715987},"detail":"Mobhero Media Pvt. Ltd.Vajram Complex 17th main, 4th B block,100ft Rd, KoramangalaBangalore-560034Phone: +91(080) 41312585Fax: +91 (080) 41159767","city":"Bangalore"},{"headline":"Corporate Headquarters","latlong":{"lng":-95.6349463,"lat":29.6196787},"detail":"Mobhero, Inc.1410 Pristine WaySugar Land,Texas 77479United StatesToll: 855-MOBHEROFax: 888-967-6633","city":"Sugar Land"}]},{"name":"App Me In","addresses":[{"headline":"HQ","latlong":{"lng":77.5945627,"lat":12.9715987},"detail":"","city":"BaGALORE"}]},{"name":"Hoopz Planet Info Pvt Ltd.","addresses":[]},{"name":"Zapper","addresses":[]},{"name":"Snaplion","addresses":[]},{"name":"InVenture","addresses":[{"headline":"India Office","latlong":{"lng":77.5945627,"lat":12.9715987},"detail":"No. 469Ist Floor, 13th CrossWilson GardenBangalore-27","city":"Bangalore"}]},{"name":"Bharti Softbank (BSB)","addresses":[{"headline":"HQ","latlong":{"lng":77.0266383,"lat":28.4594965},"detail":"Until I, Signature Tower (B), Gurgaon","city":"Gurgaon"}]},{"name":"Coooolio Online Pvt. Ltd.","addresses":[{"headline":"Head Quarters","latlong":{"lng":77.5945627,"lat":12.9715987},"detail":"Cooolio Online Pvt. Ltd.#102, Raheja Chambers, #12 Museum Road,Richmond Town,Bangalore-560 001,India.","city":"Bangalore"}]},{"name":"EkSMS.com","addresses":[]},{"name":"Appszito","addresses":[]},{"name":"XLabz","addresses":[{"headline":"Head Quarters","latlong":{"lng":79.8144722,"lat":11.9138598},"detail":"","city":"Pondicherry"}]},{"name":"Deltecs InfoTech Pvt. Ltd.","addresses":[{"headline":"Main Branch","latlong":{"lng":72.8545019,"lat":19.1202321},"detail":"E-111, Crystal Plaza, Opp Infinity Mall, Andheri W, Mumbai 400053","city":"Mumbai"}]},{"name":"Zunaa Software","addresses":[]},{"name":"InCights Mobile Solutions","addresses":[{"headline":"Head Quarter","latlong":{"lng":78.4382469,"lat":17.4164707},"detail":"8-2-326/K6, Road No.3Banjara Hills.Hyderabad, AP 500034","city":"Hyderabad"}]},{"name":"Komparify","addresses":[]},{"name":"IntouchId","addresses":[]},{"name":"eYuva","addresses":[]},{"name":"inCrowd","addresses":[{"headline":"Regional Office","latlong":{"lng":72.58,"lat":23.03},"detail":"","city":"Ahmedabad"},{"headline":"Headoffice","latlong":{"lng":77.22496,"lat":28.635308},"detail":"Hauzrani Main Market, Opposite Max HospitalSaketNew Delhi","city":"Delhi"}]},{"name":"Neo Empires","addresses":[{"headline":"Head Quarters","latlong":{"lng":80.249583,"lat":13.060422},"detail":"","city":"Chennai"}]},{"name":"InMobi","addresses":[]},{"name":"Mobiotics","addresses":[{"headline":"Bangalore","detail":"","city":""}]},{"name":"Logictree IT Solutions Pvt Ltd.","addresses":[{"headline":"Bengaluru Office","latlong":{"lng":77.6628831,"lat":13.0061118},"detail":"# 3M - 219, Ambika Corner,Kasturi Nagar,Outer Ring Road,Bengaluru, India","city":"Bengaluru, India"},{"headline":"Hyderabad Office","latlong":{"lng":78.4382469,"lat":17.4164707},"detail":"Uma Aishwarya House,Rd No. 7, Banjara Hills,Hyderabad, India","city":"Hyderabad, India"},{"headline":"California office","latlong":{"lng":-121.4943996,"lat":38.5815719},"detail":"6060 Sunrise Vista Dr, Suite 2000CCitrus Heights, California 95610,Ph: 510 366 0129","city":"Sacremento, CA"}]},{"name":"AppFindy","addresses":[]},{"name":"Mink7","addresses":[{"headline":"HQ","latlong":{"lng":77.5705392,"lat":13.0027665},"detail":"12, 14th 'A' cross, GDP Ext., Bangalore - 560003","city":"Bangalore"}]},{"name":"Innoppl technologies","addresses":[{"headline":"","latlong":{},"detail":"Innoppl Technologies in India1/13 3rd Reddy street,Ekkatuthangal, Chennai 600032.9790976542","city":"Innoppl Technologies in India1/13 3rd Reddy street,Ekkatuthangal, Chennai 600032.9790976542"},{"headline":"Mobile App development Atlanta","latlong":{"lng":-84.3879824,"lat":33.7489954},"detail":"Innoppl Technologies in Atlanta3400, Peachtree Road,NESuite 649,Atlanta, GA - 30326,404-788-6332.Innoppl Technologies in San Francisco404, Bryant St,San Francisco, CA - 94107,415-738-2199.","city":"Atlanta"}]},{"name":"OnlyGizmos","addresses":[{"headline":"HQ","latlong":{"lng":72.8271764,"lat":18.9430864},"detail":"","city":"Marine Lines, Mumbai"},{"headline":"Branch","latlong":{"lng":72.805757,"lat":19.4705936},"detail":"","city":"Virar, Mumbai"}]},{"name":"Y2CF","addresses":[{"headline":"Head Quarters","latlong":{"lng":77.0967357,"lat":28.4798899},"detail":"Plot 120, 1st Floor, Institutional Area, near Ramada Gurgaon Central, Sector 44, Gurgaon 122002","city":"Gurgaon"}]},{"name":"Supr iLabs LLP","addresses":[{"headline":"Head Quarters","latlong":{"lng":78.486671,"lat":17.385044},"detail":"F8, 4th Floor,Hyderabad Business Center, Basheerbagh,Hyderabad - 500029, A.P.INDIATelefax : +91 40 66979799","city":"Hyderabad"}]},{"name":"Libero","addresses":[]},{"name":"United Mobile Apps","addresses":[]},{"name":"Touchfone Technology India Pvt. Ltd","addresses":[{"headline":"HQ","latlong":{"lng":77.5945627,"lat":12.9715987},"detail":"","city":"Bangalore"}]},{"name":"Anssoftwares","addresses":[{"headline":"Head Quaters","latlong":{"lng":78.3910691,"lat":17.4411482},"detail":"MadhapurHyderabadIndia","city":"Hyderabad"}]},{"name":"Rainingclouds Technologies","addresses":[]},{"name":"CvBhejo.com","addresses":[{"headline":"Udaipur","latlong":{},"detail":"4, Ankur Complex,Hiran Magri Sector 5Udaipur (Raj.)  - 313001","city":"4, Ankur Complex,Hiran Magri Sector 5Udaipur (Raj.)  - 313001"}]},{"name":"Rob-a-Shop","addresses":[{"headline":"R&amp;D","latlong":{"lng":73.1810976,"lat":22.3073095},"detail":"Vadodara,Gujarat, India","city":"Vadodara"}]},{"name":"MobiTrack","addresses":[{"headline":"Head Office","latlong":{"lng":77.5973247,"lat":12.8885565},"detail":"1131/240/176B, BSNL Telephone Exchange Road,Behind IIMB,Raghvendra Colony, Billekahalli, Bannerghatta Road,Bangalore-560076. India.","city":"Bangalore"}]},{"name":"Pingaala","addresses":[]},{"name":"NDOT Technologies Pvt Ltd","addresses":[{"headline":"Head Quarters","latlong":{"lng":76.9558321,"lat":11.0168445},"detail":"Block No 3, Mullai Nagar,Maruthamalai Main Road,Coimbatore - 641 041, India.","city":"Coimbatore"}]},{"name":"AapLabs","addresses":[{"headline":"Development Office","latlong":{"lng":77.1916497,"lat":28.6524435},"detail":"Karol Bagh, Delhi","city":"Delhi"}]},{"name":"Antiz technologies","addresses":[]},{"name":"Designo - Web Services","addresses":[{"headline":"HO","latlong":{"lng":72.8776559,"lat":19.0759837},"detail":"","city":"Mumbai"}]},{"name":"MobileCozy","addresses":[{"headline":"Hyderabad Office","latlong":{"lng":78.486671,"lat":17.385044},"detail":"Aasaanpay Solutions India Pvt LtdCIE, IIIT,Gachibowli, Hyderabad500032Ap, India","city":"Hyderabad"}]},{"name":"SPM Softwares &amp; Designers","addresses":[{"headline":"Head Quaters","latlong":{"lng":73.818,"lat":15.493},"detail":"","city":"Panaji"}]},{"name":"Teknowledge Mobile","addresses":[{"headline":"Development Centre","latlong":{"lng":88.348897,"lat":22.5757926},"detail":"14 NS Road. 4th Floor. Kolkata - 700001","city":"Kolkata"}]},{"name":"Royale Cheese","addresses":[]},{"name":"Doers' Guild","addresses":[]},{"name":"3DSoC Pvt. Ltd.","addresses":[]},{"name":"Mobstac","addresses":[]},{"name":"Bugle Tech","addresses":[{"headline":"Head Quarters","latlong":{"lng":72.53184019999999,"lat":23.0428569},"detail":"A/507 Smita Towers,Opp Auda Garden,Gurukul Road,Memnagar","city":"Ahmedabad"}]},{"name":"Carrot Mobiles","addresses":[]},{"name":"TeliportMe","addresses":[]},{"name":"VarNaA Studio","addresses":[]},{"name":"Snovabits Mobile Software Solutions","addresses":[{"headline":"Head Quarters","latlong":{"lng":8.539182499999999,"lat":47.3686498},"detail":"Snovabits Mobile GmbHWeidmannstrasse 13,8046 Zurich,Switzerland.E-mail : swiss@snovabits.net","city":"Zurich"}]},{"name":"ColumbusAgain","addresses":[]},{"name":"InfoStretch","addresses":[]},{"name":"TenTenTen","addresses":[]},{"name":"Ecommentor","addresses":[]},{"name":"VDime Innovative Works","addresses":[]},{"name":"Rega Interactive","addresses":[]},{"name":"webOS Nation","addresses":[]},{"name":"JiniLabs","addresses":[]},{"name":"aadhaarUp","addresses":[]},{"name":"Jaxtr","addresses":[{"headline":"Head Office","latlong":{"lng":-122.1868549,"lat":37.4509997},"detail":"855 Oak Grove Ave.Suite 100Menlo Park, CA, 94025USA","city":"Menlo Park, USA"}]},{"name":"Glassbeam, Inc.","addresses":[]},{"name":"Xora, Inc.","addresses":[{"headline":"Corporate Headquarters","latlong":{"lng":-122.0786512,"lat":37.4074345},"detail":"850 N. Shoreline Blvd.Mountain View, CA, 94043USA","city":"Mountain View, CA"},{"headline":"Midwest Office","latlong":{"lng":-93.1668858,"lat":44.8041322},"detail":"2770 Blue Water RoadSuite 400Eagan, MN, 55121USA","city":"Eagan, MN"}]},{"name":"Task.fm","addresses":[{"headline":"Head Office","latlong":{"lng":-122.0784446,"lat":37.3944033},"detail":"United States147 Castro StreetCA, USA","city":"Palo Alto, CA"}]},{"name":"Optimimo","addresses":[]},{"name":"Intalio","addresses":[]},{"name":"SayNow","addresses":[{"headline":"Headquarters","latlong":{"lng":-122.1586208,"lat":37.4491344},"detail":"555 University AvePalo Alto, CA, 94301USA","city":"Palo Alto, CA"}]},{"name":"Soh?lo","addresses":[]},{"name":"Concept.io","addresses":[{"headline":"Concept.io","latlong":{"lng":-122.1456008,"lat":37.4256415},"detail":"480 S California Ave.#104Palo Alto, CA, 94306USA","city":"Palo Alto, CA"}]},{"name":"Tech4sys Software Solutions","addresses":[]},{"name":"Openwave Messaging","addresses":[]},{"name":"Behavio","addresses":[{"headline":"HQ","latlong":{"lng":-122.0326019,"lat":37.3492097},"detail":"Sunnyvale, CA, 94087USA","city":"Sunnyvale, CA"}]},{"name":"ThreeSea Technologies (P) Ltd","addresses":[]},{"name":"AlephCloud Systems","addresses":[{"headline":"Head Office","latlong":{"lng":-121.992816,"lat":37.38424699999999},"detail":"Sunnyvale, USA530 Lakeside DriveSuite 190Sunnyvale, CA, 94085USA","city":""}]},{"name":"Hypecal","addresses":[{"headline":"Office USA","latlong":{"lng":-122.0130457,"lat":37.3834395},"detail":"440 N Wolfe Rd.Sunnyvale, CA, 94085USA","city":"Sunnyvale, USA"}]},{"name":"Weird Logics","addresses":[{"headline":"Sales Office","latlong":{"lng":-123.0209417,"lat":49.2133329},"detail":"7749 Joffre Avenue, Bumaby BC V5J3K7, Canada","city":"Vancouver"},{"headline":"Head Quarters","latlong":{"lng":77.0809093,"lat":28.4941463},"detail":"Plot No. 174 Udyog Vihar Ph-4, Gurgaon-122015, Haryana, India","city":"Gurgaon"}]},{"name":"InnoPath Software","addresses":[]},{"name":"Patterbuzz","addresses":[]},{"name":"Immortal Design","addresses":[{"headline":"Head Office","latlong":{"lng":-122.0363496,"lat":37.36883},"detail":"Headquarters955 Benecia AveSunnyvale, CA, 94085USA","city":"Sunnyvale, USA"}]},{"name":"iThoughtz","addresses":[{"headline":"Head Office","latlong":{"lng":80.249583,"lat":13.060422},"detail":"New No 26 , Burkit Road , T Nagar Chennai 600 017","city":"Chennai"}]},{"name":"image32","addresses":[{"headline":"Head Office","latlong":{"lng":-122.1821871,"lat":37.4538274},"detail":"Menlo Park Headquarters1149 Chestnut StreetSuite 10Menlo Park, CA, 94025USA","city":"Menlo Park, USA"}]},{"name":"Trafacs","addresses":[]},{"name":"Beyond the Box","addresses":[{"headline":"Head Office","latlong":{"lng":-122.1430195,"lat":37.4418834},"detail":"World HeadquartersPalo Alto, CA, 94306USA","city":"Palo Alto, CA"}]},{"name":"irisnote","addresses":[{"headline":"Head Office","latlong":{"lng":-122.2363548,"lat":37.48521520000001},"detail":"Headquarters541 Jefferson AvenueSuite 202Redwood City, CA, 94063USA","city":"redwood City, USA"}]}],"number":202,"addresses":124}
