{"companies":[{"name":"Indolite Devices Pvt Ltd","addresses":[{"headline":"Sales Office","latlong":{"lng":77.22496,"lat":28.635308},"detail":"18, Raja Garden,Opp Metro Pillar No. 381,New Delhi 110 015India","city":"New Delhi"}]},{"name":"Angel Security &amp; Intelligence Services","addresses":[{"headline":"Head Office","latlong":{"lng":77.1840845,"lat":28.6473283},"detail":"No. 353, Balmukand Khand, Giri Nagar, KalkajiNew Delhi - 110 019, Delhi, India","city":"Delhi"}]},{"name":"Entersoft Information Systems","addresses":[{"headline":"Trainings office","latlong":{"lng":78.486671,"lat":17.385044},"detail":"#105, First Floor, A-Block Ameer Estates, Beside ICICI Bank,S R Nagar Bus Stop,Near Maitrivanam,Hyderabad- 500038,Andhra Pradesh, India.","city":"Hyderabad"},{"headline":"Consulting office","latlong":{"lng":78.486671,"lat":17.385044},"detail":"2nd Floor, MIG 68Phase 1,Behind ICICI Bank, Opp:JNTU Main GateHyderabad-500072.Andhra Pradesh,India","city":"Hyderabad"}]},{"name":"Wegilant Net Solutions","addresses":[{"headline":"Head Quarters","latlong":{"lng":72.8776559,"lat":19.0759837},"detail":"Wegilant Net Solutions Pvt. Ltd.A3, Daffodil BuildingHiranandani GardensPowai - 400076Mumbai, MHIndia","city":"Mumbai"}]},{"name":"Kiva Cyber Securities","addresses":[{"headline":"Hyderabad","latlong":{"lng":78.41266,"lat":17.4877703},"detail":"Kiva Cyber Securities Pvt LtdHIG 63, Ground Floor,Near Malaysian Township Circle,KPHB 9th Phase, Hyderabad 500072","city":"Kiva Cyber Securities Pvt LtdHIG 63, Ground Floor,Near Malaysian Township Circle,KPHB 9th Phase, Hyderabad 500072"}]},{"name":"Incept","addresses":[{"headline":"Branch Office (R&amp;D)","latlong":{"lng":77.5945627,"lat":12.9715987},"detail":"520, 19th Cross, 13th A Main,Near Aurobindo School,BSK 2nd Stage,Bangalore - 560 070","city":"Bengaluru"},{"headline":"Branch Office","latlong":{"lng":77.22496,"lat":28.635308},"detail":"Vikas Deep Building, Laxminagar,New Delhi","city":"New Delhi"},{"headline":"Head Quarters","latlong":{"lng":72.8776559,"lat":19.0759837},"detail":"205, Shivam ChambersS V Road,Goregaon WestMumbai-400104","city":"Mumbai"}]},{"name":"FixNix InfoSec Solutions","addresses":[{"headline":"Corp Office","latlong":{"lng":80.148032,"lat":12.9459389},"detail":"68 Anna NagarRP Road, Chromepet","city":"Chennai"},{"headline":"US","latlong":{"lng":-74.34205720000001,"lat":40.6051934},"detail":"10 Sheryl Drive, Edison,New Jersey, United States 08820","city":"New Jersey"},{"headline":"Head Quarters","latlong":{"lng":78.486671,"lat":17.385044},"detail":"FixNix InfoSec Solutions Private Limited#304, Block 1, SMR Vinay CityMiyapur,Hyderabad, Andhra Pradesh, India 500 049Phone: +91 87 90 878 222Phone: +91 87 90 789 222","city":"Hyderabad"}]},{"name":"Packet Verify Technologies Pvt Ltd","addresses":[{"headline":"Head Office","latlong":{"lng":77.5945627,"lat":12.9715987},"detail":"No.2/3-1, 3rd Floor, 1st Main Road, &lsquo;E&rsquo; Block, 2nd Stage, Rajajinagar (Subramanyanagar)Bangalore - 560010","city":"Bangalore"}]},{"name":"Tonbo Imaging","addresses":[]},{"name":"Druva","addresses":[]},{"name":"secure.me","addresses":[{"headline":"Main Office","latlong":{"lng":11.5384231,"lat":48.1358261},"detail":"Gollierstra&szlig;e 70 A, 80339 Munich?, Germany","city":"Munich"}]},{"name":"Green Technologies Pvt. Ltd.","addresses":[{"headline":"Head Quarters","latlong":{"lng":81.2047,"lat":20.73},"detail":"C/o. Hasmukhbhai patel,Tobacco Merchant,Dist: BALODState : ChhattisgarhPin Code : 491226","city":"Balod"}]},{"name":"BioEnable Technology","addresses":[{"headline":"BioEnable Head Office","latlong":{"lng":73.91393719999999,"lat":18.5103365},"detail":"BioEnable Technologies Pvt. Ltd.Office No. 203, 2nd Level,Cyber City Tower S4Magarpatta City, Hadapsar,Pune-411013, MH, India","city":"Pune"}]},{"name":"InstaSafe","addresses":[{"headline":"Head Quarters","latlong":{"lng":77.6147013,"lat":12.9112938},"detail":"2nd Floor, House No.1,3rd Cross, 29th Main,BTM Layout 2nd StageBangalore &ndash; 560076","city":"Bangalore"}]},{"name":"ankhorus","addresses":[{"headline":"head quarters","latlong":{"lng":77.07194849999999,"lat":28.5075179},"detail":"plot no 28, udyog vihar, phase 1, gurgaon 122001, haryana","city":"gurgaon"}]},{"name":"Secpanel","addresses":[]},{"name":"United Linkers","addresses":[]},{"name":"Nok Nok Labs","addresses":[{"headline":"Head Office","latlong":{"lng":-122.1044987,"lat":37.4169336},"detail":"Palo Alto, USA4151 Middlefield RoadSuite 200 Palo Alto, CA, 94303USA","city":"Palo Alto, CA"}]},{"name":"Agari Data","addresses":[{"headline":"Head Office","latlong":{"lng":-122.1584716,"lat":37.4467574},"detail":"Palo Alto, USA400 Hamilton Avenue4th floorPalo Alto, CA, 94301USA","city":"Palo Alto, CA"}]},{"name":"Narus","addresses":[{"headline":"Corporate Headquarters","latlong":{"lng":-122.0388629,"lat":37.3930059},"detail":"570 Maude Court Sunnyvale, CA, 94085USA","city":"Sunnyvale, CA"}]},{"name":"Voltage Security","addresses":[{"headline":"Head Office","latlong":{"lng":-122.0321823,"lat":37.3229978},"detail":"HQ20400 Stevens Creek Blvd.Suite 500Cupertino, CA, 95014USA","city":"Cupertino, CA"}]},{"name":"SST Inc. (Formerly ShotSpotter)","addresses":[]},{"name":"Audney Inc","addresses":[]},{"name":"SmartSignin Inc.","addresses":[{"headline":"Head Office","latlong":{"lng":-79.3597702,"lat":43.6581406},"detail":"465 Shuter Street,Toronto, Ontario - m5a1x4,Canada","city":"Toronto, Canada"},{"headline":"Engineering Office","latlong":{"lng":77.2232709,"lat":28.5608353},"detail":"C-55, Lower Ground Floor, South Extension Part-2, New Delhi - 110049","city":"New Delhi"}]},{"name":"VeriSign Authentication Services","addresses":[{"headline":"HQ","latlong":{"lng":-122.0542436,"lat":37.395969},"detail":"487 East Middlefield RoadMountain View, CA, 94043USA","city":"Mountain View, CA"}]},{"name":"Guardian Analytics","addresses":[{"headline":"Head office","latlong":{"lng":-122.1077018,"lat":37.4000571},"detail":"2465 Latham StreetSuite 200Mountain View, CA, 94040USA","city":"Mountain View, CA"}]},{"name":"Ingrian Networks","addresses":[{"headline":"Head Office","latlong":{"lng":-122.228109,"lat":37.494219},"detail":"Redwood City, USA350 Convention WayRedwood City, CA, 94063-1405USA","city":"redwood City, USA"}]},{"name":"AnchorFree","addresses":[{"headline":"Head Office","latlong":{"lng":-122.0530182,"lat":37.4013357},"detail":"Mountain View, USA450 National AvenueMountain View, CA, 94043-2238USA","city":""}]},{"name":"iControl Networks","addresses":[{"headline":"Head Office","latlong":{"lng":-122.2363548,"lat":37.48521520000001},"detail":"HQ555 Twin Dolphin Drive Suite 280Redwood City, CA, 94065USA","city":"redwood City, USA"}]}],"number":29,"addresses":29}
