{"companies":[{"name":"Againn","addresses":[{"headline":"Head Quarters","latlong":{"lng":77.6997663,"lat":12.9511982},"detail":"905- RV - Marathahalli","city":"Bangalore"}]},{"name":"Keyah Nutrition &amp; Wellness","addresses":[{"headline":"Base Kitchen","latlong":{"lng":77.3811606,"lat":28.6209871},"detail":"C-269 (First Floor), Sector-63, Noida","city":"Noida"}]},{"name":"Black &amp; White Aventura","addresses":[{"headline":"Sales Office","latlong":{"lng":72.8776559,"lat":19.0759837},"detail":"Unit No 11, Elco Arcade, Near Globus, Hill Road, Bandra West, Mumbai 50.Landline: 02226433442 / 02226433492","city":"Mumbai"},{"headline":"Head Office","latlong":{"lng":72.8776559,"lat":19.0759837},"detail":"Unit No 144, Galleria, Hiranandani Powai, Opp KFC &amp; Costa Coffee, Mumbai 400076","city":"Mumbai"}]},{"name":"Ikube technologies","addresses":[{"headline":"US Office","latlong":{"lng":-74.00597309999999,"lat":40.7143528},"detail":"","city":"New York"},{"headline":"Engineering Office","latlong":{"lng":72.8697339,"lat":19.113645},"detail":"Andheri, Mumbai","city":"Mumbai"}]},{"name":"AMBER IT MINDS","addresses":[{"headline":"Head Quarters","latlong":{"lng":77.5945627,"lat":12.9715987},"detail":"#132, 15thmain, 3rd cross,koramangale, 4th block  Bangalore 560034www.amberitmind.com,www.amberitminds.bize mails us at :info@amberitminds.netcontact ; 9900480246/080 40943293","city":"Bangalore"}]},{"name":"Zestwings Informatics Pvt.Ltd.","addresses":[{"headline":"Zestwings Campus","latlong":{"lng":120.9818919,"lat":14.6385697},"detail":"#12-2-39/A/30,2&amp;3 Floors,Nizam Plaza,Mehdipatnam,Hyderabad - 500028.Phone: (0) +91 40 65246700","city":"Hyderabad"}]},{"name":"Ladybird Web Solution","addresses":[{"headline":"Registered Office","latlong":{"lng":74.93255789999999,"lat":32.6556134},"detail":"F-152, Sector-11,Nanak Nagar,Jammu - 180004J&amp;K","city":"Jammu"},{"headline":"Head Office","latlong":{"lng":77.5973247,"lat":12.8885565},"detail":"Century Paradise, No:D-302, 115/3, Tejaswani Nagar, Dodda Kammanahalli, Bannerghatta Road, Bangalore-560076.","city":"Bangalore"}]},{"name":"Planman Marcom","addresses":[{"headline":"Corporate Office","latlong":{"lng":72.8776559,"lat":19.0759837},"detail":"Planman Marcom Private Limited2nd floor,Junction of S.V Road and 32nd Road,Bandra,Mumbai-50","city":"Mumbai"}]},{"name":"Meilleursoft","addresses":[{"headline":"Registered Office","latlong":{"lng":80.1833611,"lat":13.0277703},"detail":"Plot 9, Flat 5, Sri Karpagambal Nagar, Valluvar Salai, Ramapuram, Chennai &ndash; 600089","city":"Chennai"}]},{"name":"Kent Food Industry","addresses":[{"headline":"Main Office","latlong":{"lng":72.58,"lat":23.03},"detail":"Plot No. 623, Phase - 4, G. I. D. C., Gayatri Mandir Road, Naroda - 382330, Gujarat, +(91)-(79)-22818160","city":"Ahmedabad"}]},{"name":"Tonic Media","addresses":[{"headline":"Head Quarters","latlong":{"lng":72.83677759999999,"lat":19.1875158},"detail":"403 / 404, Kalpataru Plaza, Chincholi Bunder Road, Off S.V. Road, Malad (West), Mumbai - 400064","city":"Mumbai"},{"headline":"Head Quarters","latlong":{"lng":55.1348694,"lat":25.0772222},"detail":"Tonic MediaPO Box 487177, Unit P12 Rimal, The Walk, Jumeirah Beach Residence,Dubai","city":"Dubai"}]},{"name":"Maycoach Careers &amp; Recruitment","addresses":[{"headline":"Registered Office","latlong":{"lng":77.5819904,"lat":12.9070027},"detail":"#744, 1st Floor, 14th Cross,Near 32 Main, JP Nagar 1st Phase, Bangalore-560078, Karnataka","city":"Bangalore"}]},{"name":"HIGHBRO INTERACTIVE PVT. LTD.","addresses":[{"headline":"Head Quarters","latlong":{"lng":88.36389500000001,"lat":22.572646},"detail":"","city":"Kolkata"}]},{"name":"Airborne International Courier","addresses":[{"headline":"Mumbai","latlong":{"lng":75.7138884,"lat":19.7514798},"detail":"No. 196 - A, Tara House, 2nd Floor, Cavel Cross Lane No. 8, Dr. Viegas Street, Chira BazarMumbai - 400 002, Maharashtra, India","city":"No. 196 - A, Tara House, 2nd Floor, Cavel Cross Lane No. 8, Dr. Viegas Street, Chira BazarMumbai - 400 002, Maharashtra, India"}]},{"name":"MyDiscountHero","addresses":[]},{"name":"Rapid Value","addresses":[{"headline":"India Office","latlong":{"lng":76.26730409999999,"lat":9.9312328},"detail":"3C, 3rd floor, Phase 2, Leela Infopark, Kakkanad, Kochi, 682030. India.Ph: +91 484 4117","city":"Kochi"}]},{"name":"YNew","addresses":[{"headline":"Pilot Store","latlong":{"lng":-86.8596812,"lat":21.1457261},"detail":"3-6-517/4&amp;5 PartSai Datta ArcadeStreet No:6Himayath NagarHyderabad, Andhra Pradesh 500029","city":"Hyderabad"}]},{"name":"Linear Floor Protections","addresses":[{"headline":"Head Office","latlong":{"lng":77.4730653,"lat":28.6733303},"detail":"S. H. No. 66, Shastri NagarGhaziabad - 201002, Uttar Pradesh, India","city":"Ghaziabad"}]},{"name":"Seven Boats Info-System","addresses":[{"headline":"Corporate Office","latlong":{"lng":88.4030629,"lat":22.5948582},"detail":"AC 147, Sector#1, Saltlake,Kolkata - 700064","city":"Kolkata"}]},{"name":"NIchehire","addresses":[{"headline":"Main office","latlong":{"lng":78.41266,"lat":17.394595},"detail":"Dream Valley, #5, Sheikpet,Hyderabad - 500008, India","city":"Hyderabad"}]},{"name":"Micro Max Clean Air Equipments","addresses":[{"headline":"Head Office","latlong":{"lng":75.7138884,"lat":19.7514798},"detail":"No. 216, F - Wing, Sharad Industrial Estate, Lake Road, Near Bhandup, Police Station, Bhandup West - 400 078, Maharashtra, India","city":"Mumbai"}]},{"name":"Trinitys Clearing And Shipping Agencies","addresses":[{"headline":"Chennai","latlong":{"lng":80.289565,"lat":13.0963572},"detail":"No. 30, Thambu Chetty Street, 2nd FloorChennai - 600001, Tamil Nadu, India","city":"No. 30, Thambu Chetty Street, 2nd FloorChennai - 600001, Tamil Nadu, India"}]},{"name":"Marriage Cards India","addresses":[{"headline":"Retail Showroom","latlong":{"lng":75.7872879,"lat":26.9124165},"detail":"Readiprint Arvind Marg,M. I. Road,Jaipur - 302001Rajasthan, India","city":"Jaipur"}]},{"name":"AMMAF","addresses":[{"headline":"Head Office","latlong":{"lng":71.1923805,"lat":22.258652},"detail":"4/5008-9, Tower Road, Zampa Bazar, Opp. Bansal Mohalla  - 395 003, Gujarat, India","city":"Surat"}]},{"name":"Aegis InfraSolutions Pvt. Ltd..","addresses":[{"headline":"Navi Mumbai","latlong":{"lng":73.00205849999999,"lat":19.0611138},"detail":"No. C - 16, Shah Complex - 1, Palm Beach RoadSector- 13, Sanpada, Navi Mumbai - 400 705Maharashtra, India","city":"No. C - 16, Shah Complex - 1, Palm Beach RoadSector- 13, Sanpada, Navi Mumbai - 400 705Maharashtra, India"}]},{"name":"Atarkya Creatives","addresses":[{"headline":"Head Office","latlong":{"lng":72.8776559,"lat":19.0759837},"detail":"A/402 Rosebud Cooperative SocietyOff Ceaser Road Amboli Andheri(West)Mumbai400053","city":"Mumbai"}]},{"name":"Print Week India","addresses":[{"headline":"Print Week India","latlong":{"lng":77.1890188,"lat":28.6546905},"detail":"B- 92 Nehru Nagar, Near Jain Temple","city":"Jaipur"}]},{"name":"DabbaDolls","addresses":[{"headline":"Mumbai","latlong":{"lng":72.89635679999999,"lat":19.0327996},"detail":"Chembur, Mumbai","city":"Chembur, Mumbai"}]},{"name":"TommyJams","addresses":[{"headline":"Bangalore","detail":"","city":""}]},{"name":"Web SEO Services","addresses":[{"headline":"Head Quarter","latlong":{"lng":73.0117476,"lat":19.0640056},"detail":"F-33 Vrindavan, Sector-4, Sanpada,Navi-Mumbai - 400705","city":"Mumbai"}]},{"name":"Onsite Electro Services","addresses":[{"headline":"HQ","latlong":{"lng":72.8545019,"lat":19.0627565},"detail":"Bandra (East), Opp MIG Cricket Club","city":"Mumbai"}]},{"name":"Sartaj Utility Services","addresses":[{"headline":"Head Office","latlong":{"lng":76.085601,"lat":29.0587757},"detail":"GF-132-E, E, Sushant, Shopping ArcadeSushant Lok, Phase-1Gurgaon - 122 002, Haryana, India","city":"Gurgaon"}]},{"name":"Jobma","addresses":[{"headline":"Head Quarters","latlong":{"lng":-93.36017400000001,"lat":44.969995},"detail":"6311 Wayzata Blvd STE 150Minneapolis, MN 55416","city":"Minneapolis"}]},{"name":"SAROJ A D CREATORS (IND) PRIVATE LIMITED","addresses":[{"headline":"Chennai","latlong":{"lng":80.2683718,"lat":12.9994791},"detail":"No. 46/40, Le Royal Kshetra, 2nd Floor, M. G. R. Road, Kalakshetra Colony, Besant NagarChennai - 600090, Tamil Nadu, India","city":"No. 46/40, Le Royal Kshetra, 2nd Floor, M. G. R. Road, Kalakshetra Colony, Besant NagarChennai - 600090, Tamil Nadu, India"}]},{"name":"KiloBytes Technologies","addresses":[{"headline":"Mumbai","latlong":{"lng":72.8581743,"lat":19.0192735},"detail":"264/7 Panchseel, Opp Sion Hosp.,Sion West,Mumbai - 400022","city":"264/7 Panchseel, Opp Sion Hosp.,Sion West,Mumbai - 400022"}]},{"name":"Tarams Technologies","addresses":[{"headline":"Head Quarters","latlong":{"lng":77.6278377,"lat":12.9264123},"detail":"Venus Buildings,2nd Floor, 1/2,3rd Main,Kalyanamantapa Road, Jakasandra, 1st Block Kormangala,Bangalore - 560034","city":"Bangalore"}]},{"name":"Rightwaay Talent Consulting","addresses":[]},{"name":"sosmartrack","addresses":[{"headline":"Corporate office","latlong":{"lng":80.249583,"lat":13.060422},"detail":"No : 28, Vigneshwara Street,Ganesh Nagar,(off:Cart Track Road)Guindy, Chennai-600 032, India.Telephone: +91-44-4355 7729","city":"Chennai"}]},{"name":"Timelabs","addresses":[{"headline":"CYNOSURE TECHNOLOGIES PVT. LTD.","latlong":{"lng":75.7872879,"lat":26.9124165},"detail":"164, Shyam Path, Chitrakoot Marg Behind Bharat Apartments,Vidyut nagar - C,Vaishali Nagar, Jaipur - 302 021","city":"Jaipur"}]},{"name":"Scroll Wedding Invite","addresses":[{"headline":"Scroll Wedding Cards","latlong":{"lng":75.8098141,"lat":26.9173488},"detail":"Readiprint InternationalNarsingh complex, Near Rajmandir Cinema, M.I. Road, Jaipur 302001 India","city":"Jaipur"}]},{"name":"Jaipur Printers","addresses":[{"headline":"Jaipur Printers Pvt. Ltd","latlong":{"lng":75.7872879,"lat":26.9124165},"detail":"Jaipur Printers Pvt. Ltd.Opposite Indian CoffeeHouse Mirza Ismail Road,Jaipur-302 001, INDIA","city":"Jaipur"}]},{"name":"GO TRY","addresses":[{"headline":"Head Quarters","latlong":{"lng":77.09961299999999,"lat":28.6665333},"detail":"A53, FIEE Complex, Okhla Phase II, New Delhi 110063","city":"New Delhi"}]},{"name":"Geospatial Operations and Consulting (GeoSpoc)","addresses":[]},{"name":"Data Entry India","addresses":[{"headline":"Head Office","latlong":{"lng":71.1923805,"lat":22.258652},"detail":"Hi-Tech House,B/H V-Murti Complex,Near Gurukul Tower,Gurukul,Ahmedabad-380 052,Gujarat, India","city":"Ahmedabad"}]},{"name":"Royal Scroll Invitaions","addresses":[{"headline":"Scroll Wedding Cards","latlong":{"lng":75.8098141,"lat":26.9173488},"detail":"Readiprint InternationalNarsingh complex, Near Rajmandir Cinema, M.I. Road, Jaipur 302001 India","city":"Jaipur"}]},{"name":"Designer Wedding Invite","addresses":[{"headline":"Indian Wedding Cards","latlong":{"lng":75.7872879,"lat":26.9124165},"detail":"Readiprint Arvind MargM. I. Road, Jaipur - 302001Rajasthan, India","city":"Jaipur"}]},{"name":"Capital Numbers","addresses":[{"headline":"Head Office","latlong":{"lng":88.43890069999999,"lat":22.5763954},"detail":"EN 66, Floor 3 - 4Salt Lake City, Sector VKolkata, West Bengal 700091India","city":"Kolkata"}]},{"name":"Accendo Technologies","addresses":[{"headline":"Head Quarters","latlong":{"lng":-117.2343879,"lat":32.881624},"detail":"601 &amp; 602, Level 6, Wing 1, Block D, Cyber Gateway, Hyderabad - 500081","city":"Hyderabad"}]},{"name":"Delhi Press","addresses":[{"headline":"Head Office","latlong":{"lng":77.2101314,"lat":28.6514036},"detail":"E-3, Jhandewala EstateNew Delhi-110055, India","city":"New Delhi"}]},{"name":"Process Masters Equipment [I]","addresses":[{"headline":"Head office","latlong":{"lng":73.8124984,"lat":18.6239079},"detail":"Plot No. 37/1, Block F-II, M. I. D. C. PimpriPune, Maharashtra - 411 018, India","city":"Pune"}]},{"name":"Elegant Natural Stones","addresses":[]},{"name":"Klempz Creative Solutions Pvt. Ltd.","addresses":[]},{"name":"The Pearl Source","addresses":[]},{"name":"Troopix Solution","addresses":[{"headline":"Head Office","latlong":{"lng":88.36389500000001,"lat":22.572646},"detail":"Salt Lake Sector 2, Near 206 Bus Stand, Kolkata, West Bengal, India, Pincode - 700091","city":"Kolkata"}]},{"name":"24/7 Innovation Labs","addresses":[]},{"name":"iYogi","addresses":[{"headline":"Office","latlong":{"lng":77.4059616,"lat":28.5008116},"detail":"Oxygen Park (SEZ), Plot No. 7, Sector 144 Noida Expressway New Okhla Industrial Development Area, Uttar Pradesh 201301?","city":"Noida India"},{"headline":"Head Quarter","latlong":{"lng":77.0902361,"lat":28.497279},"detail":"DLF Building No. 6. Tower C, Cyber City Gurgaon - 122002, Haryana, India","city":"Gurgaon"}]},{"name":"EasyFix Solutions","addresses":[{"headline":"Head Office","latlong":{"lng":77.1506734,"lat":28.6922224},"detail":"610, 6th Floor, Pearls Omaxe, Tower 2, Netaji Subhash Place, Pitampura, New Delhi, 110034, India.","city":"New Delhi"}]},{"name":"REI Electronics","addresses":[{"headline":"Mysore","latlong":{"lng":76.6094997,"lat":12.3478663},"detail":"No 323/C, Hebbal Industrial Area,Hebbal, Mysore 570018 Karnataka,","city":"No 323/C, Hebbal Industrial Area,Hebbal, Mysore 570018 Karnataka,"}]},{"name":"om.a","addresses":[{"headline":"Head Office","latlong":{"lng":77.3910265,"lat":28.5355161},"detail":"i2k2 Networks Pvt Ltd.D 37, Sec-63,NOIDA-201301UP, India","city":"NOIDA"}]},{"name":"Zenfosystems IT Services","addresses":[{"headline":"Head Quarter","latlong":{"lng":77.03917539999999,"lat":28.6349043},"detail":"31 B, Linen Arcade, M.Pur, Bhikaji Cama Place, New Delhi - 110066","city":"New Delhi"}]},{"name":"Primex Clothings Private Limited","addresses":[]},{"name":"IP Galaxy Services","addresses":[{"headline":"India Operations Center","latlong":{"lng":77.45375779999999,"lat":28.6691565},"detail":"A-479, First Floor,VijayNagar Market Complex, Ghaziabad,National Capital Region (NCR) DelhiINDIA201009Phone : +919899373008Email: info@ipgalaxy.in","city":"Ghaziabad"}]},{"name":"Chambers of Justice","addresses":[{"headline":"Chambers of Justice Law Offices","latlong":{"lng":77.2333304,"lat":28.6091153},"detail":"Chamber 592, 2ND Floor,Patiala House Courts,Near India Gate,New Delhi - 110001","city":"New Delhi"},{"headline":"Chambers of Justice Law Offices","latlong":{"lng":77.21613900000001,"lat":28.517853},"detail":"CHAMBER 517, 5TH FLOOR, SAKET COURT, NEW DELHI -110017","city":"New Delhi"}]},{"name":"Sasedeve Consulting","addresses":[{"headline":"Head Quarters","latlong":{"lng":77.5945627,"lat":12.9715987},"detail":"","city":"BANGALORE"}]},{"name":"VCS Technologies","addresses":[{"headline":"IT Solutions/ IT Portfolio Management","latlong":{"lng":77.2139292,"lat":28.5477546},"detail":"252-A/2,First Floor,Opp. Pancheel Park Complex,Shahpur Jat,Delhi-110049","city":"Delhi-NCR"}]},{"name":"ZipQuote.com","addresses":[]},{"name":"Cognus Technology","addresses":[]},{"name":"Designflyover (DFO)","addresses":[{"headline":"Design Office","latlong":{"lng":72.9091436,"lat":19.1153798},"detail":"24, Grace Dieu, Powai Park, High Street, Lane Opp D-Mart, Hiranandani Gardens, Powai, Mumbai - 400076","city":"Mumbai"}]},{"name":"Ek Titli","addresses":[{"headline":"Pune","latlong":{"lng":73.8567437,"lat":18.5204303},"detail":"Opp Sujay Gardens,34 Mukundnagar,Pune &ndash; 37","city":"Opp Sujay Gardens,34 Mukundnagar,Pune &ndash; 37"}]},{"name":"Meal On Call","addresses":[{"headline":"Food Order Managing Center","latlong":{"lng":83.31881229999999,"lat":17.722649},"detail":"MTM Group, 10-1-43, Siripuram Fort, Siripuram, Vizag","city":"visakhapatnam"}]},{"name":"Bionics Advanced Filtration Systems","addresses":[{"headline":"Delhi","latlong":{},"detail":"314 - 316 Vardhman Capital Mall, LSC-10. Sindhora Kalan (Near Shakti Nagar)","city":"314 - 316 Vardhman Capital Mall, LSC-10. Sindhora Kalan (Near Shakti Nagar)"}]},{"name":"Opal Infotech","addresses":[]},{"name":"Linktons","addresses":[]},{"name":"Germiclean","addresses":[]},{"name":"A.Q.B Group","addresses":[{"headline":"Head quarters","latlong":{"lng":77.59781869999999,"lat":12.9711758},"detail":"Raja Sabha#35 , Kasturba Cross road,off lavelle road,Bangalore - 560001","city":"Bangalore"}]},{"name":"Ask Datatech","addresses":[]},{"name":"PROFICIENT CORPORATE SERVICES","addresses":[{"headline":"Head Office","latlong":{"lng":72.558932,"lat":23.0409296},"detail":"305, Neelkamal Complex, B/s Railway Track, Near Havmor Restaurant, Navrangpura, Ahmedabad","city":"Ahmedabad"}]},{"name":"Monteage Services","addresses":[]},{"name":"Ostyra Labs","addresses":[]},{"name":"Vinacle Solutions","addresses":[]},{"name":"NiiDTechnologies","addresses":[{"headline":"Development Center","latlong":{"lng":73.8830701,"lat":18.5263773},"detail":"No2 Damco Society, Lane D, Koregoan Park, Pune, Maharashtra 411001","city":"Pune"},{"headline":"Headquarters","latlong":{"lng":-87.6297982,"lat":41.8781136},"detail":"939 W North Ave, Suite 750Chicago, IL, 60642(312)489-8070","city":"Chicago"}]},{"name":"Integrated Device Technology","addresses":[]},{"name":"Imager Technologies","addresses":[]},{"name":"Array MediaGraphics &amp; Systems","addresses":[]},{"name":"Business Law Chamber","addresses":[{"headline":"Consulting","latlong":{"lng":77.2189594,"lat":28.5647271},"detail":"C-42, South Extension, Part-2, New Delhi, India","city":"New Delhi"}]},{"name":"Web IT Experts","addresses":[{"headline":"Noida","latlong":{},"detail":"A - 7/23, Ground Floor,Sector - 16NOIDA-201301","city":"A - 7/23, Ground Floor,Sector - 16NOIDA-201301"}]},{"name":"PunjabJewellers","addresses":[{"headline":"Jewellery Showroom","latlong":{"lng":75.8577258,"lat":22.7195687},"detail":"6,7,8, Shehnai ResidencyA.B. Road","city":"indore"}]},{"name":"BlueCouch Marketing","addresses":[{"headline":"Head Quarters","latlong":{"lng":77.5945627,"lat":12.9715987},"detail":"21, 1st Main, 2nd Cross, Muneshwara Nagar,Padmanabhanagar, Bangalore &ndash; 560 061","city":"Bangalore"}]},{"name":"People For Brands","addresses":[]},{"name":"Gaurish Technologies","addresses":[{"headline":"Head Office","latlong":{"lng":77.5945627,"lat":12.9715987},"detail":"A - 002 Ambience Diva,Sarjapur Road, BalendurBangalore KarnatakaPin: 560102","city":"Bangalore"},{"headline":"Development Center","latlong":{"lng":78.18283079999999,"lat":26.2182871},"detail":"152 - Sharda ViharNear New High CourtCity Center GwaliorPin: 474005","city":"Gwalior"}]},{"name":"CouponCenter.in","addresses":[]},{"name":"Online Cinema Talkies","addresses":[{"headline":"Registered Office","latlong":{"lng":78.4982741,"lat":17.4399295},"detail":"315, Block No.5Manasaraovar Heights - 3Sai Sagar Enclave,Manovikas Nagar, Secunderabad - 500 009Andhra Pradesh, INDIA","city":"Secunderabad"}]},{"name":"sethi &amp; sethi's corporation","addresses":[{"headline":"Head Quarter","latlong":{"lng":77.55,"lat":29.9667},"detail":"#317,community centre lane, awas vikas hari mandir road, saharanpur up","city":"SAHARANPUR"}]},{"name":"Tomato","addresses":[]},{"name":"Vrinsoft Technology Pvt. Ltd","addresses":[]},{"name":"YNG Media","addresses":[{"headline":"Head Office","latlong":{"lng":77.1894934,"lat":28.5411219},"detail":"125 C, Basement,Katwaria Sarai","city":"New Delhi"}]},{"name":"ilinksinfotech","addresses":[{"headline":"Head Quarters","latlong":{"lng":77.5945627,"lat":12.9715987},"detail":"#53/41, 8th mainDwaraka NagarBanashankari 3rd stageBangaluru","city":"Bangalore"}]},{"name":"GLADDEN TOURISM CORPORATION","addresses":[{"headline":"Registered Office","latlong":{"lng":76.6250168,"lat":27.5609324},"detail":"gladden tourism corporation pvt.ltd212,shanti kunj,alwarRajasthan301001","city":"Alwar"}]},{"name":"Universal Designovation Lab","addresses":[{"headline":"Design Studio","latlong":{"lng":71.1923805,"lat":22.258652},"detail":"Universal Designovation Lab LLP.27-Ajanta Park,Sadhu Vaswani School Road,University Road, Rajkot 360 005,Gujarat (India).","city":"Rajkot"}]},{"name":"Mithcon Infosol","addresses":[{"headline":"Corporate Office","latlong":{"lng":75.7138884,"lat":15.3172775},"detail":"SG-04, Innovative Natura, Puttenahalli, Yellahanka,Bangalore, Karnataka, India Postal Code: 560 064","city":"Bangalore"}]},{"name":"Cross Roads Consultancy Services","addresses":[]},{"name":"Esquvi Technologies Pvt Ltd","addresses":[]},{"name":"Timesaverz.com","addresses":[{"headline":"Headquarters","latlong":{"lng":72.8776559,"lat":19.0759837},"detail":"","city":"Mumbai"},{"headline":"Head Quarters","latlong":{"lng":72.8776559,"lat":19.0759837},"detail":"","city":"Mumbai"}]},{"name":"2SoftSolutions","addresses":[{"headline":"Delhi Branch","latlong":{"lng":77.10177089999999,"lat":28.6975436},"detail":"Secot-2, New Delhi","city":"Delhi"},{"headline":"Pune Branch","latlong":{"lng":73.8474647,"lat":18.5308225},"detail":"Shivaji Nagar, Pimpari, Pune","city":"Pune"},{"headline":"HO","latlong":{"lng":72.86595969999999,"lat":19.0985017},"detail":"Sahar Road, Andheri (E)Mumbai-400069","city":"Mumbai"}]},{"name":"Shriv Commedia Solutions","addresses":[{"headline":"Noida","latlong":{"lng":77.37704099999999,"lat":28.538979},"detail":"D-100, Sector-63, Noida(NCR)","city":"D-100, Sector-63, Noida(NCR)"}]},{"name":"commercepundit","addresses":[{"headline":"India Office","latlong":{"lng":72.58,"lat":23.03},"detail":"4/B Vardan, Nr. Vimal House, Stadium Road,Navarangpura, Ahmedabad &ndash; 380009","city":"Ahmedabad"}]},{"name":"FORM SPACE &amp; DESIGN PROJECTS LLP","addresses":[{"headline":"architecture | engineering | interior design | real estate development","latlong":{"lng":-0.8992488,"lat":54.5688617},"detail":"O F F I C EThe firm&rsquo;s office is a well located, equipped and technology enabled space which contains and supports the team in all aspects:address: FORM SPACE &amp; DESIGN PROJECTS LLP                 #862,6th cross,6th block,Koramangala ,Bangalore-560095phone:   +91-80-25533555  :   +91-9845026187email :   vishal@formspacedesign.com : meera@formspacedesign.com website : www.formspacedesign.com","city":"Bangalore - Karnataka"}]},{"name":"Megafore Technologies","addresses":[{"headline":"Head Quarters","latlong":{"lng":78.486671,"lat":17.385044},"detail":"Megafore Technologies Pvt. Ltd.1st Floor, Mid Town Plaza, Road No 1, Banjara Hills, Hyderabad-500033 Andhra Pradesh, India.Phone: +91 9703355733Customer Care no: +91 77 99 93 94 95E-mail: contactus@megafore.com","city":"Hyderabad"}]},{"name":"Maji Global","addresses":[{"headline":"Corporate Office","latlong":{"lng":-71.6101011,"lat":44.3731103},"detail":"Whitefield.","city":"Bangalore"}]},{"name":"El Gibbor Human Resources","addresses":[{"headline":"Manpower Consultancy","latlong":{"lng":77.5945627,"lat":12.9715987},"detail":"No 8,Prakruthi LayoutBabusapaylaBangalore 560043","city":"Bangalore"}]},{"name":"Global Jobs Network","addresses":[{"headline":"Head Quarters","latlong":{"lng":77.2419522,"lat":28.5755205},"detail":"G 45 LGF Lajpat Nagar I New Delhi 110024","city":"New Delhi"}]},{"name":"G.K.Vale","addresses":[{"headline":"Bangalore","latlong":{"lng":77.607682,"lat":12.9743213},"detail":"206, 2nd Floor,Brigade Gardens,19, Church Street,Bangalore - 560 001","city":"206, 2nd Floor,Brigade Gardens,19, Church Street,Bangalore - 560 001"}]},{"name":"Sense Business","addresses":[{"headline":"Head Office","latlong":{"lng":78.41266,"lat":17.4877703},"detail":"MIG-506, 3rd Phase, KPHB Colony, Kukatpally, Hyderabad, AP, India-500072.","city":"Hyderabad"}]},{"name":"Klaxon IT","addresses":[{"headline":"Hyderabad","latlong":{"lng":78.449035,"lat":17.425973},"detail":"no 69 3rd streetNagarjuna hillsHYDERABAD, 500080","city":"no 69 3rd streetNagarjuna hillsHYDERABAD, 500080"}]},{"name":"Rightpath computer technologies","addresses":[{"headline":"Registered Office","latlong":{"lng":78.3941782,"lat":17.4137969},"detail":"Plot No: 70,Vittal Rao Nagar Colony,Madhapur,HI-TECH City,Hyderabad-500081,","city":"Hyderabad"}]},{"name":"spaics","addresses":[{"headline":"Main Office","latlong":{"lng":73.8567437,"lat":18.5204303},"detail":"Signet Corner Balewadi PhattaBaner Pune","city":"Pune"}]},{"name":"Advanced Millennium Technologies","addresses":[{"headline":"Bangalore","latlong":{"lng":77.6603707,"lat":13.004083},"detail":"144, 2nd Main,KasturinagarBangalore","city":"144, 2nd Main,KasturinagarBangalore"}]},{"name":"thehapppyfeet","addresses":[{"headline":"Head Quarters","latlong":{"lng":77.5945627,"lat":12.9715987},"detail":"#262, 1st floor, 10th main, 1st cross, defence colony, Indiranagar 2nd stage (opposite SSB International School), Bangalore-38","city":"Bangalore"}]},{"name":"Soppnox EBusiness Solutions","addresses":[]},{"name":"MyMobileInnovations","addresses":[{"headline":"Headquarters","latlong":{"lng":-74.05688839999999,"lat":40.7319647},"detail":"574 Newark Avenue, Suite 210Jersey City, NJ 07306","city":"Jersey City"}]},{"name":"Quicsolv Software","addresses":[{"headline":"Pune","latlong":{"lng":-95.02453659999999,"lat":29.5389887},"detail":"Fifth Floor, The Chambers, CTS No. 127, 128 &amp; 120,Plot No. 4, 12 &amp; 13, Near Ganpati Temple, Viman Nagar,Pune - 14, Maharashtra, India.","city":"Fifth Floor, The Chambers, CTS No. 127, 128 &amp; 120,Plot No. 4, 12 &amp; 13, Near Ganpati Temple, Viman Nagar,Pune - 14, Maharashtra, India."}]},{"name":"Swaas Webend Applications &amp; Solutions","addresses":[]},{"name":"IT Fusion","addresses":[{"headline":"Head Office","latlong":{"lng":77.42004949999999,"lat":23.1995906},"detail":"C / 168, Shahpura , Opposite Ayushman Hospital, Bhopal, M.P.","city":"Bhopal"}]},{"name":"PlanMyDay","addresses":[{"headline":"Head Quarters","latlong":{"lng":78.44393199999999,"lat":17.4459214},"detail":"Mahitha Enclave, Madhuranagar, Hyderabad - 500038.","city":"Hyderabad"}]},{"name":"Trellisys.net","addresses":[]},{"name":"FocusQA","addresses":[{"headline":"Pune","latlong":{"lng":73.8095574,"lat":18.5574017},"detail":"Bungalow - 5,Sr 257/4/6, Next to Seasons Hotel,Aundh, Pune - 411007","city":"Bungalow - 5,Sr 257/4/6, Next to Seasons Hotel,Aundh, Pune - 411007"}]},{"name":"Accentia Technologies","addresses":[{"headline":"Mumbai","latlong":{},"detail":"D-207, Second FloorInternational Infotech CentreBelapur Railway Station ComplexCBD Belapur, Navi Mumbai Mumbai 400 614","city":"D-207, Second FloorInternational Infotech CentreBelapur Railway Station ComplexCBD Belapur, Navi Mumbai Mumbai 400 614"}]},{"name":"Toobler Technologies","addresses":[{"headline":"HQ","latlong":{"lng":76.26730409999999,"lat":9.9312328},"detail":"Floor I, Tejomaya, Infopark, Kakkanad, Cochin - 682030","city":"Cochin"},{"headline":"Kochi","latlong":{},"detail":"20A ITES Habitat CentreSector E, JNI StadiumCochin - 17, India","city":"20A ITES Habitat CentreSector E, JNI StadiumCochin - 17, India"}]},{"name":"Recept Technologies","addresses":[{"headline":"Head Office","latlong":{"lng":75.8577258,"lat":22.7195687},"detail":"","city":"Indore"}]},{"name":"Digite","addresses":[{"headline":"Bangalore","latlong":{"lng":77.599037,"lat":12.973916},"detail":"40/1A, Basappa Complex, 4th Floor,Lavelle Road, Bangalore-560001","city":"40/1A, Basappa Complex, 4th Floor,Lavelle Road, Bangalore-560001"}]},{"name":"Antara Design Studios","addresses":[{"headline":"Registered Office","latlong":{"lng":77.5945627,"lat":12.9715987},"detail":"Flat 305, Washleigh ManorRustambagh Road,Off Old Airport RoadBangalore-17","city":"Bangalore"}]},{"name":"Kamtech Associates","addresses":[{"headline":"Head Office","latlong":{"lng":75.7872879,"lat":26.9124165},"detail":"","city":"Jaipur"}]},{"name":"Veeble Softtech (P) Ltd.","addresses":[{"headline":"Head Office - Operations","latlong":{"lng":76.26730409999999,"lat":9.9312328},"detail":"Veeble Softtech Private Limited#104, ITES Habitat CentreSector E Hall, JNI Stadium ComplexKaloor, ErnakulamKerala, India 682017Ph no: 914844060025","city":"Kochin"}]},{"name":"Integra Software Services","addresses":[{"headline":"Corporate Headquarter","latlong":{"lng":79.8144722,"lat":11.9138598},"detail":"100 Feet Road (ECR), PakkamudiyanpetPondicherry &ndash; 605 008","city":"Pondicherry"}]},{"name":"GeoDirect IT Services","addresses":[{"headline":"GeoDirect IT Services Pvt Ltd Delhi","latlong":{"lng":77.22496,"lat":28.635308},"detail":"GeoDirect IT Services Pvt. Ltd.OFFICE NO.152 (1st FLOOR), CYCLE MARKET, PHASE-1,JHANDEWALAN EXTENSION.NEW DELHI -110055","city":"Delhi"},{"headline":"GeoDirect Mumbai Office:","latlong":{"lng":72.8776559,"lat":19.0759837},"detail":"GeoDirect IT Services Pvt. Ltd.204, Railway Station Complex, CBD Belapur,Navi Mumbai, Mumbai 400614","city":"Mumbai"},{"headline":"GeoDirect Pune","latlong":{"lng":73.8567437,"lat":18.5204303},"detail":"GeoDirect IT Services Pvt. Ltd.2nd Floor, &ldquo;BioEnable&rdquo;The Avenue Building,Pune Sholapur Road, Near Magarpatta Chowk,Hadapsar 411028","city":"Pune"}]},{"name":"A Personalized Concierge Service","addresses":[{"headline":"Andheri Office:","latlong":{"lng":72.83677759999999,"lat":19.118539},"detail":"10, Om Niwas, Opp.VSNL Staff Quarters, Next to Andheri Station, Andheri(E), Mumbai - 400058 Maharashtra, India.","city":"Andheri, Mumbai"},{"headline":"Regd. Office","latlong":{"lng":73.0431104,"lat":19.0241866},"detail":"C-6/19/3:2, Sector-6, CBD Belapur, Navi Mumbai - 400614 Maharashtra, India.","city":"Navi Mumbai"}]},{"name":"eStomi Technologies","addresses":[{"headline":"Consultancy Office","latlong":{"lng":77.5945627,"lat":12.9715987},"detail":"eStomi Technologies Pvt LtdNo.73, 22nd Cross, 16th MainBTM 2nd stage, mahadeshwaraLayout,BANGALORE &ndash; 560 076Phone - 97409 22224","city":"Bangalore"}]},{"name":"Brainy Lions Online Services (P) Ltd.","addresses":[{"headline":"Registered Corporate Office","latlong":{"lng":77.0714528,"lat":28.4740354},"detail":"Brainy Lions Online Services (P) Ltd.F - 147, Raheja Mall, Sohna Road, Sector - 47, Gurgaon, Haryana, India - 122001.","city":"Gurgaon, Haryana"}]},{"name":"SupportOnlineComputer","addresses":[]},{"name":"Ecannus Design","addresses":[{"headline":"Head  Office","latlong":{"lng":77.0266383,"lat":28.4594965},"detail":"Ecannus Design Private LimitedF-4/26, DLF City, Phase 1Gurgaon &ndash; 122002HaryanaIndia","city":"Gurgaon"}]},{"name":"Antal","addresses":[{"headline":"Pune","latlong":{"lng":73.7838302,"lat":18.5625465},"detail":"Baner RaodPune, 411037","city":"Baner RaodPune, 411037"}]},{"name":"PageTraffic","addresses":[{"headline":"Head Quarters","latlong":{"lng":77.22496,"lat":28.635308},"detail":"15th Floor, Eros Corporate Tower,Nehru Place","city":"New Delhi"}]},{"name":"ATRIM Electronics","addresses":[{"headline":"Corp. Office","latlong":{"lng":77.3775641,"lat":28.6827488},"detail":"First Building, KEC,95 Loni Road, Mohan Nagar,Ghaziabad- 201007","city":"Ghaziabad"},{"headline":"Registered Office","latlong":{"lng":77.315534,"lat":28.676036},"detail":"D-64/4, Vasundhra Enclave,Dilshad Colony,Delhi-110095","city":"Delhi"}]},{"name":"VapTechDesigns","addresses":[{"headline":"Kolkata","latlong":{"lng":88.4263283,"lat":22.5792003},"detail":"EN - 35 , Salt Lake City.Sector -V, Kolkata - 700091","city":"EN - 35 , Salt Lake City.Sector -V, Kolkata - 700091"}]},{"name":"XHTML Developers","addresses":[{"headline":"New Delhi","latlong":{"lng":77.1398878,"lat":28.653214},"detail":"70A/18, First Floor,Rama Road Industrial Area,New Delhi- 110015","city":"70A/18, First Floor,Rama Road Industrial Area,New Delhi- 110015"}]},{"name":"Affaan Technologies","addresses":[]},{"name":"Mag Studios","addresses":[{"headline":"New Delhi","latlong":{"lng":77.2189594,"lat":28.5647271},"detail":"268 Masjid Moth, South Ex Part 2,New Delhi &ndash; 24","city":"268 Masjid Moth, South Ex Part 2,New Delhi &ndash; 24"}]},{"name":"All India Guide","addresses":[]},{"name":"HexaCorp","addresses":[{"headline":"Chennai","latlong":{"lng":80.2192642,"lat":13.0117567},"detail":"No: 60, Industrial Estate, Perungudi, Chennai 600096.","city":"No: 60, Industrial Estate, Perungudi, Chennai 600096."}]},{"name":"Aveksa","addresses":[{"headline":"Bangalore","latlong":{"lng":-88.12725119999999,"lat":13.2723177},"detail":"2nd Floor, Prom&rsquo;s3H, 7C Main3rd Block Koramangala,Bangalore 560034","city":"2nd Floor, Prom&rsquo;s3H, 7C Main3rd Block Koramangala,Bangalore 560034"}]},{"name":"Gramener Technology Solutions Pvt. Ltd.","addresses":[{"headline":"Development Centre","latlong":{"lng":76.9558321,"lat":11.0168445},"detail":"&quot;Vishala&quot;,51 Kalingarayan StreetRamnagarCoimbatore 641009 +91 422 223 1010","city":"Coimbatore"},{"headline":"Development Centre","latlong":{"lng":77.5945627,"lat":12.9715987},"detail":"320-A, I FloorC.M.H. RoadIndiranagarBangalore 560 038 +91 80 25254554, +91 80 25219877","city":"Bangalore"}]},{"name":"BravoLucy Technologies Pvt. Ltd.","addresses":[{"headline":"Hyderabad","latlong":{"lng":18.2128093,"lat":49.84916699999999},"detail":"Plot No. 6/2 &amp; 6/3Huda Techno Enclave Phase 2,Opposite Cyber Gateway,Hitec City, Madhapur","city":"Plot No. 6/2 &amp; 6/3Huda Techno Enclave Phase 2,Opposite Cyber Gateway,Hitec City, Madhapur"}]},{"name":"Viscus Infotech","addresses":[{"headline":"Indore","latlong":{"lng":75.88316830000001,"lat":22.7293902},"detail":"31/2, New Palasia, Indore - 452 001","city":"31/2, New Palasia, Indore - 452 001"}]},{"name":"Kenriche Technologies","addresses":[{"headline":"Chennai","latlong":{"lng":80.2654269,"lat":13.0996581},"detail":"10 Parthasarathy StreetAyanavaram, Chennai 600 023TamilNadu,","city":"10 Parthasarathy StreetAyanavaram, Chennai 600 023TamilNadu,"}]},{"name":"OpportuneJobs.com","addresses":[{"headline":"Head Quarters","latlong":{"lng":77.22496,"lat":28.635308},"detail":"OpportuneJobs.comC/o SkillsKarma Services Pvt. Ltd.303, 3rd Floor, South Ex TowerMasjid Moth, South Ex - IINew Delhi - 110 049, INDIATel: +91 11 2626 1408, 6470 1408","city":"New Delhi"}]},{"name":"Vinove Software","addresses":[{"headline":"Head Office","latlong":{"lng":77.0924196,"lat":28.68159929999999},"detail":"F-2, Udyog NagarNew Delhi, 110041","city":"New Delhi"}]},{"name":"Wifinity Technology","addresses":[{"headline":"Head Quarters","latlong":{"lng":77.5945627,"lat":12.9715987},"detail":"2nd Floor, C K Plaza, # L-152,14th Cross, 5th Main, Sector VI,H S R Layout,Bangalore 560 102","city":"Bangalore"}]},{"name":"Prolore","addresses":[{"headline":"Bangalore","latlong":{"lng":77.5838692,"lat":12.9329463},"detail":"454, 6/1, 2nd Floor, 21st Cross,Behind Show-off,Jayanagar 3rd Block,Bangalore 560011","city":"454, 6/1, 2nd Floor, 21st Cross,Behind Show-off,Jayanagar 3rd Block,Bangalore 560011"}]},{"name":"FatBit Technologies","addresses":[]},{"name":"SGS Technologie","addresses":[{"headline":"Coimbatore","latlong":{"lng":76.9430993,"lat":11.0260733},"detail":"151, NSR Road, Saibaba Colony,Coimbatore - 641011","city":"151, NSR Road, Saibaba Colony,Coimbatore - 641011"}]},{"name":"Team Wise","addresses":[{"headline":"Jaipur","latlong":{"lng":75.7858387,"lat":26.8882463},"detail":"M1-M2, Software building, EPIP Gate,Sitapura Industrial Area,Jaipur, Rajasthan,","city":"M1-M2, Software building, EPIP Gate,Sitapura Industrial Area,Jaipur, Rajasthan,"}]},{"name":"BitscomIndia","addresses":[{"headline":"Head Office","latlong":{"lng":73.8567437,"lat":18.5204303},"detail":"212, Narayan Peth,Kelkar Road, near 'Z' Bridge,Gandhi Complex, IIIrd Floor,Pune - 411030Maharashtra,India","city":"Pune"}]},{"name":"Yengo","addresses":[{"headline":"New Delhi","latlong":{},"detail":"MakeProfit Learning Centre Pvt. Ltd.Ashoka Estate, 11th Floor Office 111224 Barakhamba Road New Delhi 110 001,","city":"MakeProfit Learning Centre Pvt. Ltd.Ashoka Estate, 11th Floor Office 111224 Barakhamba Road New Delhi 110 001,"}]},{"name":"Ifline Technologies","addresses":[]},{"name":"LuminDynamics","addresses":[]},{"name":"Theek Kar Do","addresses":[]},{"name":"Nandvarik System","addresses":[{"headline":"Thane","latlong":{"lng":72.9769207,"lat":19.2051658},"detail":"A1 Green ComplexThane-400601Maharashtra","city":"A1 Green ComplexThane-400601Maharashtra"}]},{"name":"SLK Software Services","addresses":[{"headline":"Bangalore","latlong":{},"detail":"&quot;Niran Arcade&quot; #563-564, New BEL Road, Sanjaynagar, Bangalore- ?560 094","city":"&quot;Niran Arcade&quot; #563-564, New BEL Road, Sanjaynagar, Bangalore- ?560 094"}]},{"name":"Comviva","addresses":[{"headline":"Bangalore","latlong":{},"detail":"Sixth Floor, Kirloskar Business Park# 50,51 , Hebbala, KempapuraNext to Columbia Asia HospitalBellary Road, Bengaluru - 560024India","city":"Sixth Floor, Kirloskar Business Park# 50,51 , Hebbala, KempapuraNext to Columbia Asia HospitalBellary Road, Bengaluru - 560024India"},{"headline":"Mumbai","latlong":{"lng":72.8317809,"lat":19.180152},"detail":"Unit No. 1-4, 1st Floor, Paradigm TowerTower B, MindspaceMalad-West, Mumbai- 400064, India","city":"Unit No. 1-4, 1st Floor, Paradigm TowerTower B, MindspaceMalad-West, Mumbai- 400064, India"},{"headline":"Regd. Office","latlong":{"lng":77.0196721,"lat":28.4329352},"detail":"A-26, Info City, Sector 34Gurgaon-122001, HaryanaIndia","city":"Gurgaon"}]},{"name":"Green Logic Labs","addresses":[{"headline":"Bangalore","latlong":{"lng":77.61527,"lat":12.9170164},"detail":"#202/3, 29th Main,BTM Layout Ist Stage,Bangalore-560068.","city":"#202/3, 29th Main,BTM Layout Ist Stage,Bangalore-560068."}]},{"name":"Ybrant Digital","addresses":[{"headline":"Registered Office","latlong":{"lng":78.42238429999999,"lat":17.4299964},"detail":"Plot # 7A, Road # 12, MLA Colony, Banjara Hills, Hyderabad - 500 034.","city":"Hyderabad"}]},{"name":"Connecting Dots Technology Systems","addresses":[{"headline":"Bangalore","latlong":{"lng":77.6027732,"lat":12.9569911},"detail":"#5/2, Trumph Tower, Eagle Street, Langford Town, Bangalore 560025","city":"#5/2, Trumph Tower, Eagle Street, Langford Town, Bangalore 560025"}]},{"name":"Speroware","addresses":[{"headline":"Bangalore","latlong":{},"detail":"Sector X, P - 37, 6th Main,LIC Colony, Jeevan Bhima Nagar,Hal III stage,Bangalore - 560 075","city":"Sector X, P - 37, 6th Main,LIC Colony, Jeevan Bhima Nagar,Hal III stage,Bangalore - 560 075"}]},{"name":"IPott Softech India","addresses":[{"headline":"Bangalore","latlong":{"lng":77.60760359999999,"lat":12.9993007},"detail":"# 31/2, Harris Road,Benson Town,Bengaluru 560 046","city":"# 31/2, Harris Road,Benson Town,Bengaluru 560 046"}]},{"name":"CheersBye Technologies","addresses":[]},{"name":"MHE NEXT ENGINEERING","addresses":[{"headline":"Navi Mumbai","latlong":{"lng":72.994035,"lat":19.1586639},"detail":"Plot No 76, Office No.6, Goodwill Harmony,Airoli-Patni Road, Sector 19, Airoli,Navi Mumbai 400708","city":"Plot No 76, Office No.6, Goodwill Harmony,Airoli-Patni Road, Sector 19, Airoli,Navi Mumbai 400708"}]},{"name":"MEC Intelligence","addresses":[{"headline":"Gurgaon","latlong":{"lng":77.0809093,"lat":28.4941463},"detail":"112, Udyog Vihar, Phase 4,Gurgaon Haryana, India.","city":"112, Udyog Vihar, Phase 4,Gurgaon Haryana, India."}]},{"name":"Netcomm Labs","addresses":[{"headline":"Head Office","latlong":{"lng":77.31449359999999,"lat":28.5773799},"detail":"B-16, Sector-16 Noida (UP) - 201303","city":"Noida"}]},{"name":"Dassnagar","addresses":[{"headline":"Kolkata","latlong":{"lng":88.26363940000002,"lat":22.5957689},"detail":"Amta Road, Dassnagar, Howrah,","city":"Amta Road, Dassnagar, Howrah,"}]},{"name":"relauncHER","addresses":[{"headline":"Online","latlong":{"lng":77.0266383,"lat":28.4594965},"detail":"","city":"Gurgaon"}]},{"name":"indrion technologies india","addresses":[{"headline":"registered office","latlong":{"lng":77.59558799999999,"lat":12.912634},"detail":"#145, 4th Cross. 7th Main, JP Nagar 3rd Phase, Bangalore, KarnatakaIndia, 560078","city":"Bangalore"}]},{"name":"Venkat Mangudi Consulting","addresses":[{"headline":"Registered Office","latlong":{"lng":77.5788287,"lat":13.0616623},"detail":"154 10th Cross 2nd MainBEL 1st Block VidyaranyapuraBangalore","city":"Bangalore"}]},{"name":"Benivolent Soft Tech","addresses":[]},{"name":"Keyideas Infotech","addresses":[{"headline":"New Delhi","latlong":{"lng":77.21301,"lat":28.51918},"detail":"G-1 Saket New Delhi 110017","city":"G-1 Saket New Delhi 110017"}]},{"name":"Real Image Media","addresses":[{"headline":"Chennai","latlong":{"lng":80.2738124,"lat":13.0474433},"detail":"7B, Third StreetBalaji NagarRoyapettahChennai &ndash; 600 014","city":"7B, Third StreetBalaji NagarRoyapettahChennai &ndash; 600 014"}]},{"name":"Mofuse","addresses":[{"headline":"Head Office","latlong":{"lng":-71.442019,"lat":41.717808},"detail":"2348 Post RdSuit 202,WarwickRohad Island","city":"Warwick"}]},{"name":"BigWeb Technologies","addresses":[{"headline":"Gurgaon","latlong":{"lng":77.0121846,"lat":28.4527413},"detail":"369/22, Gandhi NagarGurgaon, 122001","city":"369/22, Gandhi NagarGurgaon, 122001"}]},{"name":"Evomantra","addresses":[]},{"name":"India-Designers","addresses":[{"headline":"Noida","latlong":{},"detail":"C-114, Sector-2Beside Indian Oil BuildingNoida (UP)","city":"C-114, Sector-2Beside Indian Oil BuildingNoida (UP)"}]},{"name":"PassionBeat","addresses":[{"headline":"Customer Support","latlong":{"lng":86.441209,"lat":23.8152987},"detail":"ISM, ISM Dhanbad Internal RdDhanbad, Jharkhand 826004, India","city":"Dhanbad"}]},{"name":"FlexiFac Enterprises","addresses":[]},{"name":"Techiezens","addresses":[{"headline":"Delhi","latlong":{},"detail":"A-157, Basement, NearRamphal Chowk,Dwarka Sec &ndash; 7 Delhi","city":"A-157, Basement, NearRamphal Chowk,Dwarka Sec &ndash; 7 Delhi"}]},{"name":"Ridhi Sidhi Technologies","addresses":[{"headline":"Registered Office","latlong":{"lng":75.7872879,"lat":26.9124165},"detail":"174-B, DCM, Ajme Road Jaipur","city":"Jaipur"}]},{"name":"Intellibuzz","addresses":[{"headline":"Mumbai","latlong":{"lng":72.90619029999999,"lat":19.0777315},"detail":"B-5 Paras Darshan, MG Road,Ghatkopar [East],Mumbai - 400077","city":"B-5 Paras Darshan, MG Road,Ghatkopar [East],Mumbai - 400077"}]},{"name":"Vaakya Technologies","addresses":[{"headline":"Bangalore","latlong":{"lng":77.6387747,"lat":12.9699985},"detail":"601, First Floor, 12th Main, HAL 2nd Stage, Indiranagar, Bangalore Bangalore, 560008","city":"601, First Floor, 12th Main, HAL 2nd Stage, Indiranagar, Bangalore Bangalore, 560008"}]},{"name":"ProbLabs","addresses":[]},{"name":"Lets Assist","addresses":[{"headline":"Kolkata","latlong":{"lng":88.3556187,"lat":22.4841548},"detail":"57/1D N.S.C Road - Kolkata","city":"57/1D N.S.C Road - Kolkata"}]},{"name":"Vikcon Consulting","addresses":[{"headline":"Head Office","latlong":{"lng":73.8358183,"lat":18.5045198},"detail":"Ground Floor, No. 9, Gokul Society,Near Mhatre Bridge, Rajendra Nagar, Pune.","city":"Pune"}]},{"name":"Algoritz","addresses":[{"headline":"Chennai","latlong":{"lng":80.22665980000001,"lat":13.0480729},"detail":"New No.7/Old No.4, IInd Floor 4th Avenue,Dr.Ambedkar Road, Kodambakkam,Chennai - 600024","city":"New No.7/Old No.4, IInd Floor 4th Avenue,Dr.Ambedkar Road, Kodambakkam,Chennai - 600024"}]},{"name":"Primediart Technologies","addresses":[{"headline":"Kolkata","latlong":{"lng":88.37998619999999,"lat":22.5878473},"detail":"211/1 Canal StreetKolkata","city":"211/1 Canal StreetKolkata"}]},{"name":"Hitasoft Technologies","addresses":[{"headline":"Madurai","latlong":{"lng":78.1350635,"lat":9.969785100000001},"detail":"12, Pushbanjali Garden, Ezhil Nagar,Iyer Bungalow, Madurai - 625014","city":"12, Pushbanjali Garden, Ezhil Nagar,Iyer Bungalow, Madurai - 625014"}]},{"name":"ePackersAndMovers","addresses":[]},{"name":"Brainofast Technologies","addresses":[{"headline":"Headquarters","latlong":{"lng":73.8567437,"lat":18.5204303},"detail":"119/1/9a, Ananthakrupa Society,Panjab National Bank Lane, Wanaz Corner,Paud Road, Kothrud,Pune, India. 411 038","city":"Pune"}]},{"name":"bulldog sportz management","addresses":[{"headline":"head office","latlong":{"lng":77.5945627,"lat":12.9715987},"detail":"#4/5, Vasanthpura Main Road,off. Kanakpura Main Road,Bangalore - 560 061","city":"Bangalore"}]},{"name":"OneAssist","addresses":[{"headline":"Corporate Office","latlong":{"lng":72.8781322,"lat":19.1109898},"detail":"501, Center Point, Andheri Kurla RoadJ B Nagar, Andheri East, Mumbai - 400059","city":"Mumbai"}]},{"name":"HariOm Technologies","addresses":[{"headline":"Head Office","latlong":{"lng":77.412615,"lat":23.2599333},"detail":"Bhopal, Madhya Pradesh","city":"Bhopal"}]},{"name":"Candid-Software","addresses":[{"headline":"New Delhi","latlong":{"lng":77.2390784,"lat":28.5609053},"detail":"J4-B, Lajpat Nagar II,New Delhi","city":"J4-B, Lajpat Nagar II,New Delhi"}]},{"name":"SkyQuest Technology","addresses":[{"headline":"Corporate Office","latlong":{"lng":72.58,"lat":23.03},"detail":"B-501 , Krishna Complex ,Opp Devashish School,Bodakdev, S.G.Highway,Ahmedabad &ndash; 380054,","city":"Ahmedabad"}]},{"name":"Lytecube Technologies","addresses":[]},{"name":"Tech Zar Info","addresses":[{"headline":"Chennai","latlong":{"lng":80.2091984,"lat":12.9686487},"detail":"#1469, 3rd street,Ram Nagar North,Madipakkam Main Road,Chennai-91.","city":"#1469, 3rd street,Ram Nagar North,Madipakkam Main Road,Chennai-91."}]},{"name":"Platoon","addresses":[{"headline":"Head Office","latlong":{"lng":80.1843804,"lat":13.0206763},"detail":"#149, 1C-1D, II floor,Mount Poonamallae high Road,Ramapuram,Chennai 600 089","city":"Chennai"}]},{"name":"VNSupport","addresses":[]},{"name":"Practo","addresses":[{"headline":"Bangalore","latlong":{},"detail":"1st Floor, Kunchum Arcade, 28th Main,Jayanagar 9th Block, Bangalore, India - 560 069","city":"1st Floor, Kunchum Arcade, 28th Main,Jayanagar 9th Block, Bangalore, India - 560 069"}]},{"name":"Asani Consulting","addresses":[{"headline":"New Delhi","latlong":{"lng":77.193806,"lat":28.5616115},"detail":"39/1,  2nd floor, HumayunpurSafdarjung  Enclave New Delhi  - 110029","city":"39/1,  2nd floor, HumayunpurSafdarjung  Enclave New Delhi  - 110029"}]},{"name":"USA Coverage","addresses":[]},{"name":"84 Ideas","addresses":[{"headline":"Hyderabad","latlong":{"lng":78.3944732,"lat":17.4352731},"detail":"Plot No: 33A, Road No:76, Jubilee Hills, Hyderabad - 5000 33","city":"Plot No: 33A, Road No:76, Jubilee Hills, Hyderabad - 5000 33"}]},{"name":"Soft Solutions","addresses":[{"headline":"Delhi","latlong":{"lng":77.3042141,"lat":28.6461964},"detail":"78 Surya NiketanVikas Marg ExtensionDelhi, 110092","city":"78 Surya NiketanVikas Marg ExtensionDelhi, 110092"}]},{"name":"YantraSeva","addresses":[{"headline":"Corporate Office","latlong":{"lng":73.8205737,"lat":18.5140338},"detail":"Above Kinara Hotel, Opp. Vanaz Company, Paud Road, Kothrud, Pune 411038","city":"Pune"}]},{"name":"TinyLove Photography","addresses":[]},{"name":"Reach Tax","addresses":[]},{"name":"Ludvin Solutions","addresses":[]},{"name":"Ventuno Technologies Pvt Ltd","addresses":[]},{"name":"Appextech Software Solution","addresses":[]},{"name":"GTM Infotech","addresses":[]},{"name":"EcoAlliance","addresses":[{"headline":"Head Office","latlong":{"lng":80.95538510000002,"lat":26.9035002},"detail":"Unit 3, Genesis Club, Kursi Road, Lucknow, UP, 226018","city":"Lucknow"}]},{"name":"Strategix Solutions","addresses":[]},{"name":"Pour Vous Consulting","addresses":[{"headline":"Head Quarters","latlong":{"lng":88.41193899999999,"lat":22.604483},"detail":"1/3, Bangur Avenue,Block - D,3rd Floor,Kolkata - 700055","city":"Kolkata"}]},{"name":"Gars Infotech","addresses":[{"headline":"Hisar","latlong":{"lng":75.72188469999999,"lat":29.1445613},"detail":"193, Lajpat NagarHisar (Haryana)","city":"193, Lajpat NagarHisar (Haryana)"}]},{"name":"MakeMyImage","addresses":[]},{"name":"Succinct FinTech Services","addresses":[{"headline":"Operating Office","latlong":{"lng":77.5945627,"lat":12.9715987},"detail":"#456, 2nd floor, 9th cross, 2nd phase J.P. Nagar Bangalore - 560078 Contact No :+91-80-26588458","city":"Bangalore"}]},{"name":"Manam Infotech","addresses":[{"headline":"Bangalore","latlong":{"lng":77.661892,"lat":12.9999891},"detail":"#406, 1-A Main, Kasturi Nagar,Bangalore,","city":"#406, 1-A Main, Kasturi Nagar,Bangalore,"}]},{"name":"Venture Finance","addresses":[]},{"name":"Hammer &amp; Mop","addresses":[{"headline":"Base","latlong":{"lng":72.8565115,"lat":19.1087218},"detail":"6, Siddhivinayak, Sambhaji Nagar, Sahar Road, Andheri East","city":"Andheri"},{"headline":"Base","latlong":{"lng":73.12905959999999,"lat":19.2412011},"detail":"15, Vishwamitri, Lok Gram, Kalyan East, Thane 421306","city":"Kalyan East"},{"headline":"Front Desk","latlong":{"lng":72.8251147,"lat":19.0482127},"detail":"Level 4, Candelar, 26 St John Baptist Road, Near Mount Mary Steps, Bandra West, Mumbai 400050","city":"Bandra West"}]},{"name":"FinHealth","addresses":[{"headline":"Office","latlong":{"lng":88.36389500000001,"lat":22.572646},"detail":"","city":"Kolkata"}]},{"name":"Kris Internet","addresses":[]},{"name":"CloudLibs","addresses":[{"headline":"Software Solutions","latlong":{"lng":77.6180582,"lat":12.9146329},"detail":"35th Main,4th cross, Btm 2nd stage,Bangalore.560076 Karnataka","city":"Bangalore"}]},{"name":"Infotechies","addresses":[]},{"name":"Baobab","addresses":[]},{"name":"DigitalManthri Consulting","addresses":[{"headline":"Sales","latlong":{"lng":77.5999906,"lat":12.9188049},"detail":"Bannerughatta Road","city":"Bangalore"},{"headline":"GDC","latlong":{"lng":78.3700011,"lat":17.4066497},"detail":"Manikonda","city":"Hyderabad"}]},{"name":"MobileComm Professionals, Inc.","addresses":[{"headline":"HeadQuarters","latlong":{"lng":-96.7386946,"lat":32.97602940000001},"detail":"MobileComm Professionals,Inc.465 W President George Bush Hwy,Suite 200 Richardson,TX, 75080","city":"Texas"}]},{"name":"vakilsearch","addresses":[{"headline":"Chennai","latlong":{"lng":80.23364850000002,"lat":13.0846422},"detail":"F - 97, 4th Floor, Anna Nagar East Chennai, Tamil Nadu 600102 India","city":"F - 97, 4th Floor, Anna Nagar East Chennai, Tamil Nadu 600102 India"}]},{"name":"Merry Wheels","addresses":[{"headline":"Head Quaters","latlong":{"lng":77.5945627,"lat":12.9715987},"detail":"","city":"Bangalore"}]},{"name":"OrSeep","addresses":[{"headline":"Head Quarter","latlong":{"lng":72.58,"lat":23.03},"detail":"608, Wall Street - 1Near Gujarat College,Ellis Bridge,Ahmedabad 380006Gujarat, India.","city":"Ahmedabad"}]},{"name":"Trignosoft","addresses":[]},{"name":"India On A Page","addresses":[]},{"name":"Lachln","addresses":[{"headline":"Chandigarh","detail":"","city":""}]},{"name":"Pik A Venture!!","addresses":[]},{"name":"Consumer Sketch","addresses":[{"headline":"Australia Office","latlong":{"lng":-97.0035982,"lat":28.8052674},"detail":"Unit 7/ 8 Murphy StreetRichmond 3121Victoria Melbourne, AustraliaEmail : jay@consumer-sketch.comLandline: +613 &ndash; 80807522","city":"Victoria"},{"headline":"UK Office","latlong":{"lng":-0.436786,"lat":51.516758},"detail":"40 Nestles AvenueHayesUnited Kingdom UB3 4QBEmail : dthakker@consumer-sketch.comLandline: 02079935158","city":"Hayes"},{"headline":"India Branch","latlong":{"lng":73.1810976,"lat":22.3073095},"detail":"Consumer Sketch India301-302 Shiv Shakti Complex84 Samptrao ColonyAlkapuri, Baroda 390007Email : info@consumer-sketch.comLandline: + 91-265-6643214 / 6643215Fax: + 91-265-6643239","city":"Vadodara, Gujarat"}]},{"name":"MarcBiz Solutions","addresses":[{"headline":"Corporate Office","latlong":{"lng":72.58,"lat":23.03},"detail":"MarcBiz Solutions Pvt Ltd502, Shefali CentrePaldiAhmedabad-380006","city":"Ahmedabad"}]},{"name":"ZatSe","addresses":[]},{"name":"FuGenX Technologies","addresses":[{"headline":"Information Technology and Services","latlong":{"lng":77.6129472,"lat":12.9195994},"detail":"#27, 2nd Floor, 20th Main,Maruthi Nagar Main Road,BTM 1st StageBangalore &ndash; 560029","city":"Bangalore"}]},{"name":"Ontarget Marketing","addresses":[{"headline":"","detail":"","city":""},{"headline":"Internet / digital marketing services","latlong":{"lng":73.0228173,"lat":19.1045894},"detail":"Unit No.314, Building No.2 (A3), Sector-1, Millennium Business Park, Mahape, Navi Mumbai (New Mumbai), India 400710.","city":"Mumbai"}]},{"name":"GiftsXpert","addresses":[{"headline":"Sales Office","latlong":{"lng":77.22496,"lat":28.635308},"detail":"F-177, Ist Floor, Pandav NagarDelhi - 110091","city":"Delhi"}]},{"name":"Shaadi Ki Tayaari","addresses":[{"headline":"Forwarding Office","latlong":{"lng":-73.9991637,"lat":40.75368539999999},"detail":"RedRock Fund Advisors, 244, 5th Avenue, Suite G-272, New York-10001","city":"New York"},{"headline":"Main Office","latlong":{"lng":77.22496,"lat":28.635308},"detail":"Third Floor, State Bank of India Building, 19/9 Kalkaji, New Delhi-19","city":"New Delhi"}]},{"name":"ResearchArya Analytics &amp; Advisory","addresses":[{"headline":"Branch Office","latlong":{"lng":77.6435207,"lat":12.9674912},"detail":"No. 4164, 14th Main,HAL 2nd Stage, Indira NagarBangalore 560008","city":"Bangalore"}]},{"name":"WEBCOBBLERS BUSINESS SOLUTIONS","addresses":[]},{"name":"Ideacts Innovations","addresses":[{"headline":"Pune","latlong":{"lng":73.8918897,"lat":18.535787},"detail":"Bungalow no. 6,Liberty-1 North Main Road,Koregaon Park,Pune &ndash; 411001, Maharashtra.","city":"Bungalow no. 6,Liberty-1 North Main Road,Koregaon Park,Pune &ndash; 411001, Maharashtra."}]},{"name":"Paymyfee","addresses":[{"headline":"Head Office","latlong":{"lng":77.3910265,"lat":28.5355161},"detail":"","city":"Noida"}]},{"name":"RiantSoft - Software Development Company","addresses":[{"headline":"Head Quarters","latlong":{"lng":72.58,"lat":23.03},"detail":"#8, 305, Aashirwad Complex,Opp, Sardar Patel Seva Samaj Hall,Mithakali, C.G Road,Ahmedabad -380009","city":"Ahmedabad"}]},{"name":"Freecharge","addresses":[{"headline":"Headquarter","latlong":{"lng":72.8776559,"lat":19.0759837},"detail":"Accelyst solutions Pvt. Ltd.D-1, Udyog Sadan No.3,MIDC Central Road,Andheri(E), Mumbai-400 093","city":"Mumbai"}]},{"name":"bookmycab.com","addresses":[]},{"name":"ITXchg","addresses":[]},{"name":"Empowered Enterprises","addresses":[{"headline":"Work Space","latlong":{"lng":73.1810976,"lat":22.3073095},"detail":"57- World Trade Centre, sayaji Gunj, Next to Vdodara Stock Exchange, Vadodara, Gujarat","city":"Vadodra, Gujarat"}]},{"name":"Credible Real Estate Managers","addresses":[]},{"name":"WebCreators.in","addresses":[{"headline":"Head Quaters","latlong":{"lng":77.5945627,"lat":12.9715987},"detail":"World Trade Center @ Brigade Gateway, Dr. Rajkumar Road, Rajajinagar Extension, Malleswaram West","city":"Bangalore, India"}]},{"name":"PRM Fincon","addresses":[]},{"name":"Aspiring Team","addresses":[]},{"name":"NioSoft Infotech Pvt. Ltd","addresses":[{"headline":"Registered Office","latlong":{"lng":77.0478112,"lat":28.5755493},"detail":"326, Sector-19,DwarkaNew Delhi","city":"New Delhi"}]},{"name":"3D Publishing","addresses":[{"headline":"Representative Office","latlong":{"lng":78.4374713,"lat":17.4105312},"detail":"3rd Floor, NSL-ICON,P.No:1-4, Road No:12,Banjara Hills,Hyderabad,Andhra Pradesh.","city":"Hyderabad"}]},{"name":"3i InfoCom","addresses":[{"headline":"Development Lab","latlong":{"lng":72.53022039999999,"lat":23.0248341},"detail":"132 Ring Road, Satellite,Ahmedabad, GJ, India","city":"Ahmedabad"}]},{"name":"Eventia the event designers","addresses":[{"headline":"Corporate office","latlong":{"lng":76.0667,"lat":11.0667},"detail":"Groundfloor,VyaparabhavanVengara [po]Malappuram - 676304Kerala","city":"Malappuram"}]},{"name":"Gavista Tech","addresses":[{"headline":"Bangalore","latlong":{"lng":77.5877318,"lat":12.9301397},"detail":"#3381, 2 Main Road,13 Cross Road, K R Road,(Near Jayanagar 7 Block)Shastry Nagar, Bangalore,Karnataka, India 560028","city":"#3381, 2 Main Road,13 Cross Road, K R Road,(Near Jayanagar 7 Block)Shastry Nagar, Bangalore,Karnataka, India 560028"}]},{"name":"SocialBuzzar","addresses":[]},{"name":"Beevolve","addresses":[]},{"name":"encipher Media","addresses":[{"headline":"Head Quarter","latlong":{"lng":77.21666669999999,"lat":28.6666667},"detail":"Delhi-NCR","city":"Delhi-NCR"}]},{"name":"Lifesports","addresses":[]},{"name":"Genesis Colors","addresses":[{"headline":"Corporate Office","latlong":{"lng":77.0809093,"lat":28.4941463},"detail":"52, Udyog Vihar, Phase IVGurgaon, Haryana 122001","city":"Gurgaon"},{"headline":"Registered Office","latlong":{"lng":77.164797,"lat":28.573463},"detail":"3A - 1, Rao Tula Ram MargNew Delhi 110022","city":"New Delhi"}]},{"name":"Ink my web","addresses":[{"headline":"Head Office","latlong":{"lng":72.8776559,"lat":19.0759837},"detail":"Unit 302, Eco House, Vishweshwar Nagar, Off Aarey Road, Goregaon East, Mumbai - 63","city":"Mumbai"}]},{"name":"Sunwebmedia","addresses":[]},{"name":"Zed interactive","addresses":[{"headline":"Head Quarters","latlong":{"lng":77.22496,"lat":28.635308},"detail":"","city":"New Delhi"}]},{"name":"CINR Solutions","addresses":[]},{"name":"FreshersDirect","addresses":[]},{"name":"Upshot Event - Marketing &amp; Consultancy","addresses":[{"headline":"Mumbai, Pune, Bangalore, Indore","detail":"","city":""}]},{"name":"Inolyst","addresses":[{"headline":"Head Office","latlong":{"lng":77.6936948,"lat":12.9662881},"detail":"Inolyst Consulting Pvt. Ltd. First Floor, GTR Complex, 575, C Block, 60 Feet Main Road, AECS Layout, Kundhalahalli, Bangalore-560037","city":"Bangalore"}]},{"name":"The Playce","addresses":[{"headline":"Co-working Campus","latlong":{"lng":72.8776559,"lat":19.0759837},"detail":"101 Marathon MaximaLBS RoadNext to Nirmal LifestyleAbove Hero ShowroomMulund WestMumbai 400080Tel: +91 97692 41829","city":"Mumbai"}]},{"name":"JustDial","addresses":[{"headline":"REGISTERED &amp; CORPORATE OFFICE","latlong":{"lng":72.8776559,"lat":19.0759837},"detail":"Just Dial LimitedPalm Court Bldg M, 501/B, 5th Floor, New Link Road, Besides Goregaon Sports Complex, Malad (w), Mumbai - 400064.","city":"Mumbai"}]},{"name":"Elletis Web Studio","addresses":[]},{"name":"Suntec India","addresses":[]},{"name":"coworkindia","addresses":[{"headline":"Shared Office Space","latlong":{"lng":77.5945627,"lat":12.9715987},"detail":"#13, MCHS, 15th Main road, 14th Cross Road, HSR Layout, Opp BDA Complex, Bangalore","city":"Bangalore"}]},{"name":"MYZEAL IT Solutions","addresses":[{"headline":"Head Quarter","latlong":{"lng":77.3970354,"lat":28.5413965},"detail":"Plot #83, NSEZ, Phase II, Noida- 201305, Uttar Pradesh, India","city":"Noida"}]},{"name":"WISEMEN FOUNDATION","addresses":[]},{"name":"Syenergy Environics","addresses":[{"headline":"Corporate Office","latlong":{"lng":77.22496,"lat":28.635308},"detail":"206,South Extension Plaza 1, 389,Masjid Moth,NDSE II, New Delhi-110049011-26252532","city":"New Delhi"}]},{"name":"Power2sme","addresses":[]},{"name":"Lumin Innovative Web Services","addresses":[{"headline":"Web Services","latlong":{"lng":78.486671,"lat":17.385044},"detail":"Plot No: 38-B, GreenLand Colony, Beside Nehru Outer Ring Road, GACHIBOWLI 'X' Roads","city":"Hyderabad"}]},{"name":"e2e People Practices","addresses":[]},{"name":"iThink Infotech Pvt. Ltd.","addresses":[{"headline":"HQ","latlong":{"lng":72.8596712,"lat":19.0395421},"detail":"178/10,Chandreshwar Bhavan,Sion main road,Opp.Union Bank Of India,Sion West,Mumbai-400022","city":"Mumbai"}]},{"name":"Pro IT Online Training","addresses":[{"headline":"Hyderabad","latlong":{"lng":78.5014724,"lat":17.3998443},"detail":"Flat No 15, HIG 2, Block 5BaghlingamapallyHyderabad, 500044","city":"Flat No 15, HIG 2, Block 5BaghlingamapallyHyderabad, 500044"}]},{"name":"astrolika","addresses":[]},{"name":"Companiesinn.com LLP","addresses":[{"headline":"BizKiosk","latlong":{"lng":76.26730409999999,"lat":9.9312328},"detail":"Business Communication Centre, Chiramel Chambers, Kurisupally Road, Ravipuram, Cochin-682015. Phone:+91-484-3931014 Mobile:+91-8590-508935 Email:kochi@companiesinn.com","city":"Cochin"},{"headline":"BizKiosk","latlong":{"lng":78.486671,"lat":17.385044},"detail":"701, A Wing, AKTC, Ranigunj, M.G Road, Secunderabad-500003. Phone:+91-40-33477394 Mobile:+91-8801937833 Email:hyderabad@companiesinn.com","city":"Hyderabad"},{"headline":"BIzKiosk","latlong":{"lng":73.8567437,"lat":18.5204303},"detail":"No.205, 2nd Floor, Sterling Center, Opposite Aurora Tower Hotel, Camp, M.G Road, Pune-1. Phone:+91-20-30586398 Mobile:+91-7507394779 Email:pune@companiesinn.com","city":"Pune"},{"headline":"BIzKiosk","latlong":{"lng":77.22496,"lat":28.635308},"detail":"F-310B, Third Floor, Aditya Arcade, Community Centre Preet Vihar, Delhi-110092. Phone:011-47350175 Mobile:08800433345 Email:delhi@companiesinn.com","city":"Delhi"},{"headline":"BizKiosk","latlong":{"lng":72.8776559,"lat":19.0759837},"detail":"# 285, 2nd Floor, Powai Plaza, Hiranandani Gardens, Mumbai-400076. Phone:+91-22-30726859 Mobile:+91-9833002339 Email:mumbai@companiesinn.com","city":"Mumbai"},{"headline":"BIzKiosk","latlong":{"lng":80.249583,"lat":13.060422},"detail":"# 9 A - First Floor, E - Block, Dhoshi Garden, 321, Arcot Road, Vadapalani, Chennai-600026. Phone:+91-44-32460138 Mobile:+91-7667791144 Email:chennai@companiesinn.com","city":"Chennai"},{"headline":"Head Office","latlong":{"lng":77.5945627,"lat":12.9715987},"detail":"# 48, 100Ft Road, Opposite to Kendriya Sadan, Koramangala, Bangalore-560034. Phone:+91-80-30255901/03/04/05 Mobile:+91-9663329656 Email:info@companiesinn.com","city":"Bangalore"}]},{"name":"FusionFactor","addresses":[]},{"name":"Franchise Deal","addresses":[]},{"name":"Sparklin","addresses":[]},{"name":"Compassites Software Solutions","addresses":[{"headline":"Head Quarters","latlong":{"lng":77.5945627,"lat":12.9715987},"detail":"&quot;Gaayatthri Chambers&quot;, #948, 24th Main Rd, 2nd Phase, J.P.NagarBangalore- 560078","city":"Bangalore"}]},{"name":"PatentYogi","addresses":[{"headline":"HeadQuarters","latlong":{"lng":77.0266383,"lat":28.4594965},"detail":"","city":"Gurgaon"}]},{"name":"webmeliorate","addresses":[]},{"name":"Vinfinet Technologies","addresses":[]},{"name":"MyHiringClub.com","addresses":[{"headline":"Registered Office","latlong":{"lng":77.1096829,"lat":28.4280506},"detail":"327, LGF, Sushant Lok-II, Gurgaon-122011 (Haryana)","city":"Gurgaon"}]},{"name":"Thalimatrimony","addresses":[]},{"name":"Zoolley","addresses":[]},{"name":"Babu Professional IT Services","addresses":[]},{"name":"Transinfinity Technologies","addresses":[{"headline":"Operating Office","latlong":{"lng":77.6722583,"lat":12.8484876},"detail":"26/C, Hosur Road, Electronics City  Bangalore, Karnataka 560100","city":"Bangalore"},{"headline":"Registered Office","latlong":{"lng":80.249583,"lat":13.060422},"detail":"","city":"Chennai"}]},{"name":"Ethinos","addresses":[]},{"name":"RBW Media","addresses":[{"headline":"Head Office","latlong":{"lng":77.5945627,"lat":12.9715987},"detail":"","city":"Bangalore"},{"headline":"Regional Office","latlong":{"lng":88.36389500000001,"lat":22.572646},"detail":"","city":"Kolkata"},{"headline":"Regional Office","latlong":{"lng":83.3731675,"lat":26.7605545},"detail":"","city":"Gorakhpur"}]},{"name":"Website Design Gurgaon","addresses":[]},{"name":"BPlanExperts","addresses":[{"headline":"Sales Office","latlong":{"lng":77.5945627,"lat":12.9715987},"detail":"Array Consultancy ServicesWorld Trade Center,22nd floor, Unit No. N 2201, Brigade Gateway Campus, 26/1, Dr.Rajkumar Road, Malleswaram West,Bangalore - 560 055Phone: +91 80 4936 5419","city":"Bangalore"},{"headline":"Sales Office","latlong":{"lng":77.22496,"lat":28.635308},"detail":"Array Consultancy ServicesLevel 2, Elegance,Jasola District Centre,Old Mathura Road,New Delhi- 110025Phone: +91 11 4060 1565","city":"New Delhi"},{"headline":"US Office","latlong":{"lng":-74.00597309999999,"lat":40.7143528},"detail":"1133 Broadway, Suite 706New York, NY 10010 Phone: +1 855 552 7526 Mobile: +1 917 832 1230","city":"New York"},{"headline":"Corporate Office","latlong":{"lng":88.36389500000001,"lat":22.572646},"detail":"264 Shanti Pally, KolkataWest Bengal, India 700042Phone: +91 33 2442 9986Mobile: +91 943 301 7635","city":"Kolkata"}]},{"name":"FLEXOL Packaging(India) limited","addresses":[{"headline":"Head Quarters","latlong":{"lng":80.1132696,"lat":13.0607234},"detail":"183/1A, 3rd Floor, Above LouisPhillippeShowroom, Mount Poonamallee Road, Kattupakkam, Chennai - 600056","city":"Chennai"}]},{"name":"Chaipatty","addresses":[{"headline":"Tea Cafes","latlong":{"lng":77.5945627,"lat":12.9715987},"detail":"IndiranagarKoramangalaWhitefield","city":"Bangalore"}]},{"name":"de-bug Labs","addresses":[{"headline":"Head Quarters","latlong":{"lng":75.3433139,"lat":19.8761653},"detail":"5-6-70, Behind Gurudwara Ground,Osmanpura, Aurangabad.(MS) India. 431005","city":"Aurangabad"}]},{"name":"metR Technology","addresses":[{"headline":"Tech Lab","latlong":{"lng":151.1063585,"lat":-33.8957815},"detail":"First Floor-5, &quot;Mangal&quot; 3/A, VISHRUT BUNGLOW, OPP.-A-One School, Subhash Chowk, Gurukul Road, Memnagar","city":"Ahmedabad"}]},{"name":"Vertoz","addresses":[{"headline":"San Francisco, USA.","latlong":{"lng":-122.3915063,"lat":37.7890183},"detail":"Vertoz425 Market Street, Suite 2200, San Francisco,CA 94105, USA","city":"San Francisco"},{"headline":"HQ","latlong":{"lng":72.9327673,"lat":19.1424376},"detail":"Vertoz Media Pvt. Ltd.404 Filix, Opp. Asian Paints, L.B.S. Marg,Bhandup (W), Mumbai &ndash; 400078, India.","city":"Mumbai"}]},{"name":"Taxmantra.com","addresses":[{"headline":"Client Delivery Centre","latlong":{"lng":88.36389500000001,"lat":22.572646},"detail":"TM Solutions PVT LTDAC -147, Sector 1Salt lake City, Kolkata -700 064West Bengal","city":"kolkata"}]},{"name":"CarZ","addresses":[{"headline":"Headquarters","latlong":{"lng":78.486671,"lat":17.385044},"detail":"CarZPlot no. 888, Road No. 45,Jubilee Hills, Hyderabad 500 034Andhra Pradesh, INDIAPhone: (040) 23 60 61 62","city":"Hyderabad"}]},{"name":"Ladybird Web Host","addresses":[{"headline":"Head Office","latlong":{"lng":77.5973247,"lat":12.8885565},"detail":"Century Paradise, No:D-302, 115/3, Tejaswani Nagar, Dodda Kammanahalli, Bannerghatta Road, Bangalore-560076.","city":"Bangalore"}]},{"name":"KGN Enterprises","addresses":[]},{"name":"Peoples Innovation","addresses":[]},{"name":"ScriptAdda","addresses":[{"headline":"Corporate Office","latlong":{"lng":72.83825470000001,"lat":19.019547},"detail":"303, Annpurna Building, SK Bole Road, Near Agar Bazar, Dadar West","city":"Mumbai"}]},{"name":"Vinculum","addresses":[]},{"name":"iLiftOff","addresses":[{"headline":"Main Office","latlong":{"lng":72.8370857,"lat":19.0277221},"detail":"280, Shiv Kutir, Opp. Hotel Amigo, Veer Savarkar Marg, Shivaji Park, Mumbai- 400028, India","city":"Mumbai"}]},{"name":"Saverr.com","addresses":[]},{"name":"Evonix Technologies","addresses":[]},{"name":"Redbricksdeal","addresses":[{"headline":"Head Office","latlong":{"lng":72.8776559,"lat":19.0759837},"detail":"Vidyavihar Road, Opp to Naval Colony ,Ground Floor, Vidyavihar West","city":"Mumbai"}]},{"name":"IndiaPayments","addresses":[{"headline":"Registered Office","latlong":{"lng":77.0266383,"lat":28.4594965},"detail":"","city":"Gurgaon"},{"headline":"Corporate Office","latlong":{"lng":72.8776559,"lat":19.0759837},"detail":"","city":"Mumbai"}]},{"name":"Work N Hire","addresses":[{"headline":"Main Office","latlong":{"lng":77.328135,"lat":28.5951643},"detail":"C-84A, Sector 8Noida, Uttar PradeshIndia. 201301","city":"Noida"}]},{"name":"Career Bloom","addresses":[]},{"name":"Wild Creek Web Studio","addresses":[{"headline":"Chennai","detail":"","city":""}]},{"name":"GDi Techno Solutions","addresses":[{"headline":"Head Office","latlong":{"lng":80.1833735,"lat":12.9578943},"detail":"No:11, Gandhi Main Road, KeelkattalaiChennai, Tamil Nadu 600117","city":"Chennai"}]},{"name":"Test Mile","addresses":[{"headline":"Main Office","latlong":{"lng":-64.7162415,"lat":-25.2529539},"detail":"S&amp;S Business Center, #224, 1st Main Road, Domlur 2nd Stage, Off 100 Ft Road, Indiranagar Bangalore, Karnataka, India","city":"Bangalore, India"}]},{"name":"Synamen","addresses":[{"headline":"Development Center","latlong":{"lng":80.2376101,"lat":13.0517628},"detail":"New No - 7, Old No - 4, First Floor, Seetha Nagar Main Road,Nungambakkam,Chennai,Tamil Nadu - 600034","city":"Chennai"}]},{"name":"BSR DESIGNS PRIVATE LIMITED","addresses":[{"headline":"DESIGN STUDIO","latlong":{"lng":73.7654367,"lat":18.6658525},"detail":"Ground Floor, Plot no 2, Sector  27, Near Dhanvantri Hospital,PCNT, Nigdi Pune 411044","city":"PUNE"}]},{"name":"TechnoCube","addresses":[{"headline":"Development Office","latlong":{"lng":77.0611235,"lat":28.4796927},"detail":"#59, Sector 17A,Gurgaon","city":"Gurgaon"}]},{"name":"AKS WebSoft Consulting","addresses":[{"headline":"Corporate Office","latlong":{"lng":77.2922332,"lat":28.6362211},"detail":"AKS Websoft Consulting Pvt. Ltd.201-202, Himalaya Palace,Plot No-65, Vijay Block, Laxminagar, New Delhi - 110092. India","city":"New Delhi"}]},{"name":"Inspires Internet Solutions","addresses":[{"headline":"Registered Office","latlong":{"lng":73.0296625,"lat":19.0330488},"detail":"","city":"Navi Mumbai"}]},{"name":"LetsNurture","addresses":[{"headline":"Lets Nurture UK Head Quarter","latlong":{"lng":-1.7575351,"lat":53.7909642},"detail":"Letsnurture UK, Glyde House, Glydegate Bradford. BD5 0BQ United Kingdom","city":"Bradford"},{"headline":"India Office","latlong":{"lng":72.58,"lat":23.03},"detail":"Letsnurture India312 Kalasagar Mall,Opp. Saibaba Temple,Nr. Satadhar Cross Road,Ghatlodiya,Ahmedabad 380061Gujarat, India","city":"Ahmedabad"}]},{"name":"Peppermint Events &amp; Entertainment","addresses":[{"headline":"Nasik","latlong":{},"detail":"B3, thakkers Homeage,Near Chandak Circle,Tidke Colony,Nasik-5Maharashtra","city":"B3, thakkers Homeage,Near Chandak Circle,Tidke Colony,Nasik-5Maharashtra"}]},{"name":"C2B Research &amp; Advisory","addresses":[{"headline":"New Delhi","detail":"","city":""}]},{"name":"36ty Solutions","addresses":[{"headline":"Sales Office","latlong":{"lng":78.5121286,"lat":17.4091247},"detail":"202, Shivaramakrishna CastleTilak Nagar, Hyderabad - 500044","city":"Hyderabad"}]},{"name":"My Dentist","addresses":[]},{"name":"Genesis B-M","addresses":[]},{"name":"RackBank Datacenters Limited","addresses":[]},{"name":"MavenClickZ Media Pvt. Ltd.","addresses":[]},{"name":"Hostel Finder","addresses":[{"headline":"Head Quarters","latlong":{"lng":75.8517911,"lat":25.1613414},"detail":"First Floor, Above Swastika Automobile, Jhalawar Road, Kota-324007(Rajasthan) INDIA","city":"Kota"}]},{"name":"Fervent IT Solutions","addresses":[]},{"name":"Trivone","addresses":[]},{"name":"nichetech","addresses":[]},{"name":"SEO Services India","addresses":[]},{"name":"2nd VIVAH","addresses":[]},{"name":"Piquor Technologies Pvt. Ltd.","addresses":[{"headline":"Head Quarters","latlong":{"lng":77.09961299999999,"lat":28.4256506},"detail":"FF 106, Sushant Towers, Sector 56 Gurgaon","city":"Gurgaon"}]},{"name":"Beacon Insurance Brokers Pvt Ltd","addresses":[{"headline":"Branch Office","latlong":{"lng":72.8776559,"lat":19.0759837},"detail":"","city":"Mumbai"},{"headline":"Branch Office","latlong":{"lng":77.22496,"lat":28.635308},"detail":"","city":"New Delhi"},{"headline":"Corporate office","latlong":{"lng":73.14625509999999,"lat":22.3130975},"detail":"201, Taksh Complex, Gotri road, Vadodara","city":"Vadodara"}]},{"name":"Hooduku","addresses":[{"headline":"India Development Center","latlong":{"lng":77.6351809,"lat":12.9117367},"detail":"#999, 9th Main, HSR Layout Sector 7 Bengaluru, India Tel: 91 80 25729959 Fax: 91 80 25729959","city":"Bengaluru"},{"headline":"Canada Sales &amp; Development","latlong":{"lng":-80.4747476,"lat":43.4197604},"detail":"315-282 Kingswood DrKitchener, Ontario CANADA","city":"Kitchener"},{"headline":"Corp. Headquarters","latlong":{"lng":-95.39216880000001,"lat":29.9398283},"detail":"505 Sam Houston Pkwy ESuite 450HoustonTexas77060","city":"Houston"}]},{"name":"Tiffun Delivery","addresses":[]},{"name":"Axis Softech","addresses":[]},{"name":"Sconce Solutions","addresses":[]},{"name":"Capsicum Mediaworks LLP","addresses":[]},{"name":"Axilon Solutions","addresses":[{"headline":"Head Office","latlong":{"lng":88.36389500000001,"lat":22.572646},"detail":"","city":"Kolkata"}]},{"name":"Hudku","addresses":[{"headline":"Research &amp; Development","latlong":{"lng":77.57980649999999,"lat":13.0994617},"detail":"1267, 12th B Main,Yelahanka New Town,Bangalore 560064","city":"Bangalore"}]},{"name":"takkarr","addresses":[]},{"name":"Zero-Sum Wireless Solutions India Pvt.Ltd","addresses":[{"headline":"Bangalore","latlong":{"lng":77.63885669999999,"lat":12.9783477},"detail":"Zero-Sum Wireless Solutions India Pvt. Ltd. No.254, 1st Floor, 6th Cross, Indiranagar, Bangalore 560038, India","city":"Zero-Sum Wireless Solutions India Pvt. Ltd. No.254, 1st Floor, 6th Cross, Indiranagar, Bangalore 560038, India"}]},{"name":"Inknuts Multimedia Solutions Pvt. Ltd.","addresses":[{"headline":"Branch Office","latlong":{"lng":85.33333329999999,"lat":27.7},"detail":"Smart SolutionsP.O.Box: 730Kathmandu, Nepal","city":"Kathmandu, Nepal"},{"headline":"Branch Office","latlong":{"lng":80.3582552,"lat":26.4705202},"detail":"17/11 A, The Mall,Kanpur - 208001","city":"Kanpur"},{"headline":"Head Quarters","latlong":{"lng":77.06652,"lat":28.5787888},"detail":"A 95, Manzil Apartments, Plot No 7, Sector 9, Dwarka, New Delhi - 110075","city":"New Delhi"}]},{"name":"Swagat Group","addresses":[]},{"name":"Two55am","addresses":[{"headline":"Corporate Office","latlong":{"lng":-71.3824374,"lat":42.4072107},"detail":"MA-44, Moulsari AvenueDLF Phase - 3","city":"Gurgaon"}]},{"name":"seo services india","addresses":[]},{"name":"Cnergyis","addresses":[]},{"name":"Sukshm Information Services","addresses":[]},{"name":"MindWorks Global Media Services","addresses":[]},{"name":"NDDW","addresses":[]},{"name":"unceasegroup","addresses":[]},{"name":"TWC","addresses":[]},{"name":"Ahmedabad Webs","addresses":[]},{"name":"Troubleshooter Computer Service","addresses":[]},{"name":"CRMIT Solutions Private Limited","addresses":[]},{"name":"P3 Infotech","addresses":[{"headline":"Head Quarters","latlong":{"lng":77.3568485,"lat":28.6810478},"detail":"29, F4, Sector-5, Rajendra Nagar,Sahibabad,Ghaziabad(UP)India 201005","city":"NCR"}]},{"name":"Internfever","addresses":[{"headline":"Hyderabad","latlong":{"lng":78.4841254,"lat":17.3988136},"detail":"3-6-211/2, Himayathnagar, Street No 16 Hyderabad -500029","city":"3-6-211/2, Himayathnagar, Street No 16 Hyderabad -500029"}]},{"name":"Crystal Computers","addresses":[{"headline":"Data Recovery Centre","latlong":{"lng":75.7872879,"lat":26.9124165},"detail":"A176, Mahesh Nagar80 Feet Road, Tonk PhatakJaipurPh. 01412501257","city":"Jaipur"}]},{"name":"CRYSTAL NETWORK SOLUTIONS","addresses":[{"headline":"Head Quarters","latlong":{"lng":76.17837390000001,"lat":24.3604339},"detail":"B-30, KAPIL VASTU COLONYJHALAWAR -326001RAJASTHAN","city":"Jhalawar"}]},{"name":"SO Design Factory","addresses":[]},{"name":"kdecom","addresses":[]},{"name":"NetAdwise Solutions","addresses":[{"headline":"HQ","latlong":{"lng":78.4666414,"lat":17.4543133},"detail":"Prakasham Nagar,Opp Old Airport,Begumpet,Hyderabad.","city":"Hyderabad"}]},{"name":"Happiest Minds Technologies","addresses":[]},{"name":"Addon Solutions","addresses":[]},{"name":"microsysnet","addresses":[{"headline":"OFFICE BRANCHES","latlong":{"lng":76.2850599,"lat":9.974448599999999},"detail":"Microsysnet - UAEP.O Box 50050, E-LOB Office No. E-70G-19, Hamriyah Free Zone, United Arab Emirates.Microsysnet - ASIASuite XIX /115(90), 3rd Floor, Royal Plaza, Bridge Road, Aluva-1, Kerala, India.","city":"UAE ,INDIA"}]},{"name":"thaalionline","addresses":[]},{"name":"Yo! Potato","addresses":[]},{"name":"Ranves IT Solutions Pvt Ltd","addresses":[]},{"name":"First Show Movie Research","addresses":[]},{"name":"BizIntegrated","addresses":[{"headline":"Biz Integrated &ndash; Pune","latlong":{"lng":73.8567437,"lat":18.5204303},"detail":"Biz Integrated &ndash; Pune5th Floor, F wing, KK Market Complex,Pune Satara Road, Pune 411043","city":"Pune"}]},{"name":"WorkMonk","addresses":[{"headline":"Head Quarters","latlong":{"lng":77.5992703,"lat":12.9569472},"detail":"Shanti Nagar, Bangalore, India 560027","city":"Bangalore"}]},{"name":"Layer3Media Technologies","addresses":[]},{"name":"SB Leather Experts","addresses":[{"headline":"Walk-in Store","latlong":{"lng":77.22496,"lat":28.635308},"detail":"B-1, Ground Floor, Greater Kailash Enclave Part-2The Shoe Men","city":"New Delhi"}]},{"name":"PixelVJ","addresses":[]},{"name":"D Square","addresses":[{"headline":"Hyderabad","latlong":{"lng":78.3955836,"lat":17.4831966},"detail":"Plot No. 66, 9th Phase,KPHB Colony, Hyderabad - 500072","city":"Plot No. 66, 9th Phase,KPHB Colony, Hyderabad - 500072"}]},{"name":"Dhriti Management consultancy &amp; outsourcing services","addresses":[{"headline":"Head office","latlong":{"lng":77.6349399,"lat":12.9267721},"detail":"# 289, 4th Main, 1st block, Koramangala, Bangalore - 34","city":"Bangalore"}]},{"name":"Do IT New Business Solutions","addresses":[]},{"name":"EXFAQ Systems","addresses":[]},{"name":"Ideal Caterers","addresses":[]},{"name":"5n Business Consultants","addresses":[]},{"name":"247 Techies","addresses":[]},{"name":"IndiaLinkers Infotech","addresses":[{"headline":"Head Office","latlong":{"lng":77.4343394,"lat":28.6740045},"detail":"Lohia Nagar","city":"Ghaziabad"},{"headline":"Ghaziabad","detail":"","city":""}]},{"name":"Possibillion Technologies","addresses":[]},{"name":"Sunlexis","addresses":[]},{"name":"Litmus","addresses":[]},{"name":"Viral Boom","addresses":[{"headline":"Coimbatore","detail":"","city":""}]},{"name":"DineDesk","addresses":[{"headline":"Operations and Development Center","latlong":{"lng":78.486671,"lat":17.385044},"detail":"DineDesk Hospitality Solutions Pvt LtdVictoria CastleSP Road, Begumpet,Hyderabad - 500 016","city":"Hyderabad"}]},{"name":"Mahindra Finance","addresses":[]},{"name":"POSITIVESHIFT Change Consulting","addresses":[{"headline":"Corporate Learning Centre","latlong":{"lng":78.486671,"lat":17.385044},"detail":"PositiveShift Change Consulting (P) Ltd.&quot;Ambitions Corporate Learning Centre&quot;, 201 HUDA Techno Enclave, Plot No. 21, Sector 3, Opp. Raheja Mindspace, Hitec City layout, Madhapur, Hyderabad - 500081, India.","city":"Hyderabad"}]},{"name":"Language Audit Bureau","addresses":[]},{"name":"Writing Service","addresses":[]},{"name":"Ecopywriting Service","addresses":[]},{"name":"Linux  Scrappers Technologies","addresses":[{"headline":"Software Development","latlong":{"lng":75.7880184,"lat":26.8560484},"detail":"T-18,19/20 Mahaveer Nagar,Durgapura Jaipur","city":"Jaipur"}]},{"name":"Vyatta","addresses":[]},{"name":"Hands-On Management Services Pvt. Ltd","addresses":[{"headline":"Mumbai Office","latlong":{"lng":73.0110096,"lat":19.1264801},"detail":"Off No 4, Nilkanth Complex, Plot No 9, Sector 3, Ghansoli West, Navi Mumbai 400701","city":"Navi Mumbai"}]},{"name":"Chennai Web Development","addresses":[]},{"name":"eDomotics Smart Systems","addresses":[{"headline":"Experience Centre","latlong":{"lng":78.4038197,"lat":17.4207724},"detail":"H No.443-A-55,Road No.86, Jubilee Hills,Hyderabad - 500033","city":"Hyderabad"}]},{"name":"Graffiti Spaces","addresses":[{"headline":"Head Quarters","latlong":{"lng":77.1873371,"lat":28.7079184},"detail":"F - 14/12, 2nd Floor, Model Town 2, New Delhi, India 110009","city":"New Delhi"}]},{"name":"Weather Underground","addresses":[{"headline":"Head Quarters","latlong":{"lng":-83.74577339999999,"lat":42.2833749},"detail":"300 N. Fifth Ave #240MI 48104","city":"Ann Arbor"}]},{"name":"chennaistayz","addresses":[]},{"name":"Mover Junction","addresses":[]},{"name":"Recruitment World","addresses":[{"headline":"Head Office","latlong":{"lng":73.0296625,"lat":19.0330488},"detail":"","city":"Navi Mumbai"}]},{"name":"S M Travels","addresses":[]},{"name":"LuxuryNext","addresses":[{"headline":"Head Quarter","latlong":{"lng":-73.96243270000001,"lat":40.7645239},"detail":"420 East 64th Street, Suite E7J New York, NY 10065 (United States)","city":"New York"}]},{"name":"Cyrix Technology","addresses":[{"headline":"Engineering Office","latlong":{"lng":85.1520587,"lat":25.5862998},"detail":"East Indira Nagar, Road No-1Kankarbagh, Patna-20","city":"Bihar"}]},{"name":"Multi Minerals Industries","addresses":[{"headline":"Head Office","latlong":{"lng":73.3411062,"lat":28.0037465},"detail":"22-23, Industrial Area, Opposite ITI - 342003, Rajasthan, India","city":"Jodhpur"}]},{"name":"paradigmshiftpr","addresses":[{"headline":"PARADIGM SHIFT PR","latlong":{"lng":72.8776559,"lat":19.0759837},"detail":"10, Mistry Chambers,Ground Floor, Near Strand Cinema,Colaba, Mumbai- 400005.(Please make an appointmentbeforehand.)","city":"Mumbai"}]},{"name":"Weddings Crown","addresses":[{"headline":"Head Office","latlong":{"lng":77.22496,"lat":28.635308},"detail":"905, Aggarwal Millennium Tower 1Netaji Subhash Palace, PitamPuraNew Delhi-34","city":"Delhi"}]},{"name":"Vertical Forever","addresses":[{"headline":"Head Office","latlong":{"lng":77.10048510000001,"lat":28.6273479},"detail":"1st Floor, 153 Partap Nagar, Jail Road, New Delhi 110064","city":"New Delhi"}]},{"name":"OnlineXpert","addresses":[{"headline":"Head Quarters","latlong":{"lng":75.7633127,"lat":26.860729},"detail":"Mansarovar,Jaipur, Rajastan.","city":"Jaipur"},{"headline":"Head Quarters","latlong":{"lng":75.7633127,"lat":26.860729},"detail":"Mansarovar, Jaipur","city":"Jaipur"}]},{"name":"webdesigner.lk","addresses":[]},{"name":"mitrask","addresses":[{"headline":"CORPORATE OFFICE","latlong":{"lng":88.36389500000001,"lat":22.572646},"detail":"Mitra S. K. Private LimitedShrachi Centre (5th Floor),74B, Acharya Jagadish Chandra Bose Road,Kolkata - 700 016","city":"Kolkata"}]},{"name":"PACE Catalysts","addresses":[{"headline":"Branch Office","latlong":{"lng":77.22496,"lat":28.635308},"detail":"B-61, ShivalikPashchim ViharNew Delhi 110017India","city":"New Delhi"},{"headline":"Head Quarters","latlong":{"lng":78.486671,"lat":17.385044},"detail":"Ground Floor,Laxmi Cyber CityKondapur, Hyderabad 500084India","city":"Hyderabad"}]},{"name":"Pixel Jobs","addresses":[{"headline":"Pixel Office","latlong":{"lng":77.219678,"lat":28.5626444},"detail":"130/2, 3rd floor, Masjid Moth, South Extension - 2, New Delhi","city":"New Delhi"}]},{"name":"CSP CORP","addresses":[]},{"name":"Waterblasting Technologies","addresses":[]},{"name":"Dreamz Info","addresses":[]},{"name":"Infinvent IP","addresses":[]},{"name":"aavaaz.com","addresses":[{"headline":"Yellow Pages Directory","latlong":{"lng":78.44393199999999,"lat":17.4459214},"detail":"Aavaaz#408, Aditya Trade Center,Ameerpet,Hyerabad, Andhra Pradesh, India - 500038","city":"Hyderabad"}]},{"name":"TechOnDesk","addresses":[]},{"name":"Netlurks IT Solutions","addresses":[{"headline":"Head Office","latlong":{"lng":72.58,"lat":23.03},"detail":"315, Sangath Mall-1,Opp. IIT Chandkheda,Sabarmati,Ahmedabad - 382424.Ahmedabad.","city":"Ahmedabad"}]},{"name":"Venture Quotient","addresses":[]},{"name":"Saltbridge Solutions Pvt. Ltd.","addresses":[{"headline":"Operations Office","latlong":{"lng":77.6110372,"lat":12.9071455},"detail":"#61/B, 3rd floor | 16th Main, 17th Cross | BTM 2nd Stage | Bangalore - 560076","city":"Bangalore"}]}],"number":448,"addresses":345}
