{"companies":[{"name":"Sinew","addresses":[{"headline":"head office","latlong":{"lng":78.486671,"lat":17.385044},"detail":"F5, Triveni Sangam.Behind Times HouseRoad 3Banjara HillsHyderabad 500034","city":"Hyderabad"}]},{"name":"theResPage","addresses":[]},{"name":"Loot Draw","addresses":[]},{"name":"Jugaad Labs","addresses":[{"headline":"Registered Office","latlong":{"lng":75.7691262,"lat":26.8901396},"detail":"D - 132, Lane # 6Gautam MargNirman NagarJaipur, Rajasthan, India - 302019","city":"Jaipur"},{"headline":"Headquaters","latlong":{"lng":75.9347113,"lat":11.3097769},"detail":"Room No. 338/339Hostel PG - 2NITC HostelsNIT CalicutKozhikode, Kerala, India - 673601","city":"Kozhikode"}]},{"name":"Act to Rise for Innovation in Special Education (A R I S E)","addresses":[{"headline":"Head Office","latlong":{"lng":76.7794179,"lat":30.7333148},"detail":"Act to Rise for Innovation in Special Education,  A R I S E  Charitable Trust,3265,Sector 35-D,Chandigarh - 160022India","city":"Chandigarh"}]},{"name":"Pratyasha","addresses":[{"headline":"Registered Office-NGO","latlong":{"lng":18.0308026,"lat":47.3695631},"detail":"Nutan Pally, P.O-Suri, Dist-Birbhum, West Bengal, Pin-731101","city":"Suri"}]},{"name":"Akshamaala","addresses":[{"headline":"Sales Office","latlong":{"lng":78.486671,"lat":17.385044},"detail":"Flat#240 F, Janapriya Nagar, Phase-2,Lane-2, Miyapur, Hyderabad-500049Andhra Pradesh, (India)","city":"Hyderabad"},{"headline":"Head Office","latlong":{"lng":77.328135,"lat":28.5951643},"detail":"F 35, Sector 8, Noida","city":"Noida"},{"headline":"Head Office","latlong":{"lng":77.328135,"lat":28.5951643},"detail":"F 35, Sector 8, Noida","city":"Noida"}]},{"name":"JeevAnksh.com","addresses":[{"headline":"Registered Office","latlong":{"lng":91.77499999999999,"lat":26.1833333},"detail":"Brahma Kutir,Navagiri Road, Chandmari,Guwahati, Assam","city":"Guwahati"}]},{"name":"ZILLION","addresses":[{"headline":"Head Quarters","latlong":{"lng":-122.2006786,"lat":47.610377},"detail":"","city":"Bellevue, WA, USA"}]},{"name":"iCharity","addresses":[{"headline":"Corporate Office","latlong":{"lng":77.0266383,"lat":28.4594965},"detail":"6th Floor, Building 4A, DLF Corporate Park, MG Road","city":"Gurgaon"}]},{"name":"Strike Success","addresses":[{"headline":"Online","latlong":{"lng":73.0296625,"lat":19.0330488},"detail":"Navi Mumbai","city":"Mumbai"}]},{"name":"No Nasties","addresses":[{"headline":"Main Office","latlong":{"lng":72.8776559,"lat":19.0759837},"detail":"No Nasties 602, MermaidJuhu Tara Road, JuhuMumbai 400 049, IndiaPh: +91 98 33 55 01 60","city":"Mumbai"}]},{"name":"Corporate Valley","addresses":[{"headline":"HQ","latlong":{"lng":78.96288,"lat":20.593684},"detail":"India","city":""}]},{"name":"Essmart","addresses":[]},{"name":"The Talento","addresses":[{"headline":"Not Like an Office","latlong":{"lng":78.554638,"lat":17.3449859},"detail":"Road No.4,Krishnanagar Colony,P&amp;T Colony,Chaitanyapuri,Hyderabad,Andhra Pradesh-500060","city":"Hyderabad"}]},{"name":"B N SATNALIKA FOUNDATION","addresses":[{"headline":"Registered Office","latlong":{"lng":87.1164726,"lat":23.6090163},"detail":"92 M G RoadRaniganj-713347West BengalDist-Burdwan","city":"Raniganj"}]},{"name":"ProjectHeena","addresses":[{"headline":"HQ","latlong":{"lng":72.8448476,"lat":19.1257992},"detail":"Amboli, Andheri West,Mumbai","city":"Mumbai"}]},{"name":"Ibetter Technologies","addresses":[{"headline":"Engineering office","latlong":{"lng":77.5945627,"lat":12.9715987},"detail":"IBetter Technologies#39A, 5th Cross Road, MuneshwaraLayout, Ayappa Nagar Circle,KR Puram, Bangalore-560036Phone No.:+91-8064517623Email at: info@ibetter.in","city":"Bangalore"}]},{"name":"contreezy","addresses":[]},{"name":"Swaniti Initiative","addresses":[{"headline":"Headquarters","latlong":{"lng":77.20674269999999,"lat":28.542767},"detail":"11/11 Sarv Priya ViharNew Delhi - 110016","city":"New Delhi, India"}]},{"name":"Thalia Technologies","addresses":[]},{"name":"BRIQUE Technology Solutions and Consulting","addresses":[{"headline":"Development Office","latlong":{"lng":72.9780897,"lat":19.2183307},"detail":"B-1, 3rd Floor, Ashar IT Park,Ambika Nagar, Road no 16 Z,Wagle Industrial Estate,Thane(W).","city":"Thane"},{"headline":"Head Quarters","latlong":{"lng":72.95486989999999,"lat":19.1636368},"detail":"502, Utkarsha, Sajjan Wadi,Mithagar Rd.,Mulund(E).Mumbai - 400081","city":"Mumbai"}]},{"name":"IgnitedV","addresses":[{"headline":"New Delhi","latlong":{"lng":77.195435,"lat":28.545568},"detail":"IIT Delhi, New Delhi","city":"IIT Delhi, New Delhi"}]},{"name":"Apnalaya","addresses":[{"headline":"HR, Finance and Administrative Office","latlong":{"lng":72.8776559,"lat":19.0759837},"detail":"Apnalaya07-08A New Jaiphalwadi Co-Op Hsg. Society, Behind Armed Police Quarters, Tardeo, 400034 MumbaiIndia","city":"Mumbai"}]},{"name":"Klus Consulting","addresses":[]},{"name":"Drishtant Consultancy Services","addresses":[{"headline":"Mumbai","detail":"","city":""}]},{"name":"Ektta","addresses":[]},{"name":"Bioddicted","addresses":[{"headline":"Head Quarter","latlong":{"lng":8.0688135,"lat":48.3479505},"detail":"Kirchstr.277736 Zell a.H.Black Forest - Germany","city":"Zell a.H."}]},{"name":"Assistwindow","addresses":[{"headline":"Development Office","latlong":{"lng":76.7794179,"lat":30.7333148},"detail":"","city":"Chandigarh"}]},{"name":"Ecoswarm","addresses":[]},{"name":"Niddoo","addresses":[]},{"name":"Jazbaa - The Passion Within","addresses":[]},{"name":"Whiz Mantra Educational Solutions","addresses":[]},{"name":"Wikalps","addresses":[]},{"name":"Justice For Women","addresses":[]},{"name":"Ascendify","addresses":[{"headline":"Headquarters","latlong":{"lng":-122.4194155,"lat":37.7749295},"detail":"","city":"San Francisco"}]},{"name":"Anamcaara","addresses":[{"headline":"Head Office- a.k.a The Studio","latlong":{"lng":77.16418999999999,"lat":28.558644},"detail":"1, Basant Lok, 2nd FloorVasant Vihar,New Delhi- 110057India","city":"New Delhi"}]},{"name":"Doondoo","addresses":[]},{"name":"Youth Communications","addresses":[]},{"name":"Monkey Creative Labs","addresses":[{"headline":"Head Quarters","latlong":{"lng":80.256303,"lat":13.0381267},"detail":"44, Eldams Road, Teynampet, Chennai, India.","city":"chennai"}]},{"name":"Buy1GIVE1","addresses":[]},{"name":"Kulhar","addresses":[]},{"name":"Tek Arena","addresses":[{"headline":"HQ","latlong":{"lng":77.5945627,"lat":12.9715987},"detail":"Tekarena.IN.World Trade Center,22nd floor, Unit No. N 2201, Brigade Gateway Campus,No.26/1, Dr.Rajkumar Road, Malleswaram West, Bangalore - 560 055,India","city":"Bangalore"},{"headline":"Head Quarters","latlong":{"lng":77.5663678,"lat":13.0339008},"detail":"#388, 7th Cross MSR Nagar","city":"Bangalore"}]},{"name":"BSR IT Solutions Private Limited","addresses":[{"headline":"Head Office","latlong":{"lng":77.5945627,"lat":12.9715987},"detail":"BSR IT Solutions Private Limited.,#0315, 2nd Floor, K.R.Road, Banashankari 2nd Stage, Bangalore - 560070email: bsr@bsrits.comurl: www.bsrits.com","city":"Bangalore"}]},{"name":"Viraliti","addresses":[]},{"name":"Kreeo (i-nable solutions pvt.ltd.)","addresses":[{"headline":"Corporate Office","latlong":{"lng":77.5945627,"lat":12.9715987},"detail":"Kreeo (i-nable Solutions (P) Ltd.)#1/A, Super Market Building Trinity Acres &amp; Woods Sarjapur Road, Bangalore, Karnataka, INDIA 560102","city":"Bangalore"}]},{"name":"Artoo","addresses":[]},{"name":"mysteps","addresses":[]},{"name":"WASH United India","addresses":[]},{"name":"Devengers","addresses":[]},{"name":"United Micro Credit (India)","addresses":[]},{"name":"Unitus Capital","addresses":[{"headline":"Head Quarters","latlong":{"lng":77.5945627,"lat":12.9715987},"detail":"Kaiser-E-Hind, Second Floor, No. 9/3, Richmond Road, Bangalore - 560 025 - INDIA","city":"Bangalore"}]},{"name":"TriggerO","addresses":[]},{"name":"4F (INDIA) Network","addresses":[]},{"name":"Tamanna","addresses":[{"headline":"HQ","latlong":{"lng":72.8776559,"lat":19.0759837},"detail":"14/A Nisar Bhuvan, Sleater Road, Grant Road (W), Mumbai-7","city":"Mumbai"}]},{"name":"Saraplast","addresses":[{"headline":"Corporate Office","latlong":{"lng":73.7838302,"lat":18.5625465},"detail":"203, Rujuta Complex, Nachiket Park, Baner Road, Pune","city":"Pune"}]},{"name":"Anju Infotech","addresses":[{"headline":"Head Office","latlong":{"lng":77.22496,"lat":28.635308},"detail":"","city":"Delhi"}]},{"name":"NothingElseMatterz","addresses":[]},{"name":"Yavvy","addresses":[{"headline":"Works","latlong":{"lng":77.22496,"lat":28.635308},"detail":"","city":"New Delhi"}]},{"name":"KB Web Circles","addresses":[]},{"name":"Samhita","addresses":[]},{"name":"Sarokar","addresses":[{"headline":"Head Office","latlong":{"lng":82.6537455,"lat":23.2877713},"detail":"Sarokar Foundation, Near Saguna More, Bailey Road, Patna","city":"Patna"}]},{"name":"Boom Adcom","addresses":[]},{"name":"Moreinno","addresses":[{"headline":"Corporate Office","latlong":{"lng":77.0266383,"lat":28.4594965},"detail":"","city":"Gurgaon"}]},{"name":"DreamStarts.in","addresses":[]},{"name":"SeekFundz","addresses":[]},{"name":"Hire seo expert","addresses":[]},{"name":"Boy Girl Baby Names","addresses":[]},{"name":"SMSTongue","addresses":[]},{"name":"ZynQo","addresses":[]}],"number":70,"addresses":40}
