{"companies":[{"name":"LocalCircles","addresses":[{"headline":"Headquarters","latlong":{"lng":77.3266991,"lat":28.5821195},"detail":"1105, 11th floor,Advant Navis Business Park,Sector-142, Noida, India 201301","city":"Noida"}]},{"name":"And-Beyond","addresses":[]},{"name":"startINK","addresses":[]},{"name":"Pokeyournose","addresses":[{"headline":"Corporate Office","latlong":{"lng":77.2433891,"lat":28.5484064},"detail":"M-73, LGF, GK Part - 2, New Delhi - 110048","city":"New Delhi"}]},{"name":"Rishtey Konnekt","addresses":[]},{"name":"Valyu","addresses":[{"headline":"Sales Office","latlong":{"lng":76.948623,"lat":8.4874949},"detail":"AYSHWARYA BUILDINGSPRESS ROAD, TRIVANDRUM- 695001KERALA, INDIA","city":"Trivandrum"}]},{"name":"Fabity","addresses":[{"headline":"New Delhi","detail":"","city":""}]},{"name":"iFlyLabs","addresses":[{"headline":"Head Office","latlong":{"lng":77.3910265,"lat":28.5355161},"detail":"A-63, Sector-51NoidaU.P. - 201301.Contact - 9650112222, 9911199246","city":"Noida"}]},{"name":"LetsDine","addresses":[{"headline":"HQ","latlong":{"lng":78.3115471,"lat":17.46372},"detail":"Aparna SarovarJ-503LingampallyHyderabad","city":"Hyderabad"}]},{"name":"CoinciFriends","addresses":[{"headline":"Engineering Office","latlong":{"lng":72.8776559,"lat":19.0759837},"detail":"","city":"Mumbai"}]},{"name":"Stallmart Online Service Pvt Ltd","addresses":[]},{"name":"icrave tech","addresses":[{"headline":"Head quaters","latlong":{"lng":73.8797127,"lat":18.5347267},"detail":"I Crave Tech, 318 Connaught Place, Bund Garden Road, Pune &ndash; 411001","city":"Pune"}]},{"name":"Plovist","addresses":[]},{"name":"Talent Unlimited Online Services","addresses":[{"headline":"Engineering Office","latlong":{"lng":77.1515453,"lat":28.5273352},"detail":"369, E-2 Vasant Kunj, New Delhi - 110070","city":"New Delhi"}]},{"name":"Discountpop","addresses":[]},{"name":"Best Model Talent.com","addresses":[{"headline":"Head Qauarters","latlong":{"lng":-115.1533426,"lat":36.0357492},"detail":"BestModelTalent,LLC                                       8174 S. Las Vegas Blvd                         Bldg 109, Suite 74                                            Las Vegas, NV 89123","city":"Las Vegas"}]},{"name":"Funduzz","addresses":[{"headline":"Registered Office","latlong":{"lng":72.8776559,"lat":19.0759837},"detail":"","city":"Mumbai"},{"headline":"Registered Office","latlong":{"lng":72.8776559,"lat":19.0759837},"detail":"","city":"Mumbai"}]},{"name":"Sozialpapier","addresses":[{"headline":"Engineering Operations","latlong":{"lng":80.21818859999999,"lat":12.9805116},"detail":"1347,L.I.G-1, T.N.H.B., velachery checkpost, chennai - 600042","city":"chennai"}]},{"name":"creative nature","addresses":[]},{"name":"Finderous","addresses":[{"headline":"Head Quarters","latlong":{"lng":-121.9885719,"lat":37.5482697},"detail":"","city":"Fremont"}]},{"name":"Binox.me","addresses":[{"headline":"Bangalore","latlong":{"lng":77.6623817,"lat":13.0186728},"detail":"#61 Vijaya Bank Colony Extension,Horamavu, Bangalore-560043","city":"#61 Vijaya Bank Colony Extension,Horamavu, Bangalore-560043"}]},{"name":"JobeeHive","addresses":[{"headline":"Bangalore","latlong":{"lng":77.58499189999999,"lat":12.9028708},"detail":"#664, 2nd Floor, 17th cross6th Phase, JP NagarBangalore, 560078","city":"#664, 2nd Floor, 17th cross6th Phase, JP NagarBangalore, 560078"}]},{"name":"My2i","addresses":[{"headline":"My2i HQ","latlong":{"lng":90.3705378,"lat":23.7537585},"detail":"293 West Dhanmondi, Dhaka, Bangladesh","city":"Dhaka"}]},{"name":"hapta","addresses":[]},{"name":"Lost Beat","addresses":[{"headline":"Head Quarters","latlong":{"lng":77.15226,"lat":28.695912},"detail":"702-D Mall, Netaji Subhash Palace, Pitampura, New Delhi","city":"New Delhi"}]},{"name":"VirtueTeam.com Inc","addresses":[{"headline":"CORPORATE OFFICE","latlong":{"lng":-79.2852412,"lat":43.7682665},"detail":"703 VirtueTeam.com Inc100 Dundalk dr, Scarborough, ON, M1P 4V2","city":"Toronto"}]},{"name":"white rivers digital","addresses":[{"headline":"Head Quarters","latlong":{"lng":72.9076669,"lat":19.0908063},"detail":"A 506 Neelkanth Business Park, Near Vidyavihas Station, Ghatkopar - West, Mumbai- 400086","city":"Mumbai"}]},{"name":"CASEconnect","addresses":[{"headline":"Head Quarters","latlong":{"lng":77.66077109999999,"lat":12.9633026},"detail":"Karthik Niwas, House No. 500, 7th Cross, 10th Main, Jeevanbhima Nagar. Bangalore-560075.","city":"Bangalore"}]},{"name":"MakeMeNoise","addresses":[]},{"name":"IndiaFreeDeals","addresses":[]},{"name":"A Billion Reasons","addresses":[{"headline":"Head Quarters","latlong":{"lng":77.6147721,"lat":12.9360457},"detail":"No. 931, 1st B main, Koramangala 4th Block","city":"Bangalore"}]},{"name":"Incog","addresses":[{"headline":"Head Quarters","latlong":{"lng":77.6180582,"lat":12.9146329},"detail":"#122, 4th Cross, 35th Main, BTM 2nd Stage, Bangalore-560076","city":"Bangalore"}]},{"name":"MangoSpring","addresses":[{"headline":"UK","latlong":{"lng":-0.0818382,"lat":51.52635919999999},"detail":"The Glebe6 Chapel PlaceLondon, EC2A 3DQ","city":"London"},{"headline":"'Head Quarters","latlong":{"lng":-122.168607,"lat":47.57232399999999},"detail":"4122 Factoria Blvd. SE, Suite #405Bellevue, WA 98006, USA","city":"Seattle"},{"headline":"Development Center","latlong":{"lng":73.8846411,"lat":18.564071},"detail":"401 Building - 1, CommerZone, Smrat Ashok PathYerwada, Pune - 411 006","city":"Pune"}]},{"name":"QuackQuack.in","addresses":[]},{"name":"Kweet","addresses":[]},{"name":"fans4pages","addresses":[]},{"name":"Wallpost","addresses":[]},{"name":"Muvi","addresses":[{"headline":"Engineering Office","latlong":{"lng":85.8245398,"lat":20.2960587},"detail":"3rd Floor Binayak Complex,1465, NayapalliBhubaneswar - 751012","city":"Bhubaneswar"}]},{"name":"facemash, Inc.","addresses":[]},{"name":"LinkedIn","addresses":[]},{"name":"Talentsin","addresses":[{"headline":"Engineering Base","latlong":{"lng":80.9484195,"lat":26.9004124},"detail":"A/30 - Near Novelty Cinema,Aliganj, Lucknow","city":"Lucknow"}]},{"name":"www.mypurplemartini.com","addresses":[{"headline":"Headquarters","latlong":{"lng":77.22496,"lat":28.635308},"detail":"","city":"New Delhi"}]},{"name":"Webenza","addresses":[]},{"name":"Etable","addresses":[{"headline":"Tech Startup","latlong":{"lng":77.5945627,"lat":12.9715987},"detail":"","city":"Bangalore"}]},{"name":"Adepto Solutions","addresses":[]},{"name":"Engem","addresses":[]},{"name":"e-cognosys Information Systems","addresses":[{"headline":"Head Quarters","latlong":{"lng":72.8776559,"lat":19.0759837},"detail":"Unit No. 411C, Floral Deck Plaza, Central MIDC Road, Andheri East, Mumbai 400 093","city":"Mumbai"}]},{"name":"Zecross Media","addresses":[{"headline":"Development Office","latlong":{"lng":77.0914935,"lat":28.9285745},"detail":"","city":"Sonipat"},{"headline":"Marketing and Development Office","latlong":{"lng":77.152547,"lat":28.69437},"detail":"307, H-6, Aggarwal Tower Netaji Subhash Place, Pitampura New Delhi, India - 110034","city":"New Delhi"}]},{"name":"DateIITians","addresses":[]},{"name":"Giveter","addresses":[{"headline":"Top Floor with city view and helipad","latlong":{"lng":77.0839446,"lat":28.4879521},"detail":"M-7/17,DLF phase - IIGurgaon","city":"Gurgaon"}]},{"name":"mYwindow","addresses":[{"headline":"HQ","latlong":{"lng":79.0306032,"lat":21.0589527},"detail":"","city":"Mihan, Nagpur"}]},{"name":"Hitherto Crush","addresses":[]},{"name":"Bollywu","addresses":[]},{"name":"JAP Systems","addresses":[]},{"name":"Unmetric","addresses":[{"headline":"Regional Office","latlong":{"lng":80.2592255,"lat":12.957587},"detail":"SP infocity,MGR Salai, Perungudi,Chennai 600096","city":"Chennai"},{"headline":"Regional Office","latlong":{"lng":-122.3990341,"lat":37.78724},"detail":"156 2nd Street,San Francisco, CA 94105","city":"San Francisco"},{"headline":"Regional Office","latlong":{"lng":-74.0057152,"lat":40.7272544},"detail":"175 Varick Street,New York, NY 10013","city":"New York"},{"headline":"Headquarters","latlong":{"lng":-87.9218076,"lat":42.0389126},"detail":"2001 Victoria RoadChicago, IL 60060","city":"Chicago"}]},{"name":"Gungroo","addresses":[{"headline":"Main Office","latlong":{"lng":77.6226959,"lat":12.9316556},"detail":"Gungroo Software Pvt. Ltd.3rd Floor, #912, GKR Towers, 80 Feet Road, 6th Block, Koramangala, Bangalore &ndash; 560 095, India","city":"Bangalore"}]},{"name":"Social Samosa","addresses":[]},{"name":"JustUnFollow","addresses":[]},{"name":"Neosocial 7 Media Soltuions","addresses":[{"headline":"Headquarters","latlong":{"lng":72.8776559,"lat":19.0759837},"detail":"Shop no 8, Embassy C.H.S. Shastri Nagar, Near Lokhandwala CircleAndheri West","city":"Mumbai"}]},{"name":"TVEEN TECHNOLOGIES PRIVATE LIMITED","addresses":[{"headline":"Head Quarters","latlong":{"lng":77.3910265,"lat":28.5355161},"detail":"LGF 63, ANSAL FORTUNE ARCADESECTOR 18, NOIDA, UP 201301INDIA","city":"Noida"}]},{"name":"HasGeek","addresses":[{"headline":"HQ","latlong":{"lng":77.64738349999999,"lat":13.008802},"detail":"No. 194, Second 'C' Cross, Domlur, 2nd Stage, Bangalore - 560071, Karnataka, India","city":"Bangalore"},{"headline":"Head Quarters","latlong":{"lng":77.5945627,"lat":12.9715987},"detail":"No 194, 2nd C Cross, 4th Main, Opp. Domlur Club, Domlur 2nd Stage, Bangalore - 560 071, India","city":"Bangalore"}]},{"name":"SocialAppsHQ","addresses":[{"headline":"Head Quarter","latlong":{"lng":77.31592959999999,"lat":28.5846875},"detail":"B-93B, 1st Floor, Sector-2, Noida, UP-201301","city":"Noida"}]},{"name":"Ekayan Software Labs","addresses":[]},{"name":"Knowrom","addresses":[]},{"name":"Kleverlinks Network Private Limited","addresses":[]},{"name":"WriterBabu","addresses":[]},{"name":"Blank Page Innovations","addresses":[]},{"name":"Feedspot","addresses":[]},{"name":"LetsAlign","addresses":[]},{"name":"Insieve.com","addresses":[]},{"name":"Internpedia","addresses":[]},{"name":"Oponion","addresses":[]},{"name":"Social Squared","addresses":[]},{"name":"Wingsofvoice","addresses":[]},{"name":"Knimbus","addresses":[]},{"name":"Scopic Web Inc","addresses":[{"headline":"Corporate Office","latlong":{"lng":77.6052799,"lat":12.9263916},"detail":"#103, 2nd Floor, 2nd cross, Muthappa Garden, Thavarekere Main Road, BTM Layout, 1st Stage, Thavarekere, Bangalore-560029,Karnataka, India.","city":"Bangalore"}]},{"name":"Blow Brand Communications","addresses":[]},{"name":"Gigya","addresses":[]},{"name":"Friend2Friend","addresses":[]},{"name":"SocialTwist","addresses":[]},{"name":"Actiance","addresses":[]},{"name":"Attensity","addresses":[]},{"name":"Caden Inc","addresses":[]},{"name":"ACID","addresses":[{"headline":"One Office","latlong":{"lng":85.8245398,"lat":20.2960587},"detail":"ACIDN3/325 , 1st Floor, IRC VillageBhubaneswar,Odisha, India. Zip 751015","city":"Bhubaneswar"}]},{"name":"nacvoice","addresses":[]},{"name":"Heavens Online Marketing Pvt. Ltd.","addresses":[]}],"number":86,"addresses":47}
