{"companies":[{"name":"Wildnest Travel &amp; Photography","addresses":[{"headline":"Delhi/NCR","latlong":{"lng":77.324317,"lat":28.645442},"detail":"B-40, Radha Krishna Lane, Kaushambi,Ghaziabad-201010, India","city":"B-40, Radha Krishna Lane, Kaushambi,Ghaziabad-201010, India"}]},{"name":"Zuunie Holidays","addresses":[{"headline":"Registered Office","latlong":{"lng":77.3910265,"lat":28.5355161},"detail":"A-3/4 SECTOR 110, NOIDAUP, Pin 201301","city":"Noida"}]},{"name":"Fulfill Travel India","addresses":[{"headline":"Head Office","latlong":{"lng":80.2683718,"lat":13.0336437},"detail":"Level 6, Chennai Citi Center10/11 Dr.Radhakrishna Salai,Chennai-600004","city":"Chennai"}]},{"name":"Pilania Travels","addresses":[{"headline":"Pilania Travels office","latlong":{"lng":77.0586048,"lat":28.6038658},"detail":"Plot no 516, Lane 36, Palam/Dwarka, New Delhi","city":"Palam, New Delhi"}]},{"name":"India Tours Online","addresses":[{"headline":"head quarter","latlong":{"lng":77.22496,"lat":28.635308},"detail":"(A Division of Trans India Holidays)Mr. Rajesh KaushikNo. 42, Community Center, Kailash Colony Extn,Zamrudpur, New Delhi-110 048, (India)Phone : +(91)-(11)- 29234617","city":"new delli"}]},{"name":"Renaissance Reizen Private Limited","addresses":[{"headline":"New Delhi","latlong":{"lng":77.1868958,"lat":28.6432531},"detail":"17/9 (1st Floor), Old Rajinder NagarNew Delhi 110 060 INDIA","city":"17/9 (1st Floor), Old Rajinder NagarNew Delhi 110 060 INDIA"}]},{"name":"RatedApartments","addresses":[{"headline":"Back Office","latlong":{"lng":77.22496,"lat":28.635308},"detail":"","city":"Dehi"}]},{"name":"Beckon Tours Pvt. Ltd.","addresses":[{"headline":"corporate office","latlong":{"lng":77.22496,"lat":28.635308},"detail":"Mrs. Neelam Rai Singh (Managing Director) / Mr. Deepak Manwani(Director)I - 30, Ground Floor, Lajpat Nagar - 2New Delhi-110 024, Delhi, IndiaEmail : beckontours@gmail.comMobile No.: +(91)-9810723810Phone:+(91)-(11)-29813546/29810225/29811796","city":"new delli"}]},{"name":"edevdb.com - Add Your Skills","addresses":[]},{"name":"just4cabs","addresses":[{"headline":"tours &amp; travels","latlong":{"lng":72.8393019,"lat":19.1629924},"detail":"A Wing 403, Mithanagar CHS,, Opp Old BMC Office,Goregaon West, Mumbai, Maharashtra 400104","city":"Mumbai"}]},{"name":"Travspire","addresses":[]},{"name":"Trabblr","addresses":[]},{"name":"Car Rental India","addresses":[{"headline":"head quarter","latlong":{"lng":77.22496,"lat":28.635308},"detail":"Taneja House I-84, IInd Floor, Lajpat Nagar II, New Delhi - 110024Phone : + 91-11-2981 2200 to 2204Fax : +91-11-29812211","city":"new delli"}]},{"name":"Joy Travels","addresses":[{"headline":"Travel Agency","latlong":{"lng":77.21548299999999,"lat":28.6271666},"detail":"8, Regal Building, Parliament Street, Connaught Place, New Delhi - 110001","city":"Delhi"}]},{"name":"TEAM 4 ADVENTURE","addresses":[]},{"name":"Travelshanti","addresses":[{"headline":"Head Office","latlong":{"lng":77.22496,"lat":28.635308},"detail":"I - 45, Ground FloorLajpat Nagar, Part - 1New Delhi -110024Ph. No. +91-99-102-33433Ph. No. +91-11-4579-3392","city":"New Delhi"}]},{"name":"Allied Express Packers And Movers Chennai","addresses":[{"headline":"Transportation","latlong":{"lng":80.249583,"lat":13.060422},"detail":"Address:c17, 1 st floor,CMDA Truck Terminal,GNT Road Madavaram,Chennai-600066Email &ndash; ID: alliedexpresspackers@gmail.com, info@alliedexpresspackers.in","city":"Chennai"}]},{"name":"SharedCab","addresses":[]},{"name":"Tripsharing","addresses":[{"headline":"main base","latlong":{"lng":78.486671,"lat":17.385044},"detail":"","city":"Hyderabad"}]},{"name":"AlwaysOnTrip","addresses":[{"headline":"Headquarters","latlong":{"lng":-121.8949555,"lat":37.3393857},"detail":"","city":"San Jose, USA"}]},{"name":"YatriCab.com","addresses":[{"headline":"Head Quarter","latlong":{"lng":77.22496,"lat":28.635308},"detail":"YatriCab.comBy Krishna Bharti Group (KB Group)Block A1, Street No.32, Shop No.03Near Rani Public School ,Sant Nagar, BurariDelhi- 110084India","city":"Delhi"}]},{"name":"YatraFinder","addresses":[]},{"name":"Travel Spirit International Pvt. Ltd","addresses":[{"headline":"Head Office","latlong":{"lng":77.2441075,"lat":28.5692718},"detail":"Taneja House I-84, Lajpat Nagar II New Delhi - 110 024, India","city":"New Delhi"}]},{"name":"Jumpstart Outdoors","addresses":[]},{"name":"Yatra Online","addresses":[]},{"name":"SkyTaxi","addresses":[{"headline":"Operating Base airport","latlong":{"lng":32.573056,"lat":-25.919722},"detail":"Maputo international airport, Maputo, Mozambique","city":"Maputo"},{"headline":"Head Quarters","latlong":{"lng":39.26666669999999,"lat":-15.1166667},"detail":"52/A, Rua da Marinha, Cidade de Nampula, Nampula, Mozambique","city":"Nampula"}]},{"name":"Truly Egypt Tours","addresses":[]},{"name":"RR India Tour","addresses":[{"headline":"New Delhi","latlong":{"lng":77.1868958,"lat":28.6432531},"detail":"17/9, 1st Floor, Old Rajendra NagarNew Delhi 110060","city":"17/9, 1st Floor, Old Rajendra NagarNew Delhi 110060"}]},{"name":"Erco Travels","addresses":[{"headline":"Head Office","latlong":{"lng":77.2922332,"lat":28.6018062},"detail":"F  204-206, Ashish complex, LSC, Mayur Vihar Phase-I, New Delhi - 110091","city":"New Delhi"}]},{"name":"Check In Tonight","addresses":[]},{"name":"Pehravni","addresses":[{"headline":"Jaipur","latlong":{"lng":75.7882056,"lat":26.863538},"detail":"S-284, Mahaveer Nagar, Tonk Road, Jaipur, 302018, Rajasthan,India","city":"S-284, Mahaveer Nagar, Tonk Road, Jaipur, 302018, Rajasthan,India"}]},{"name":"Autowale","addresses":[]},{"name":"tripzmate","addresses":[{"headline":"Business center","latlong":{"lng":72.8186827,"lat":21.1809602},"detail":"15,Madhavnagar, Near canara bank,Near vishwakarma arcade,Majura Gate,Surat -395002,Gujarat.","city":"Surat"}]},{"name":"CABonCLICK","addresses":[]},{"name":"Travel Rhythm","addresses":[]},{"name":"Deals4Getaways Pvt Ltd","addresses":[{"headline":"Registered Office","latlong":{"lng":77.5945627,"lat":12.9715987},"detail":"Deals4Getaways Pvt Ltd#401, SR Towers, Horamavu Main RoadKalyan Nagar, Hennur Bande, HennurBangalore, Karnataka, IndiaPincode: 560043","city":"Bangalore"}]},{"name":"Ninety Degree Internet Software","addresses":[]},{"name":"Mytravels","addresses":[]},{"name":"Compare My Ticket","addresses":[{"headline":"Delhi and Vadodara","latlong":{"lng":73.16464719999999,"lat":22.2675971},"detail":"DelhiVadodara","city":"DelhiVadodara"}]},{"name":"Oravel","addresses":[{"headline":"Head Quarters","latlong":{"lng":77.22496,"lat":28.635308},"detail":"Oravel Stays Private Ltd1st &amp; 2nd Floor, 130/2, Masjid Moth, South Ex 2, Delhi-49","city":"New Delhi, Delhi, India"}]},{"name":"Bachans Tour &amp; Travels","addresses":[{"headline":"Head Office","latlong":{"lng":74.8904032,"lat":31.570144},"detail":"The Bachans Old Kundan Dhaba Opp Railway Station Amritsar Punjab","city":"Amritsar"}]},{"name":"RideIndia","addresses":[{"headline":"Headquarter","latlong":{"lng":72.8776559,"lat":19.0759837},"detail":"","city":"Mumbai"}]},{"name":"rebelvanlines","addresses":[]},{"name":"Travel More Places","addresses":[{"headline":"Registered Office","latlong":{"lng":77.22496,"lat":28.635308},"detail":"B-4, Essel Mansion, 2286/87,Arya Samaj Road, Karol Bagh,New Delhi-110005Ph: 91-11-28758235, 28750246,Fax.:91-11-28757281","city":"New Delhi"},{"headline":"Corporate Office","latlong":{"lng":76.62538649999999,"lat":28.6815037},"detail":"1F/32, B.P, Tikona Park, Opp. Mata ka Manadir, NIT, Faridabad-121001,Haryana Ph. 91-129-2421172/2419499 Fax.:91-129-4109499","city":"Faridabad"}]},{"name":"OutThing.com","addresses":[{"headline":"Head Office","latlong":{"lng":77.1377306,"lat":28.7024398},"detail":"99 Vaishali, PitampuraNew Delhi - 110034","city":"New Delhi"}]},{"name":"eZeeCLOUD","addresses":[{"headline":"Head Office","latlong":{"lng":77.5834339,"lat":12.9285212},"detail":"#181/18, Anish's Pride, 2nd Floor,5th Main, 4th Block, Jayanagar,Bangalore &ndash; 560011Karnataka, India","city":"Bangalore India"}]},{"name":"Tushky.com","addresses":[{"headline":"HQ","latlong":{"lng":72.8393019,"lat":19.1629924},"detail":"1/43, yeshwant nagar, Opp Patkar college, SV Road, Goregaon west, Mumbai","city":"Mumbai"}]},{"name":"ITEG","addresses":[{"headline":"Booking and Tour Operator Services","latlong":{"lng":77.2146478,"lat":28.5284594},"detail":"ITEG Pvt. Ltd.B-29 ShivalikNew Delhi 110017, India","city":"New Delhi"}]},{"name":"Savaari Car Rentals","addresses":[]},{"name":"Stoneheadbikes","addresses":[{"headline":"Workshop","latlong":{"lng":77.3152116,"lat":28.6842763},"detail":"27 No, DSIDC Shed, Jhilmil A Block,Near Mansarover Metro StationNew Delhi-110095","city":"New Delhi"}]},{"name":"Best Of Journey","addresses":[{"headline":"Travel Operators","latlong":{"lng":77.2778694,"lat":28.6377254},"detail":"E-21, 2nd Floor, Office No. 201, Street No. 4, Jawahar Park, Laxmi Nagar, New Delhi - 110092","city":"Delhi"}]},{"name":"The Other Home","addresses":[{"headline":"Corporate","latlong":{"lng":77.26063049999999,"lat":28.5787299},"detail":"The Other HomeE-261, First Floor, Amar ColonyLajpat Nagar IVNew Delhi - 110024","city":"Delhi"}]},{"name":"The Indian Backpacker","addresses":[{"headline":"Branch Office","latlong":{"lng":72.8776559,"lat":19.0759837},"detail":"","city":"Mumbai"},{"headline":"Branch Office","latlong":{"lng":78.2676116,"lat":30.0869281},"detail":"","city":"Rishikesh"},{"headline":"Head Office","latlong":{"lng":77.1729605,"lat":28.6463546},"detail":"42/8 East Patel Nagar, New Delhi 110008","city":"New Delhi"}]},{"name":"YourBus","addresses":[]},{"name":"TriporTrap","addresses":[]},{"name":"Touristlink","addresses":[{"headline":"Nagpur Office","latlong":{"lng":15.1699711,"lat":46.6113027},"detail":"14/1 &amp; 14/2, 2nd Floor, IT Park, South Ambazari Road,Parsodi, Nagpur-MH-440022","city":"Nagpur"}]},{"name":"seek&amp;hide","addresses":[{"headline":"Admin Office","latlong":{"lng":77.5945627,"lat":12.9715987},"detail":"","city":"Bangalore"}]},{"name":"Culligence Software","addresses":[{"headline":"HQ","latlong":{"lng":78.364684,"lat":17.458218},"detail":"MyBusTickets.inCulligence Software (India) Pvt. LtdPlot No 4, Survey No 13# 601, Homenix Sribagh Colony, Kondapur, Hyderabad &ndash; 32Phone: 040-4466 8088 Email:info@mybustickets.in","city":"Hyderabad"}]},{"name":"Gozocabs","addresses":[]},{"name":"HoneymoonSwami.com","addresses":[{"headline":"Head office","latlong":{"lng":76.62538649999999,"lat":28.6815037},"detail":"F-32/33/34, DLF Centre PointMathura Road, Opp. Bata FlyoverFaridabad 121001Haryana, India","city":"Faridabad"}]},{"name":"NimbleMind Technology Solutions","addresses":[{"headline":"Head Quarters","latlong":{"lng":80.2375964,"lat":13.0841799},"detail":"NimbleMind Technology Solutions Pvt. Ltd,#30/21, Secretariat Colony, 1st Street,Kilpauk,Chennai &ndash; 600010","city":"Chennai"}]},{"name":"Greener Pastures","addresses":[{"headline":"Head Office","latlong":{"lng":94.9119621,"lat":27.4728327},"detail":"First ChoiceH S RoadDibrugarh 786001Assam, India.","city":"Dibrugarh"}]},{"name":"CheckInTonight","addresses":[]},{"name":"Iris Holidays Private Limited","addresses":[{"headline":"Head Quarters","latlong":{"lng":76.303444,"lat":10.031584},"detail":"32/1822 A,Edappally P O KochiKerala - 682024","city":"Kochi"}]},{"name":"Padhaaro","addresses":[]},{"name":"Trekurious","addresses":[]},{"name":"My IndiEye","addresses":[]},{"name":"Zarahutke","addresses":[]},{"name":"Red Hill Ventures","addresses":[]},{"name":"Friday Sunday","addresses":[]},{"name":"Gocarz Advertising","addresses":[{"headline":"Head Office","latlong":{"lng":77.2024306,"lat":28.5308814},"detail":"Shop # 8, DDA Market, Geetanjali Enclave, New Delhi.","city":"New Delhi"}]},{"name":"Elan Adventures","addresses":[{"headline":"Corporate Office","latlong":{"lng":77.22496,"lat":28.635308},"detail":"","city":"New Delhi"}]},{"name":"Ticket Goose","addresses":[]},{"name":"ReturnCab.com","addresses":[]},{"name":"www.ApnaBus.in","addresses":[{"headline":"Head Office","latlong":{"lng":78.4394887,"lat":17.3943441},"detail":"#225,1st Floor, Safa Aracde, Mehdipatnam, Hyderabad-500028","city":"Hyderabad"}]},{"name":"PINEWOODS SERVICE CORPROATION","addresses":[{"headline":"Head Quarters","latlong":{"lng":73.8507279,"lat":18.5321997},"detail":"8, Thube Park, Behind HDFC HOUSE, Shivaji Nagar, Pune 411005","city":"PUNE"}]},{"name":"YourCabs","addresses":[]},{"name":"Veethi","addresses":[]},{"name":"A Break Please","addresses":[]},{"name":"India Untravelled","addresses":[]},{"name":"AudioCompass","addresses":[{"headline":"India Office","latlong":{"lng":72.8776559,"lat":19.0759837},"detail":"","city":"Mumbai"}]},{"name":"Adenue","addresses":[]},{"name":"MIDDLE EAST MEDICS","addresses":[]},{"name":"v resort","addresses":[{"headline":"CORPORATE OFFICE","latlong":{"lng":77.3910265,"lat":28.5355161},"detail":"BC 17, First FloorAdvant Business ParkSector 142, NOIDA - 201301Uttar PradeshINDIA.","city":"noida"}]},{"name":"FareTours.Com","addresses":[{"headline":"Head Office","latlong":{"lng":77.22496,"lat":28.635308},"detail":"Building No.- 197,1st Floor, Jeevan nagar, Maharani Bagh, New Delhi - 110014Ph.: +91-11-47350215Fax: +91-11-26348131E-mail: info@faretours.com","city":"New Delhi"}]},{"name":"Peerless India","addresses":[]},{"name":"prasannapurple","addresses":[{"headline":"prasannapurple.","latlong":{"lng":73.858013,"lat":18.4948484},"detail":"Pune - Satara Road,Walvekar Lawns, Next to Big Bazaar, Pune - Satara Road,, Pune - 411037","city":"Pune"}]},{"name":"vacationindia.co.in","addresses":[]}],"number":88,"addresses":55}
